{"arr":17,"streets":[{"kind":"street","id":"v:17:15136","name":"allée Colette Heilbronner","arr":17,"lat":48.89291,"lng":2.31052,"themes":[],"shape":[[2.30919,48.89234],[2.3105,48.89297],[2.31057,48.893],[2.31061,48.89301],[2.3115,48.89334],[2.31175,48.89344],[2.31181,48.89338],[2.31081,48.893],[2.30928,48.89228],[2.30919,48.89234]],"quartier":"Batignolles","lengthM":218,"story":"En hommage à la résistante Colette Heilbronner qui fut abattue le 18 mai 1944 devant l'immeuble situé 25, cité des Fleurs, ou se trouvaient réunis les résistants affectés au service national des faux papiers, dont elle avait reçu la responsabilité.","image":{"provider":"panoramax","id":"039e3db9-b583-4594-b8e1-81655ca883f4","lat":48.89342,"lng":2.31181,"sequenceId":"a1e94e75-e914-403f-8bb4-153019167838"}},{"kind":"street","id":"v:17:10919","name":"allée du Général Koenig","arr":17,"lat":48.88184,"lng":2.28413,"themes":[],"shape":[[2.28426,48.88192],[2.28427,48.8819],[2.28384,48.88164],[2.28381,48.88167],[2.28421,48.88192],[2.28426,48.88193],[2.28426,48.88192]],"quartier":"Ternes","lengthM":40,"story":"Marie Pierre Koenig (Caen, 1898-Paris, 1970), général français et homme politique ; célèbre par sa résistance à Bir-Hakeim en 1942 ; ministre de la Défense nationale en 1954-1955 ; maréchal de France à titre posthume. Voisinage de la place du Général Koenig.","image":{"provider":"panoramax","id":"3a49d845-cfcc-4218-b94f-2daba9b1647e","lat":48.8813,"lng":2.28389,"sequenceId":"70de8d6c-1c50-45e0-a905-2f6710806bab"}},{"kind":"street","id":"v:17:15234","name":"allée Jean-François Divry","arr":17,"lat":48.89125,"lng":2.3101,"themes":[],"shape":[[2.30997,48.89111],[2.30988,48.89117],[2.3103,48.89145],[2.3104,48.89139],[2.30997,48.89111]],"quartier":"Batignolles","story":"Jean-François Divry, élu du 17e arrondissement décédé en 2011.","image":{"provider":"panoramax","id":"2244afe7-31ea-42ff-ac36-141adbb6e022","lat":48.89145,"lng":2.31027,"sequenceId":"bf3368af-9098-4dac-b1ff-69c871086684"}},{"kind":"street","id":"v:17:15689","name":"allée Rosemonde Gérard","arr":17,"lat":48.88234,"lng":2.31032,"themes":[],"shape":[[2.31024,48.8823],[2.31026,48.8823],[2.31028,48.88231],[2.31029,48.88232],[2.31029,48.88246],[2.31039,48.88241],[2.31037,48.88241],[2.31035,48.88241],[2.31034,48.8824],[2.31033,48.88238],[2.31033,48.8823],[2.31033,48.88228],[2.31034,48.88226],[2.31035,48.88225],[2.31024,48.8823]],"quartier":"Plaine de Monceaux","story":"Rosemonde Gérard (Paris, 1866 – Paris, 1953), femme de Lettres.","image":{"provider":"panoramax","id":"7fd6b7a3-8f3e-4f0c-8071-91091efe9088","lat":48.88252,"lng":2.31042,"sequenceId":"b62e423a-55e8-46af-a24c-d18f1d836c06"}},{"kind":"street","id":"v:17:15226","name":"allée Yvette Guilbert","arr":17,"lat":48.8887,"lng":2.31436,"themes":[],"shape":[[2.31456,48.88884],[2.31422,48.88838],[2.31406,48.88849],[2.31439,48.88894],[2.31456,48.88884]],"quartier":"Batignolles","story":"Yvette Guilbert, née Emma Laure Esther Guilbert (Paris, 1865 - Aix-en-Provence (Bouches-du-Rhône), 1944), chanteuse française du café-concert et parolière. Lauréate du Grand Prix du Disque de l'académie Charles Cros en 1954.","image":{"provider":"panoramax","id":"dff02b98-e59c-481c-b840-f72131dc2dc1","lat":48.88839,"lng":2.3143,"sequenceId":"ee842571-639c-4352-9e4e-84046d5df414"}},{"kind":"street","id":"v:17:9517","name":"avenue Brunetière","arr":17,"lat":48.89007,"lng":2.30039,"themes":[],"shape":[[2.30207,48.89117],[2.30231,48.89087],[2.30177,48.89062],[2.30149,48.89049],[2.30103,48.89027],[2.30078,48.89015],[2.30002,48.88979],[2.2998,48.88969],[2.29954,48.88956],[2.29949,48.88954],[2.29938,48.88948],[2.29928,48.88944],[2.29896,48.88928],[2.29892,48.88927],[2.29884,48.88923],[2.29877,48.88919],[2.29869,48.88916],[2.29865,48.88914],[2.29855,48.88909],[2.29853,48.88908],[2.29847,48.88905],[2.29829,48.88897],[2.29802,48.88898],[2.29986,48.88985],[2.30016,48.88999],[2.30149,48.89063],[2.30201,48.89093],[2.30204,48.89095],[2.30207,48.89098],[2.30209,48.891],[2.30211,48.89104],[2.30211,48.89106],[2.30211,48.8911],[2.3021,48.89112],[2.30208,48.89115],[2.30207,48.89117]],"quartier":"Plaine de Monceaux","lengthM":390,"story":"Ferdinand Brunetière (1849-1906), professeur, écrivain et critique français."},{"kind":"street","id":"v:17:9624","name":"avenue Carnot","arr":17,"lat":48.87551,"lng":2.29346,"themes":[],"shape":[[2.29388,48.87505],[2.29353,48.87508],[2.29334,48.87531],[2.29311,48.87558],[2.29287,48.87587],[2.29264,48.87614],[2.2924,48.87642],[2.29217,48.87669],[2.29192,48.87692],[2.29253,48.87701],[2.29278,48.87671],[2.29297,48.87649],[2.29318,48.87624],[2.29338,48.876],[2.29361,48.87573],[2.29377,48.87554],[2.29393,48.87534],[2.29388,48.87505],[2.29366,48.87489],[2.29388,48.87505],[2.29417,48.8751],[2.29416,48.87508],[2.29441,48.87478],[2.29429,48.87474],[2.29417,48.87469],[2.29406,48.87464],[2.29395,48.87459],[2.29384,48.87472],[2.2937,48.87489],[2.29366,48.87489]],"quartier":"Ternes","lengthM":299,"story":"Lazare Nicolas Marguerite Carnot (1753-1823), général et homme politique français ; voisinage de l'Arc de Triomphe.","image":{"provider":"panoramax","id":"df07a309-e5f1-4171-a091-c878f67bd728","lat":48.87514,"lng":2.29406,"sequenceId":"4c3949f1-a60f-4697-915c-17d65c3b01f4"}},{"kind":"street","id":"v:17:9917","name":"avenue de Clichy","arr":17,"lat":48.88952,"lng":2.32156,"themes":[],"shape":[[2.32074,48.89026],[2.3195,48.89085],[2.31894,48.89117],[2.317,48.89229],[2.31552,48.89314],[2.3141,48.89396],[2.31475,48.89386],[2.31604,48.89312],[2.31694,48.89259],[2.31834,48.8918],[2.31969,48.89102],[2.32074,48.89026],[2.32266,48.889],[2.32442,48.88829],[2.32575,48.88749],[2.32651,48.88584],[2.32694,48.88492],[2.32737,48.88399],[2.32686,48.88439],[2.32629,48.88563],[2.32576,48.88677],[2.32535,48.88748],[2.32385,48.88835],[2.32266,48.889],[2.32074,48.89026],[2.32108,48.89022],[2.32154,48.88995],[2.32174,48.88983],[2.32206,48.88965],[2.32249,48.8894],[2.32273,48.88912],[2.3222,48.88929],[2.3218,48.88953],[2.32143,48.88974],[2.32098,48.89],[2.32074,48.89026]],"quartier":"Batignolles","lengthM":1550,"story":"Conduit à Clichy.","image":{"provider":"panoramax","id":"48d6f7bf-0b19-456c-a616-53b18d7c27f0","lat":48.88439,"lng":2.32696,"sequenceId":"cdce5999-564b-4d18-ac2a-2495907e88ea"}},{"kind":"street","id":"v:17:9728","name":"avenue de la Chapelle","arr":17,"lat":48.88115,"lng":2.28651,"themes":[],"shape":[[2.28689,48.88142],[2.28668,48.88129],[2.28676,48.88123],[2.28675,48.88122],[2.28673,48.88123],[2.28649,48.88126],[2.2865,48.88125],[2.28648,48.88124],[2.28642,48.8812],[2.28639,48.88117],[2.28639,48.88116],[2.28645,48.88112],[2.28629,48.88101],[2.28629,48.881],[2.28661,48.88092],[2.28676,48.88088],[2.28679,48.88088],[2.28672,48.88083],[2.28649,48.88089],[2.28643,48.88091],[2.28629,48.88094],[2.28618,48.88097],[2.28623,48.88103],[2.28627,48.88106],[2.28636,48.88117],[2.28636,48.88119],[2.28638,48.8812],[2.28637,48.88121],[2.28644,48.88125],[2.28645,48.88126],[2.28645,48.88127],[2.28649,48.8813],[2.28653,48.88133],[2.28656,48.88135],[2.28686,48.88144],[2.28689,48.88142]],"quartier":"Ternes","lengthM":80,"story":"Ancienne chapelle du hameau des Ternes.","image":{"provider":"panoramax","id":"23197820-6c7f-4e23-ba03-25f2f93b7787","lat":48.88053,"lng":2.28644,"sequenceId":"1bef991b-552e-4694-bc97-77bdf74471b7"}},{"kind":"street","id":"v:17:12961","name":"avenue de la Porte d'Asnières","arr":17,"lat":48.8911,"lng":2.30253,"themes":[],"shape":[[2.30231,48.89154],[2.30275,48.89118],[2.30293,48.89124],[2.30297,48.89121],[2.30343,48.89094],[2.30355,48.89085],[2.30389,48.89059],[2.30397,48.89053],[2.30428,48.89045],[2.30343,48.89003],[2.3033,48.89023],[2.30327,48.89025],[2.30321,48.89029],[2.30317,48.89032],[2.30314,48.89035],[2.30306,48.89041],[2.30305,48.89041],[2.30296,48.89048],[2.30286,48.89056],[2.30279,48.89061],[2.30276,48.89063],[2.30262,48.89074],[2.30257,48.89078],[2.30245,48.89087],[2.30238,48.89092],[2.30207,48.89117],[2.30129,48.89177],[2.30088,48.8921],[2.3005,48.89243],[2.30035,48.89255],[2.30083,48.89277],[2.30081,48.89269],[2.30128,48.89234],[2.30169,48.89203],[2.30209,48.8917],[2.30231,48.89154]],"quartier":"Batignolles","lengthM":360,"story":"Située en partie sur l'emplacement de l'ancienne porte d'Asnières.","image":{"provider":"panoramax","id":"570359c0-553e-4f66-8561-514d789ba932","lat":48.8908,"lng":2.30298,"sequenceId":"a1e94e75-e914-403f-8bb4-153019167838"}},{"kind":"street","id":"v:17:12968","name":"avenue de la Porte de Champerret","arr":17,"lat":48.88629,"lng":2.28711,"themes":[],"shape":[[2.28603,48.88649],[2.28643,48.88644],[2.28665,48.88654],[2.28795,48.88638],[2.288,48.88637],[2.2881,48.88636],[2.28851,48.88627],[2.28911,48.8862],[2.28915,48.88597],[2.28863,48.8859],[2.28801,48.88597],[2.28738,48.88605],[2.28659,48.88615],[2.28626,48.88619],[2.28563,48.88627],[2.28532,48.88631],[2.28562,48.88654],[2.28569,48.88653],[2.28603,48.88649]],"quartier":"Ternes","lengthM":265,"story":"Voisinage de l'ancienne porte de Champerret.","image":{"provider":"panoramax","id":"95d1a1b2-b35e-4f63-a288-bb1e468eff94","lat":48.88616,"lng":2.28848,"sequenceId":"a1e94e75-e914-403f-8bb4-153019167838"}},{"kind":"street","id":"v:17:12976","name":"avenue de la Porte de Clichy","arr":17,"lat":48.89562,"lng":2.31152,"themes":[],"shape":[[2.31166,48.89514],[2.31092,48.89556],[2.31017,48.89599],[2.31007,48.89605],[2.30976,48.89628],[2.30955,48.89652],[2.3094,48.89665],[2.30955,48.89671],[2.31084,48.8972],[2.31096,48.89674],[2.31111,48.89663],[2.31106,48.89659],[2.31093,48.89649],[2.31111,48.89617],[2.31112,48.89617],[2.31121,48.89611],[2.31176,48.8958],[2.31178,48.89579],[2.31187,48.89574],[2.31188,48.89573],[2.31239,48.89543],[2.31249,48.89538],[2.3133,48.89491],[2.3135,48.89445],[2.31263,48.89458],[2.31255,48.89463],[2.31252,48.89465],[2.31236,48.89474],[2.31232,48.89476],[2.31228,48.89479],[2.31211,48.89488],[2.31207,48.8949],[2.31202,48.89494],[2.312,48.89495],[2.3117,48.89512],[2.31166,48.89514]],"quartier":"Batignolles","lengthM":385,"story":"Située en partie sur l'emplacement de l'ancienne porte de Clichy.","image":{"provider":"panoramax","id":"eee917d0-36df-4f0b-a64b-5c357e98149e","lat":48.89543,"lng":2.31185,"sequenceId":"d8af3f48-0e48-4c09-8826-49ac5b150ba5"}},{"kind":"street","id":"v:17:13002","name":"avenue de la Porte de Saint-Ouen","arr":17,"lat":48.89901,"lng":2.32947,"themes":[],"shape":[[2.33054,48.90085],[2.33029,48.90014],[2.33024,48.89998],[2.33025,48.89996],[2.33025,48.89993],[2.33019,48.89975],[2.33014,48.89962],[2.33005,48.89954],[2.33001,48.89942],[2.32985,48.89895],[2.3298,48.89879],[2.32967,48.8988],[2.32947,48.89823],[2.32941,48.89806],[2.32949,48.89801],[2.32952,48.898],[2.3296,48.89791],[2.32961,48.89789],[2.32963,48.89782],[2.32841,48.89779],[2.32842,48.89784],[2.32844,48.89787],[2.32848,48.89792],[2.32852,48.89795],[2.32858,48.89799],[2.32865,48.89802],[2.32869,48.89804],[2.32875,48.89813],[2.32899,48.89885],[2.3292,48.89949],[2.32931,48.8998],[2.32939,48.90009],[2.32942,48.90021],[2.32961,48.90083],[2.32958,48.90089],[2.33054,48.90085]],"quartier":"Épinettes","lengthM":368,"story":"Située en partie sur l'emplacement de l'ancienne porte de Saint-Ouen.","image":{"provider":"panoramax","id":"35ccd2e1-490d-4e34-8d0a-95481239ec20","lat":48.89775,"lng":2.32965,"sequenceId":"2a3c31e5-2fcb-4119-8a23-7ffc4d337939"}},{"kind":"street","id":"v:17:13010","name":"avenue de la Porte de Villiers","arr":17,"lat":48.8837,"lng":2.28655,"themes":[],"shape":[[2.28758,48.88332],[2.28713,48.88304],[2.28713,48.88304],[2.28713,48.88304],[2.28714,48.88304],[2.28714,48.88304],[2.28714,48.88304],[2.28714,48.88305],[2.28714,48.88305],[2.28714,48.88305],[2.28714,48.88305],[2.28714,48.88305],[2.28714,48.88306],[2.28714,48.88311],[2.28714,48.88313],[2.28714,48.88313],[2.28714,48.88314],[2.28713,48.88314],[2.28705,48.88321],[2.28702,48.88323],[2.28698,48.88326],[2.28627,48.88382],[2.28601,48.88404],[2.28537,48.88471],[2.28518,48.88486],[2.28518,48.88486],[2.2849,48.88504],[2.28482,48.88509],[2.28435,48.88535],[2.28473,48.88564],[2.28547,48.88497],[2.28566,48.88471],[2.28649,48.88405],[2.28656,48.88401],[2.28708,48.8836],[2.28758,48.88332]],"quartier":"Ternes","lengthM":345,"story":"Située en partie sur l'emplacement de l'ancienne porte de Villiers.","image":{"provider":"panoramax","id":"16a87e15-7b26-4e61-bdac-7766151b2014","lat":48.88299,"lng":2.28718,"sequenceId":"8e716144-b4c1-411f-9670-85783ad3d943"}},{"kind":"street","id":"v:17:13004","name":"avenue de la Porte des Ternes","arr":17,"lat":48.88145,"lng":2.28185,"themes":[],"shape":[[2.28183,48.88133],[2.28184,48.88149],[2.28207,48.88161],[2.28297,48.8814],[2.28333,48.88132],[2.28356,48.88093],[2.2834,48.88097],[2.28291,48.88108],[2.28183,48.88133],[2.28184,48.88149],[2.28153,48.88133],[2.28148,48.88141],[2.28146,48.88142],[2.28144,48.88142],[2.28142,48.88143],[2.28119,48.88148],[2.28071,48.88159],[2.28063,48.88161],[2.2807,48.88192],[2.28101,48.88185],[2.28167,48.8817],[2.28186,48.88175],[2.28184,48.88149]],"quartier":"Ternes","lengthM":220,"story":"Voisinage de l'ancienne porte des Ternes.","image":{"provider":"panoramax","id":"fb6a34ed-a24c-4275-a46e-59459ef376c7","lat":48.88155,"lng":2.28152,"sequenceId":"70de8d6c-1c50-45e0-a905-2f6710806bab"}},{"kind":"street","id":"v:17:12998","name":"avenue de la Porte Pouchet","arr":17,"lat":48.89801,"lng":2.32327,"themes":[],"shape":[[2.32342,48.89846],[2.32345,48.89797],[2.32345,48.89797],[2.32345,48.89795],[2.32345,48.89795],[2.32345,48.89794],[2.32345,48.89794],[2.32345,48.89792],[2.32345,48.89792],[2.32345,48.89791],[2.32345,48.89791],[2.32345,48.8979],[2.32345,48.8979],[2.32346,48.89775],[2.32356,48.89769],[2.32296,48.89768],[2.32305,48.89774],[2.32305,48.89778],[2.32304,48.8978],[2.32305,48.8978],[2.32305,48.89781],[2.32304,48.89781],[2.32301,48.89843],[2.32302,48.89843],[2.32302,48.89844],[2.32301,48.89844],[2.32301,48.89844],[2.32342,48.89846]],"quartier":"Épinettes","lengthM":85,"story":"Située autrefois sur l'emplacement de l'ancienne porte Pouchet.","image":{"provider":"panoramax","id":"d6ff610d-976c-4c6c-9776-4a5049459789","lat":48.89746,"lng":2.32359,"sequenceId":"905d4ab0-0ab6-4753-a666-190b8d130dd8"}},{"kind":"street","id":"v:17:12772","name":"avenue de Péterhof","arr":17,"lat":48.8821,"lng":2.28817,"themes":[],"shape":[[2.28809,48.882],[2.28806,48.88199],[2.28796,48.88205],[2.28798,48.88206],[2.28802,48.88208],[2.28808,48.8821],[2.28815,48.88214],[2.28823,48.88218],[2.28827,48.8822],[2.28832,48.88222],[2.28833,48.88223],[2.2884,48.88215],[2.28832,48.88211],[2.28828,48.88209],[2.28821,48.88206],[2.28817,48.88204],[2.28813,48.88202],[2.28809,48.882]],"quartier":"Ternes","lengthM":30,"story":"Port de Russie, sur le golfe de Cronstadt. Ancienne résidence impériale."},{"kind":"street","id":"v:17:13653","name":"avenue de Saint-Ouen","arr":17,"lat":48.89247,"lng":2.32727,"themes":[],"shape":[[2.3269,48.89092],[2.32668,48.89029],[2.32653,48.88981],[2.3263,48.88914],[2.32617,48.88876],[2.32608,48.88848],[2.32595,48.88808],[2.32575,48.88749],[2.32559,48.88802],[2.32586,48.88882],[2.32615,48.88967],[2.32622,48.88987],[2.3264,48.89042],[2.32663,48.89109],[2.3267,48.89129],[2.32698,48.89214],[2.32733,48.89319],[2.32756,48.89387],[2.3277,48.89429],[2.3279,48.8949],[2.32816,48.89567],[2.32832,48.89613],[2.32847,48.89657],[2.32865,48.89711],[2.32908,48.89742],[2.3289,48.89688],[2.32867,48.8962],[2.32852,48.89576],[2.32838,48.89535],[2.32829,48.89508],[2.32804,48.89432],[2.32789,48.89386],[2.32762,48.89308],[2.32738,48.89237],[2.32717,48.89175],[2.3269,48.89092]],"quartier":"Épinettes","lengthM":1125,"story":"Ancien chemin de Saint-Ouen.","image":{"provider":"panoramax","id":"b30f1641-c82e-44b6-bcd7-e0ca8bd35b11","lat":48.89423,"lng":2.32774,"sequenceId":"8e983f99-a6f8-4711-b7bf-8d20073f0acf"}},{"kind":"street","id":"v:17:13373","name":"avenue de Salonique","arr":17,"lat":48.88236,"lng":2.28395,"themes":[],"shape":[[2.28413,48.88233],[2.28426,48.88193],[2.28426,48.88193],[2.28421,48.88192],[2.28418,48.8819],[2.28381,48.88167],[2.28341,48.88215],[2.28355,48.88211],[2.28383,48.88229],[2.28384,48.8823],[2.28384,48.8823],[2.28385,48.88231],[2.28385,48.88232],[2.28385,48.88232],[2.28392,48.88264],[2.28393,48.88266],[2.28393,48.88268],[2.28394,48.88269],[2.28396,48.88271],[2.28397,48.88272],[2.28398,48.88274],[2.284,48.88275],[2.28403,48.88277],[2.2842,48.88262],[2.28413,48.88233]],"quartier":"Ternes","lengthM":87,"story":"Port grec, point d'appui de la campagne d'Orient pendant la guerre de 1914-1918.","image":{"provider":"panoramax","id":"9b1bceda-db31-43b4-803b-291d7973035a","lat":48.88271,"lng":2.28336,"sequenceId":"a1e94e75-e914-403f-8bb4-153019167838"}},{"kind":"street","id":"v:17:14019","name":"avenue de Verzy","arr":17,"lat":48.88116,"lng":2.28748,"themes":[],"shape":[[2.28859,48.88183],[2.28858,48.88179],[2.28843,48.88174],[2.28823,48.88162],[2.28818,48.88159],[2.28761,48.88126],[2.28742,48.88114],[2.28738,48.8811],[2.28711,48.88096],[2.2869,48.88084],[2.28691,48.88083],[2.28689,48.8808],[2.28688,48.88079],[2.28687,48.88079],[2.28695,48.8806],[2.28688,48.88051],[2.28688,48.88051],[2.28683,48.88056],[2.2868,48.88063],[2.2868,48.88064],[2.28679,48.88076],[2.28673,48.88082],[2.28679,48.88088],[2.28695,48.88095],[2.28716,48.88106],[2.28738,48.88119],[2.28743,48.88122],[2.28754,48.88128],[2.28759,48.88131],[2.28794,48.88152],[2.2881,48.88162],[2.28811,48.88163],[2.28814,48.88164],[2.28835,48.88176],[2.28865,48.88193],[2.28859,48.88183]],"quartier":"Ternes","lengthM":235,"story":"M. de Verzy, ancien propriétaire du château des Ternes, bienfaiteur du quartier.","image":{"provider":"panoramax","id":"0b69a1ad-84fd-489d-b3cd-5ce390573988","lat":48.88045,"lng":2.28678,"sequenceId":"1bef991b-552e-4694-bc97-77bdf74471b7"}},{"kind":"street","id":"v:17:14079","name":"avenue de Villiers","arr":17,"lat":48.88374,"lng":2.3041,"themes":[],"shape":[[2.30093,48.88462],[2.30153,48.88427],[2.29874,48.88489],[2.30093,48.88462],[2.2949,48.88538],[2.29592,48.88498],[2.29386,48.88524],[2.2949,48.88538],[2.30727,48.88329],[2.30489,48.88365],[2.30576,48.88375],[2.30727,48.88329],[2.31343,48.88184],[2.31519,48.88175],[2.31487,48.88153],[2.31343,48.88184],[2.30714,48.88314],[2.30889,48.88308],[2.30866,48.88285],[2.30714,48.88314],[2.31354,48.88195],[2.31214,48.88211],[2.31293,48.88223],[2.31354,48.88195],[2.3031,48.88431],[2.30402,48.88412],[2.30375,48.88389],[2.3031,48.88431],[2.292,48.88571],[2.29305,48.88556],[2.29229,48.88543],[2.292,48.88571]],"quartier":"Plaine de Monceaux","lengthM":1775,"story":"Conduisait à l'ancien village de Villiers la Garenne, absorbé aujourd'hui par la commune de Levallois-Perret.","image":{"provider":"panoramax","id":"956ce421-5867-4505-965d-3dc73ca678c8","lat":48.88321,"lng":2.30708,"sequenceId":"b62e423a-55e8-46af-a24c-d18f1d836c06"}},{"kind":"street","id":"v:17:9073","name":"avenue des Arts","arr":17,"lat":48.88109,"lng":2.28682,"themes":[],"shape":[[2.28702,48.88098],[2.28695,48.88095],[2.28696,48.88095],[2.28696,48.88097],[2.28684,48.88108],[2.2868,48.88109],[2.28679,48.88109],[2.28671,48.88111],[2.28673,48.88113],[2.28676,48.88115],[2.2867,48.88119],[2.2867,48.88119],[2.2867,48.88119],[2.28671,48.8812],[2.28672,48.8812],[2.28676,48.88118],[2.28683,48.88111],[2.28699,48.88098],[2.28702,48.88098]],"quartier":"Ternes","lengthM":33,"story":"Nom donné par les propriétaires."},{"kind":"street","id":"v:17:9812","name":"avenue des Chasseurs","arr":17,"lat":48.88703,"lng":2.30589,"themes":[],"shape":[[2.30588,48.88694],[2.30562,48.88677],[2.30562,48.88674],[2.3055,48.88684],[2.30554,48.88684],[2.30566,48.88692],[2.30578,48.88701],[2.30585,48.88705],[2.30595,48.88712],[2.30606,48.8872],[2.30613,48.88725],[2.30611,48.88727],[2.3064,48.88731],[2.30639,48.8873],[2.30588,48.88694]],"quartier":"Plaine de Monceaux","lengthM":80,"story":"Ancien rendez-vous de chasse."},{"kind":"street","id":"v:17:12714","name":"avenue des Pavillons","arr":17,"lat":48.88207,"lng":2.2879,"themes":[],"shape":[[2.28839,48.88178],[2.28835,48.88176],[2.28804,48.88196],[2.288,48.88199],[2.28779,48.88212],[2.28773,48.88215],[2.28766,48.8822],[2.28756,48.88226],[2.28739,48.88237],[2.28742,48.88239],[2.28763,48.88226],[2.28784,48.88213],[2.28796,48.88205],[2.28806,48.88199],[2.28822,48.88188],[2.28839,48.88178]],"quartier":"Ternes","lengthM":100,"story":"Cette avenue est bordée de pavillons.","image":{"provider":"panoramax","id":"7d2ea3ac-9ba9-4f51-af5f-9d8b5676894c","lat":48.88273,"lng":2.28702,"sequenceId":"65317fc1-8596-44db-ac50-6d0926519755"}},{"kind":"street","id":"v:17:13762","name":"avenue des Ternes","arr":17,"lat":48.87958,"lng":2.29012,"themes":[],"shape":[[2.29164,48.87941],[2.29245,48.87922],[2.29309,48.87907],[2.29451,48.87875],[2.29562,48.8785],[2.2976,48.87771],[2.29621,48.87802],[2.29499,48.8783],[2.29459,48.87839],[2.29307,48.87874],[2.29202,48.87898],[2.29164,48.87941],[2.28804,48.88024],[2.28754,48.87998],[2.28755,48.88001],[2.2875,48.88002],[2.28723,48.88009],[2.28682,48.88018],[2.28594,48.88038],[2.28564,48.88045],[2.28593,48.88073],[2.28659,48.88057],[2.28708,48.88046],[2.28804,48.88024],[2.28813,48.88004],[2.28889,48.88004],[2.28947,48.8799],[2.29018,48.87974],[2.29044,48.87968],[2.29089,48.87958],[2.29035,48.87937],[2.28993,48.87946],[2.28946,48.87957],[2.28874,48.87974],[2.28841,48.87981],[2.28813,48.88004]],"quartier":"Ternes","lengthM":920,"story":"Traverse l'ancien hameau des Ternes, appelé villa Externa dans des titres du XVe siècle.","image":{"provider":"panoramax","id":"5a559bcf-1bba-4d4c-b7fb-7d03aa9f9a0c","lat":48.88048,"lng":2.28596,"sequenceId":"9fa4c120-d507-4faf-873b-35b7d0a4cd8c"}},{"kind":"street","id":"v:17:9876","name":"avenue du Cimetière des Batignolles","arr":17,"lat":48.89625,"lng":2.31331,"themes":[],"shape":[[2.31322,48.89655],[2.31386,48.89624],[2.31384,48.89625],[2.31381,48.89626],[2.31379,48.89626],[2.31373,48.89627],[2.31371,48.89627],[2.31367,48.89627],[2.31365,48.89627],[2.31361,48.89626],[2.31359,48.89626],[2.31354,48.89624],[2.31349,48.89622],[2.31348,48.89622],[2.31343,48.89619],[2.31248,48.89547],[2.31215,48.89557],[2.31229,48.89558],[2.31255,48.89577],[2.3126,48.89581],[2.31327,48.89631],[2.31328,48.89632],[2.3133,48.89634],[2.3133,48.89635],[2.31332,48.89637],[2.31332,48.89639],[2.31332,48.89641],[2.31332,48.89643],[2.31332,48.89644],[2.31331,48.89647],[2.31331,48.89648],[2.31329,48.8965],[2.31328,48.89651],[2.31326,48.89653],[2.31325,48.89654],[2.31322,48.89655]],"quartier":"Épinettes","lengthM":150,"story":"Conduit au cimetière des Batignolles.","image":{"provider":"panoramax","id":"24adc18d-512e-4e00-86c0-819d7091a3f3","lat":48.89578,"lng":2.31257,"sequenceId":"bf252c2c-9aaa-4ef8-afca-2902ff3afcb8"}},{"kind":"street","id":"v:17:10498","name":"avenue Émile et Armand Massard","arr":17,"lat":48.88845,"lng":2.29711,"themes":[],"shape":[[2.29607,48.88791],[2.29609,48.88778],[2.29568,48.8879],[2.29583,48.88797],[2.29771,48.88886],[2.29796,48.88895],[2.29797,48.88896],[2.29798,48.88896],[2.29799,48.88897],[2.298,48.88897],[2.29802,48.88898],[2.29789,48.88886],[2.29774,48.88871],[2.29768,48.88868],[2.29764,48.88866],[2.29756,48.88862],[2.29752,48.8886],[2.29744,48.88857],[2.29706,48.88839],[2.29692,48.88832],[2.29689,48.88831],[2.29685,48.88828],[2.29681,48.88827],[2.29677,48.88825],[2.29674,48.88823],[2.29662,48.88818],[2.29654,48.88814],[2.2962,48.88798],[2.29607,48.88791]],"quartier":"Plaine de Monceaux","lengthM":160,"story":"Emile Massard (1857-1932), et son fils Armand (1884-1971), ancien champion olympique ; conseillers municipaux de Paris."},{"kind":"street","id":"v:17:11087","name":"avenue Gourgaud","arr":17,"lat":48.88613,"lng":2.29739,"themes":[],"shape":[[2.29752,48.88609],[2.2975,48.88603],[2.29749,48.88598],[2.29748,48.88593],[2.29747,48.88588],[2.29745,48.88576],[2.29745,48.88565],[2.29745,48.88565],[2.29745,48.88557],[2.29704,48.88555],[2.29704,48.88565],[2.29705,48.8858],[2.29706,48.88588],[2.29706,48.88592],[2.29707,48.88596],[2.29707,48.88596],[2.29708,48.88599],[2.29708,48.88603],[2.29709,48.88604],[2.2971,48.88609],[2.29712,48.88616],[2.29716,48.88628],[2.29721,48.88639],[2.29727,48.8865],[2.29732,48.88658],[2.29743,48.88674],[2.29818,48.88701],[2.29805,48.88689],[2.29786,48.8867],[2.29772,48.88651],[2.29767,48.88644],[2.29763,48.88636],[2.2976,48.8863],[2.29758,48.88625],[2.29755,48.88618],[2.29752,48.88609]],"quartier":"Plaine de Monceaux","lengthM":177,"story":"Le baron Gaspard Gourgaud (1783-1852), général d'artillerie français, voisinage de la route militaire."},{"kind":"street","id":"v:17:11974","name":"avenue Mac-Mahon","arr":17,"lat":48.87598,"lng":2.29473,"themes":[],"shape":[[2.29479,48.87526],[2.29447,48.87564],[2.29444,48.87586],[2.2944,48.87606],[2.2943,48.8767],[2.29425,48.877],[2.29421,48.87721],[2.29418,48.87741],[2.29412,48.87773],[2.29402,48.8783],[2.2945,48.87839],[2.29455,48.87808],[2.29463,48.87766],[2.29466,48.87744],[2.29471,48.87716],[2.29481,48.87655],[2.29493,48.87589],[2.29479,48.87526],[2.29455,48.87518],[2.29504,48.87522],[2.29504,48.87521],[2.29504,48.87519],[2.29505,48.87517],[2.29505,48.87516],[2.29505,48.87515],[2.29506,48.87514],[2.29506,48.87508],[2.29507,48.87507],[2.29507,48.87506],[2.29507,48.87503],[2.29507,48.87502],[2.29508,48.87501],[2.29508,48.875],[2.29494,48.87486],[2.29461,48.87482],[2.29455,48.87518]],"quartier":"Ternes","lengthM":402,"story":"Marie Edme Patrice Maurice de Mac-Mahon (1808-1893), duc de Magenta, maréchal de France, président de la République de 1873 à 1879.","image":{"provider":"panoramax","id":"080e16f1-374d-44a6-b90d-fda1180f8bf3","lat":48.87527,"lng":2.29457,"sequenceId":"4c3949f1-a60f-4697-915c-17d65c3b01f4"}},{"kind":"street","id":"v:17:12485","name":"avenue Niel","arr":17,"lat":48.88136,"lng":2.29555,"themes":[],"shape":[[2.29471,48.87964],[2.2946,48.87986],[2.29487,48.88036],[2.29535,48.88132],[2.29565,48.88105],[2.29512,48.87999],[2.29471,48.87964],[2.29639,48.88293],[2.29629,48.88315],[2.29655,48.88366],[2.29686,48.88428],[2.29702,48.88374],[2.29668,48.88308],[2.29639,48.88293],[2.29584,48.88186],[2.29572,48.88203],[2.296,48.88258],[2.2962,48.88298],[2.29645,48.88262],[2.2963,48.88234],[2.29584,48.88186],[2.29453,48.87973],[2.2948,48.87939],[2.2945,48.8788],[2.2941,48.87886],[2.29435,48.87935],[2.29454,48.87972],[2.29453,48.87973],[2.29553,48.88126],[2.29551,48.8814],[2.29563,48.88166],[2.29558,48.88169],[2.29597,48.88169],[2.29574,48.88122],[2.29553,48.88126]],"quartier":"Plaine de Monceaux","lengthM":655,"story":"Adolphe Niel (1802-1869), maréchal de France ; voisinage de l'Arc de Triomphe.","image":{"provider":"panoramax","id":"b1a69ee5-4819-472a-8070-49199c0cfc86","lat":48.88304,"lng":2.29622,"sequenceId":"b62e423a-55e8-46af-a24c-d18f1d836c06"}},{"kind":"street","id":"v:17:12659","name":"avenue Paul Adam","arr":17,"lat":48.88749,"lng":2.29623,"themes":[],"shape":[[2.29659,48.88763],[2.29697,48.88753],[2.2973,48.88748],[2.2973,48.88748],[2.29734,48.88747],[2.29744,48.88747],[2.29744,48.88747],[2.29749,48.88746],[2.29763,48.88746],[2.29698,48.88723],[2.29693,48.88724],[2.2966,48.88733],[2.29659,48.88734],[2.2962,48.88745],[2.29609,48.88748],[2.29603,48.88749],[2.29603,48.88749],[2.29599,48.8875],[2.29589,48.88751],[2.29585,48.88752],[2.29579,48.88752],[2.29579,48.88752],[2.29569,48.88753],[2.29567,48.88753],[2.29563,48.88753],[2.2956,48.88753],[2.2956,48.88753],[2.29549,48.88752],[2.29545,48.88752],[2.29539,48.88751],[2.29535,48.88751],[2.29529,48.8875],[2.29521,48.88748],[2.29509,48.88762],[2.29609,48.88778],[2.29659,48.88763]],"quartier":"Plaine de Monceaux","lengthM":125,"story":"Paul Adam (1862-1920), littérateur français.","image":{"provider":"panoramax","id":"fa1f2ee8-605f-4788-967b-957bb4599e96","lat":48.8876,"lng":2.29591,"sequenceId":"65317fc1-8596-44db-ac50-6d0926519755"}},{"kind":"street","id":"v:17:13518","name":"avenue Stéphane Mallarmé","arr":17,"lat":48.88636,"lng":2.29282,"themes":[],"shape":[[2.29238,48.88599],[2.29198,48.88575],[2.29198,48.88574],[2.29197,48.88573],[2.29198,48.88572],[2.29198,48.88571],[2.29199,48.88571],[2.29148,48.8859],[2.29158,48.88596],[2.29162,48.88598],[2.29181,48.8861],[2.29233,48.88628],[2.29238,48.88631],[2.29249,48.88638],[2.29265,48.88647],[2.29288,48.88661],[2.29313,48.88677],[2.29331,48.88688],[2.29339,48.88692],[2.29417,48.88741],[2.29453,48.88726],[2.29424,48.88708],[2.29413,48.88701],[2.29409,48.88699],[2.29386,48.88685],[2.29353,48.88665],[2.29332,48.88651],[2.29325,48.88647],[2.29312,48.8864],[2.29306,48.88636],[2.29298,48.88631],[2.29295,48.88629],[2.29287,48.88624],[2.29283,48.88622],[2.29274,48.88616],[2.29238,48.88599]],"quartier":"Plaine de Monceaux","lengthM":210,"story":"Stéphane Mallarmé (1842-1898), poète français.","image":{"provider":"panoramax","id":"0f7e4ac3-264c-46fc-ad35-7bb656d8e63a","lat":48.8869,"lng":2.29349,"sequenceId":"378080bb-6241-4ff4-80a3-71c24b3f4b94"}},{"kind":"street","id":"v:17:14149","name":"avenue Yves du Manoir","arr":17,"lat":48.88188,"lng":2.28757,"themes":[],"shape":[[2.28794,48.88152],[2.28784,48.88146],[2.28785,48.88151],[2.28735,48.88189],[2.2873,48.88193],[2.28732,48.88195],[2.28735,48.88197],[2.28766,48.88217],[2.28766,48.8822],[2.28773,48.88215],[2.28769,48.88215],[2.28761,48.8821],[2.28757,48.88207],[2.2874,48.88195],[2.28739,48.88195],[2.28738,48.88194],[2.28738,48.88193],[2.28738,48.88193],[2.28738,48.88192],[2.28738,48.88191],[2.2876,48.88174],[2.28764,48.88171],[2.28789,48.88152],[2.28794,48.88152]],"quartier":"Ternes","lengthM":100,"story":"Yves du Manoir, aviateur et sportif, mort en 1928."},{"kind":"street","id":"v:17:9312","name":"boulevard Berthier","arr":17,"lat":48.88806,"lng":2.29916,"themes":[],"shape":[[2.31247,48.89371],[2.30303,48.8894],[2.30003,48.88797],[2.29892,48.88789],[2.30138,48.88906],[2.30317,48.8899],[2.30672,48.89165],[2.30927,48.89279],[2.30958,48.89294],[2.31107,48.89357],[2.31165,48.89382],[2.31247,48.89371],[2.29534,48.88657],[2.29533,48.88608],[2.29483,48.8859],[2.29426,48.8857],[2.2932,48.88574],[2.29293,48.88593],[2.29312,48.88598],[2.29364,48.8861],[2.29425,48.88624],[2.29448,48.8863],[2.29503,48.88643],[2.29534,48.88657],[2.29581,48.88642],[2.29593,48.88672],[2.29653,48.88692],[2.29682,48.88703],[2.29706,48.88711],[2.29721,48.88676],[2.29712,48.88672],[2.29682,48.88661],[2.29657,48.88652],[2.2964,48.88646],[2.29612,48.88636],[2.29581,48.88642]],"quartier":"Batignolles","lengthM":1750,"story":"Louis Alexandre Berthier (1753-1815), prince de Neufchâtel puis, de Wagram, maréchal de France.","image":{"provider":"panoramax","id":"8095df89-8f7f-489a-9154-ca87a0a122a5","lat":48.88635,"lng":2.29287,"sequenceId":"65317fc1-8596-44db-ac50-6d0926519755"}},{"kind":"street","id":"v:17:9323","name":"boulevard Bessières","arr":17,"lat":48.89688,"lng":2.32211,"themes":[],"shape":[[2.32841,48.89779],[2.32823,48.89743],[2.32761,48.89742],[2.32655,48.89739],[2.32608,48.89738],[2.32523,48.89737],[2.32511,48.89737],[2.32476,48.89736],[2.32443,48.89735],[2.32325,48.89732],[2.32227,48.8973],[2.32168,48.8972],[2.32132,48.89707],[2.32101,48.89695],[2.32079,48.89686],[2.3194,48.89634],[2.31865,48.89605],[2.31796,48.89579],[2.31722,48.89551],[2.31687,48.89537],[2.31568,48.89492],[2.3146,48.89451],[2.31421,48.89436],[2.3162,48.89553],[2.31827,48.89632],[2.31953,48.8968],[2.32102,48.89737],[2.32213,48.89766],[2.32242,48.89767],[2.32253,48.89768],[2.32259,48.89767],[2.32386,48.8977],[2.32511,48.89772],[2.32569,48.89773],[2.32673,48.89775],[2.32841,48.89779]],"quartier":"Épinettes","lengthM":1185,"story":"Jean-Baptiste Bessières (1768-1813), duc d'Istrie, maréchal de France.","image":{"provider":"panoramax","id":"ada3e445-1e60-4e49-8bb6-6eeaac6756b8","lat":48.89561,"lng":2.31725,"sequenceId":"da753f1e-d0d7-42db-a950-f171ee2d6f88"}},{"kind":"street","id":"v:17:9126","name":"boulevard d'Aurelle de Paladines","arr":17,"lat":48.883,"lng":2.28248,"themes":[],"shape":[[2.28207,48.8837],[2.28217,48.88357],[2.2828,48.88286],[2.28296,48.88266],[2.28328,48.88229],[2.28331,48.88226],[2.28341,48.88215],[2.28381,48.88167],[2.28384,48.88164],[2.28398,48.88149],[2.28348,48.88143],[2.28317,48.88178],[2.28312,48.88185],[2.2827,48.88233],[2.28251,48.88259],[2.2821,48.88306],[2.28172,48.88351],[2.28191,48.88365],[2.28192,48.88364],[2.28192,48.88364],[2.28192,48.88364],[2.28193,48.88363],[2.28193,48.88363],[2.28193,48.88363],[2.28193,48.88363],[2.28193,48.88363],[2.28195,48.88363],[2.28197,48.88363],[2.28198,48.88364],[2.28199,48.88364],[2.28201,48.88365],[2.28202,48.88366],[2.28207,48.8837]],"quartier":"Ternes","lengthM":290,"story":"D'Aurelle de Paladines (1804-1877), général ; vainqueur à Coulmiers (1870)."},{"kind":"street","id":"v:17:10279","name":"boulevard de Dixmude","arr":17,"lat":48.88327,"lng":2.28516,"themes":[],"shape":[[2.28601,48.88404],[2.28627,48.88382],[2.28625,48.88382],[2.28613,48.88383],[2.28603,48.88376],[2.286,48.88374],[2.28595,48.88371],[2.28582,48.88363],[2.28577,48.8836],[2.28546,48.88341],[2.28533,48.88333],[2.28531,48.88331],[2.2853,48.88331],[2.28529,48.8833],[2.28527,48.88329],[2.28516,48.88322],[2.28513,48.88321],[2.28513,48.8832],[2.28509,48.88317],[2.28496,48.88309],[2.28464,48.8829],[2.2846,48.88288],[2.28449,48.88281],[2.28446,48.88279],[2.28443,48.88277],[2.28439,48.88275],[2.28436,48.88273],[2.28428,48.88268],[2.28424,48.88265],[2.2842,48.88262],[2.28403,48.88277],[2.28461,48.88313],[2.28459,48.88315],[2.28537,48.88364],[2.28537,48.88364],[2.28601,48.88404]],"quartier":"Ternes","lengthM":210,"story":"Ville belge sur l'Yser où les fusiliers marins de l'amiral Ronarc'h résistèrent en 1914 à la ruée allemande."},{"kind":"street","id":"v:17:10338","name":"boulevard de Douaumont","arr":17,"lat":48.89533,"lng":2.30719,"themes":[],"shape":[[2.30911,48.89638],[2.30825,48.89605],[2.3076,48.89581],[2.30733,48.89571],[2.30707,48.89559],[2.30675,48.89545],[2.30645,48.8953],[2.30613,48.89513],[2.30584,48.89496],[2.30522,48.89458],[2.30475,48.89428],[2.30461,48.89438],[2.30531,48.89482],[2.30571,48.89507],[2.3075,48.89594],[2.30828,48.89622],[2.3094,48.89665],[2.30911,48.89638],[2.30639,48.8947],[2.30509,48.89402],[2.30542,48.89422],[2.30587,48.8945],[2.30629,48.89477],[2.30647,48.89487],[2.30697,48.89514],[2.30717,48.89524],[2.30751,48.89537],[2.30831,48.89562],[2.30904,48.89587],[2.30953,48.89605],[2.31007,48.89605],[2.30959,48.89589],[2.309,48.8957],[2.30793,48.89534],[2.30722,48.89515],[2.30639,48.8947]],"quartier":"Batignolles","lengthM":970,"story":"Batailles livrées autour du fort de Douaumont, près de Verdun, en 1916.","image":{"provider":"panoramax","id":"b822d974-42ca-48ce-94ad-512996c39d0b","lat":48.89475,"lng":2.30633,"sequenceId":"a1e94e75-e914-403f-8bb4-153019167838"}},{"kind":"street","id":"v:17:14147","name":"boulevard de l'Yser","arr":17,"lat":48.88494,"lng":2.28756,"themes":[],"shape":[[2.28931,48.88581],[2.2893,48.8858],[2.28924,48.88576],[2.28923,48.88576],[2.28873,48.88545],[2.2882,48.88511],[2.28776,48.88484],[2.28729,48.88455],[2.28692,48.88431],[2.28656,48.88401],[2.28622,48.88421],[2.28623,48.8842],[2.28624,48.8842],[2.28624,48.8842],[2.28625,48.8842],[2.28626,48.8842],[2.28627,48.8842],[2.28627,48.88421],[2.28628,48.88421],[2.28628,48.88421],[2.28715,48.88475],[2.28724,48.88486],[2.28732,48.8849],[2.28735,48.88492],[2.2874,48.88495],[2.2876,48.88507],[2.28794,48.88528],[2.28799,48.88531],[2.28801,48.88532],[2.28809,48.88535],[2.28815,48.88538],[2.28819,48.8854],[2.28843,48.88555],[2.28843,48.88555],[2.28863,48.8859],[2.28931,48.88581]],"quartier":"Ternes","lengthM":250,"story":"Fleuve côtier de Belgique, sur les rives duquel se déroulèrent de violents combats pendant la guerre de 1914-1918.","image":{"provider":"panoramax","id":"c9d480d5-6b19-476d-bfdb-da7cba6191ce","lat":48.88458,"lng":2.28596,"sequenceId":"4f5d6904-2797-4f7e-af95-6b92ca51232c"}},{"kind":"street","id":"v:17:13480","name":"boulevard de la Somme","arr":17,"lat":48.88725,"lng":2.29159,"themes":[],"shape":[[2.29354,48.88839],[2.29367,48.88815],[2.29361,48.88813],[2.29344,48.88808],[2.29327,48.88802],[2.29312,48.88797],[2.29305,48.88794],[2.29288,48.88787],[2.29275,48.88782],[2.29259,48.88775],[2.29251,48.88772],[2.29235,48.88764],[2.29224,48.88759],[2.29189,48.88741],[2.29164,48.88725],[2.29143,48.88712],[2.29132,48.88706],[2.29131,48.88705],[2.29126,48.88702],[2.29068,48.8866],[2.29042,48.88649],[2.28998,48.88637],[2.28997,48.88637],[2.28989,48.88632],[2.28978,48.88623],[2.28969,48.88618],[2.28967,48.88619],[2.28915,48.88597],[2.28932,48.88632],[2.28977,48.8866],[2.29016,48.88673],[2.29066,48.8869],[2.2913,48.88729],[2.29234,48.88785],[2.2929,48.88809],[2.29354,48.88839]],"quartier":"Ternes","lengthM":380,"story":"Bataille de la Somme (1916)."},{"kind":"street","id":"v:17:13174","name":"boulevard de Reims","arr":17,"lat":48.88961,"lng":2.29804,"themes":[],"shape":[[2.29914,48.89099],[2.30059,48.89122],[2.30129,48.89177],[2.30029,48.89089],[2.29916,48.89006],[2.29776,48.88919],[2.2977,48.88915],[2.29768,48.88913],[2.29767,48.88911],[2.29767,48.88908],[2.29767,48.88906],[2.29768,48.88903],[2.29769,48.88901],[2.29771,48.889],[2.29773,48.88898],[2.29778,48.88896],[2.29782,48.88895],[2.29786,48.88895],[2.2979,48.88895],[2.29794,48.88895],[2.29771,48.88886],[2.29485,48.88788],[2.29533,48.8882],[2.29548,48.88829],[2.29637,48.88884],[2.29739,48.88947],[2.29745,48.88947],[2.29754,48.88947],[2.29759,48.88949],[2.29762,48.8895],[2.29797,48.88971],[2.29806,48.89043],[2.29904,48.89111],[2.30014,48.89189],[2.30088,48.8921],[2.29914,48.89099]],"quartier":"Plaine de Monceaux","lengthM":685,"story":"Souvenir des batailles livrées autour de Reims pendant la guerre de 1914-1918."},{"kind":"street","id":"v:17:9374","name":"boulevard du Bois le Prêtre","arr":17,"lat":48.89953,"lng":2.32025,"themes":[],"shape":[[2.31968,48.89995],[2.31988,48.89966],[2.31989,48.89965],[2.3199,48.89964],[2.31991,48.89963],[2.31995,48.89962],[2.32,48.89963],[2.32063,48.89947],[2.32068,48.89945],[2.32097,48.89938],[2.32119,48.89932],[2.32138,48.89927],[2.3214,48.89927],[2.32183,48.89916],[2.32219,48.89907],[2.32149,48.89896],[2.32144,48.89897],[2.32121,48.89903],[2.32111,48.89906],[2.32106,48.89907],[2.32086,48.89912],[2.32004,48.89933],[2.31993,48.89935],[2.31978,48.89939],[2.31974,48.8994],[2.31934,48.8995],[2.31861,48.89969],[2.31895,48.89989],[2.31908,48.89983],[2.31926,48.89995],[2.31935,48.9],[2.31969,48.9001],[2.31966,48.90008],[2.31965,48.90006],[2.31964,48.90002],[2.31968,48.89995]],"quartier":"Épinettes","lengthM":270,"story":"Le bois le Prêtre, en Meurthe-et-Moselle, théâtre de violents combats pendant la guerre de 1914-1918.","image":{"provider":"panoramax","id":"fe80349c-1d20-453f-aea1-6bd4e946701a","lat":48.89868,"lng":2.32161,"sequenceId":"bf252c2c-9aaa-4ef8-afca-2902ff3afcb8"}},{"kind":"street","id":"v:17:10768","name":"boulevard du Fort de Vaux","arr":17,"lat":48.89294,"lng":2.30282,"themes":[],"shape":[[2.30415,48.89343],[2.30404,48.89323],[2.30401,48.89315],[2.30341,48.89278],[2.30335,48.89275],[2.30325,48.89269],[2.30259,48.89228],[2.30228,48.89208],[2.30219,48.89203],[2.30198,48.89189],[2.30169,48.89203],[2.30215,48.89231],[2.30267,48.8925],[2.30304,48.89273],[2.30339,48.89295],[2.30398,48.89332],[2.30405,48.89338],[2.30415,48.89343],[2.30178,48.89275],[2.30128,48.89234],[2.30114,48.89254],[2.30218,48.89313],[2.30226,48.89317],[2.30235,48.89321],[2.30244,48.89324],[2.30266,48.89332],[2.30332,48.89358],[2.30336,48.8936],[2.30378,48.89367],[2.30361,48.89357],[2.30337,48.89346],[2.3029,48.89328],[2.3025,48.89313],[2.3024,48.89309],[2.30219,48.89298],[2.30178,48.89275]],"quartier":"Batignolles","lengthM":250,"story":"Souvenir de la défense héroïque du fort de Vaux, près de Verdun, en 1916.","image":{"provider":"panoramax","id":"94631033-6036-4623-ad14-c55558b0cc8a","lat":48.89278,"lng":2.3018,"sequenceId":"a1e94e75-e914-403f-8bb4-153019167838"}},{"kind":"street","id":"v:17:11090","name":"boulevard Gouvion-Saint-Cyr","arr":17,"lat":48.88312,"lng":2.28812,"themes":[],"shape":[[2.29166,48.88549],[2.29084,48.88499],[2.29022,48.8846],[2.28953,48.88416],[2.28904,48.88386],[2.28854,48.88354],[2.28812,48.88328],[2.28689,48.88251],[2.28647,48.88225],[2.28562,48.88112],[2.28525,48.88032],[2.28505,48.8797],[2.28489,48.87934],[2.28469,48.87889],[2.28456,48.87859],[2.2843,48.87889],[2.28538,48.88125],[2.2865,48.88264],[2.2867,48.88277],[2.28699,48.88295],[2.28879,48.88407],[2.28896,48.88417],[2.28897,48.88417],[2.28898,48.88418],[2.289,48.88418],[2.28901,48.88418],[2.28901,48.88419],[2.28934,48.88439],[2.28934,48.8844],[2.28935,48.8844],[2.28935,48.88441],[2.28935,48.88442],[2.28958,48.88456],[2.29,48.88482],[2.29039,48.88507],[2.29166,48.88549]],"quartier":"Ternes","lengthM":1050,"story":"Le marquis Laurent Gouvion-Saint-Cyr (1764-1830), maréchal de France.","image":{"provider":"panoramax","id":"18d15100-a022-4fd0-82db-611b10bbe056","lat":48.88275,"lng":2.2868,"sequenceId":"378080bb-6241-4ff4-80a3-71c24b3f4b94"}},{"kind":"street","id":"v:17:12741","name":"boulevard Pereire","arr":17,"lat":48.88395,"lng":2.2972,"themes":[],"shape":[[2.30383,48.88755],[2.29911,48.88581],[2.29812,48.8856],[2.30383,48.88755],[2.28752,48.87997],[2.28796,48.87988],[2.2857,48.87884],[2.28752,48.87997],[2.30729,48.88768],[2.31022,48.88808],[2.30964,48.88786],[2.30729,48.88768],[2.30683,48.88793],[2.3057,48.88722],[2.30494,48.88768],[2.30683,48.88793],[2.29512,48.88387],[2.29606,48.88459],[2.29636,48.88425],[2.29512,48.88387],[2.31118,48.88781],[2.313,48.88772],[2.31323,48.88747],[2.31118,48.88781],[2.2897,48.88108],[2.29126,48.88175],[2.29084,48.88125],[2.2897,48.88108],[2.28813,48.88004],[2.28915,48.88072],[2.28941,48.88048],[2.28813,48.88004],[2.29347,48.88314],[2.29495,48.88348],[2.29516,48.88373],[2.29347,48.88314],[2.29165,48.88218],[2.29277,48.88281],[2.29318,48.88303],[2.29165,48.88218],[2.29199,48.88191],[2.29376,48.88288],[2.29291,48.88237],[2.29199,48.88191]],"quartier":"Batignolles","lengthM":2540,"story":"Voie longeant le chemin de fer d'Auteuil dont M. Emile Pereire était concessionnaire. La famille Pereire a contribué au percement des voies de la plaine Monceau.","image":{"provider":"panoramax","id":"abd86e17-1004-48e4-85e5-de887d5af820","lat":48.88758,"lng":2.31328,"sequenceId":"a1e94e75-e914-403f-8bb4-153019167838"}},{"kind":"street","id":"v:17:12769","name":"boulevard Pershing","arr":17,"lat":48.88082,"lng":2.28391,"themes":[],"shape":[[2.28427,48.88072],[2.28413,48.88069],[2.28376,48.8804],[2.28263,48.87948],[2.28259,48.87949],[2.28203,48.87984],[2.28203,48.8798],[2.28203,48.87979],[2.28204,48.87976],[2.28205,48.87975],[2.28208,48.87973],[2.28209,48.87972],[2.28212,48.87971],[2.28215,48.87971],[2.28217,48.87971],[2.28219,48.87972],[2.2822,48.87973],[2.28427,48.88072],[2.28585,48.88223],[2.28543,48.8816],[2.28533,48.88154],[2.28528,48.8815],[2.28506,48.88137],[2.28493,48.88128],[2.28481,48.88121],[2.28447,48.88136],[2.28455,48.88141],[2.28487,48.88161],[2.28499,48.88169],[2.28504,48.88172],[2.28536,48.88192],[2.28544,48.88197],[2.28556,48.88205],[2.28559,48.88207],[2.28567,48.88212],[2.28585,48.88223]],"quartier":"Ternes","lengthM":450,"story":"John Joseph Pershing (1860-1948), maréchal des Etats-Unis, commandant des forces américaines pendant la guerre de 1914-1918.","image":{"provider":"panoramax","id":"cdace6d3-0e5a-4abf-bc08-3a7e4142f105","lat":48.88216,"lng":2.28592,"sequenceId":"8e716144-b4c1-411f-9670-85783ad3d943"}},{"kind":"street","id":"v:17:13088","name":"cité de Pusy","arr":17,"lat":48.8875,"lng":2.31045,"themes":[],"shape":[[2.31031,48.88737],[2.31025,48.88733],[2.31021,48.88735],[2.31018,48.88737],[2.31018,48.88737],[2.31023,48.8874],[2.31025,48.88742],[2.31029,48.88744],[2.3104,48.88751],[2.31054,48.88761],[2.31073,48.88773],[2.31071,48.88775],[2.3109,48.88776],[2.31079,48.88768],[2.31069,48.88762],[2.31059,48.88755],[2.31053,48.88751],[2.31045,48.88746],[2.31038,48.88741],[2.31031,48.88737]],"quartier":"Batignolles","lengthM":63,"story":"M. Pusy, propriétaire.","image":{"provider":"panoramax","id":"415c0719-0293-4fb2-abc7-bb61eacc6d92","lat":48.88802,"lng":2.31067,"sequenceId":"72248bfb-1d80-4642-b00d-9efec77029e3"}},{"kind":"street","id":"v:17:10729","name":"cité des Fleurs","arr":17,"lat":48.89265,"lng":2.32034,"themes":[],"shape":[[2.31932,48.89136],[2.31949,48.89166],[2.31983,48.89208],[2.31983,48.89211],[2.31984,48.89215],[2.31987,48.89217],[2.31992,48.89218],[2.32028,48.89263],[2.32028,48.89265],[2.32029,48.89269],[2.32033,48.89272],[2.32037,48.89274],[2.32068,48.89312],[2.32083,48.8933],[2.32082,48.89334],[2.32084,48.89337],[2.32089,48.89339],[2.32097,48.89347],[2.32139,48.89391],[2.32112,48.89357],[2.32096,48.89336],[2.32097,48.89333],[2.32094,48.8933],[2.3209,48.89328],[2.32079,48.89316],[2.32043,48.89271],[2.32043,48.89268],[2.32041,48.89264],[2.32036,48.89262],[2.32004,48.89224],[2.31998,48.89214],[2.31998,48.89212],[2.31994,48.89208],[2.31989,48.89206],[2.31956,48.89165],[2.31932,48.89136]],"quartier":"Épinettes","lengthM":315,"story":"Voie bordée de jardins."},{"kind":"street","id":"v:17:10685","name":"cité Férembach","arr":17,"lat":48.87804,"lng":2.28952,"themes":[],"shape":[[2.28979,48.87776],[2.28975,48.87774],[2.28957,48.87793],[2.28952,48.87798],[2.28943,48.87808],[2.28944,48.87808],[2.28941,48.87812],[2.28933,48.87821],[2.28931,48.87823],[2.28925,48.87829],[2.28921,48.87829],[2.28929,48.87835],[2.28939,48.87824],[2.28947,48.87816],[2.28954,48.87808],[2.28961,48.87801],[2.28969,48.87793],[2.28976,48.87785],[2.28983,48.87778],[2.28979,48.87776]],"quartier":"Ternes","lengthM":75,"story":"M. Férembach, propriétaire."},{"kind":"street","id":"v:17:11559","name":"cité Joyeux","arr":17,"lat":48.89686,"lng":2.32338,"themes":[],"shape":[[2.32363,48.89675],[2.32355,48.89678],[2.32347,48.89681],[2.3234,48.89684],[2.32332,48.89686],[2.32328,48.89688],[2.32324,48.8969],[2.32317,48.89692],[2.32316,48.89693],[2.32317,48.89695],[2.32319,48.89694],[2.32326,48.89692],[2.32334,48.89688],[2.32339,48.89687],[2.32341,48.89686],[2.32349,48.89683],[2.32365,48.89677],[2.32363,48.89675]],"quartier":"Épinettes","lengthM":40,"story":"M. Joyeux, propriétaire."},{"kind":"street","id":"v:17:11771","name":"cité Lemercier","arr":17,"lat":48.88695,"lng":2.32448,"themes":[],"shape":[[2.32513,48.88723],[2.32508,48.8872],[2.32504,48.88718],[2.32501,48.8872],[2.32501,48.8872],[2.3249,48.88714],[2.32486,48.88713],[2.32473,48.88706],[2.32461,48.887],[2.32448,48.88694],[2.32436,48.88688],[2.32433,48.88686],[2.32427,48.88683],[2.32424,48.88682],[2.3241,48.88675],[2.32396,48.88668],[2.32383,48.88661],[2.32373,48.88656],[2.32369,48.88659],[2.32379,48.88664],[2.3238,48.88665],[2.32386,48.8867],[2.32399,48.88675],[2.32432,48.88691],[2.32445,48.88697],[2.32457,48.88703],[2.32457,48.88703],[2.32469,48.8871],[2.32482,48.88716],[2.32501,48.88725],[2.32505,48.88727],[2.32513,48.88723]],"quartier":"Batignolles","lengthM":142,"story":"Voisinage de la rue Lemercier.","image":{"provider":"panoramax","id":"a0c8736f-fe79-453c-b183-7dba1f411add","lat":48.88649,"lng":2.32377,"sequenceId":"a1e94e75-e914-403f-8bb4-153019167838"}},{"kind":"street","id":"v:17:12088","name":"cité Marie","arr":17,"lat":48.89605,"lng":2.31884,"themes":[],"shape":[[2.31902,48.89605],[2.31897,48.89605],[2.31897,48.89604],[2.3189,48.89603],[2.31875,48.89603],[2.31862,48.89602],[2.3186,48.89602],[2.31858,48.89602],[2.31865,48.89605],[2.31866,48.89605],[2.31877,48.89606],[2.31884,48.89606],[2.3189,48.89606],[2.31901,48.89607],[2.31902,48.89607],[2.31902,48.89606],[2.31902,48.89605]],"quartier":"Épinettes","lengthM":30,"story":"Marie, prénom de la fille du propriétaire du terrain.","image":{"provider":"panoramax","id":"6bb06610-885d-410c-97a5-9f36c2088c92","lat":48.89613,"lng":2.31865,"sequenceId":"da753f1e-d0d7-42db-a950-f171ee2d6f88"}},{"kind":"street","id":"v:17:13662","name":"cour Saint-Pierre","arr":17,"lat":48.88694,"lng":2.32521,"themes":[],"shape":[[2.32513,48.88687],[2.32506,48.88684],[2.32504,48.88686],[2.32472,48.88673],[2.32439,48.88659],[2.32435,48.88662],[2.32479,48.88681],[2.32507,48.88693],[2.32506,48.88694],[2.32521,48.88701],[2.32536,48.88707],[2.32536,48.88707],[2.32552,48.88714],[2.32559,48.88712],[2.32559,48.88712],[2.3256,48.88709],[2.32547,48.88707],[2.32545,48.88705],[2.32544,48.88704],[2.32543,48.88702],[2.32543,48.88701],[2.32544,48.88701],[2.3254,48.88699],[2.32527,48.88693],[2.32523,48.88692],[2.32519,48.8869],[2.32518,48.88689],[2.32517,48.88689],[2.32513,48.88687]],"quartier":"Batignolles","lengthM":106,"image":{"provider":"panoramax","id":"4d402b46-78a5-4635-b69b-388ad2d62587","lat":48.88711,"lng":2.32559,"sequenceId":"a1e94e75-e914-403f-8bb4-153019167838"}},{"kind":"street","id":"v:17:15363","name":"cours des Avocats","arr":17,"lat":48.89469,"lng":2.3111,"themes":[],"shape":[[2.31124,48.8946],[2.31115,48.89448],[2.31085,48.89487],[2.311,48.89492],[2.31124,48.8946]],"quartier":"Batignolles","story":"Voie créée dans le cadre de l'aménagement de la ZAC \"Clichy-Batignolles\", précédemment identifiée voie CQ/17.","image":{"provider":"panoramax","id":"846d0d25-4cc0-4a69-bd20-194ca4a8e439","lat":48.89449,"lng":2.31126,"sequenceId":"a1e94e75-e914-403f-8bb4-153019167838"}},{"kind":"street","id":"v:17:15038","name":"esplanade du Général Casso","arr":17,"lat":48.88434,"lng":2.28906,"themes":[],"shape":[[2.28897,48.88417],[2.28896,48.88417],[2.28895,48.88418],[2.28894,48.88418],[2.28893,48.88418],[2.28893,48.88419],[2.28883,48.88426],[2.28882,48.88426],[2.28881,48.88427],[2.28881,48.88428],[2.28881,48.88428],[2.28881,48.88429],[2.28882,48.8843],[2.28882,48.88431],[2.28883,48.88432],[2.28914,48.88451],[2.28915,48.88452],[2.28916,48.88452],[2.28917,48.88453],[2.28919,48.88453],[2.2892,48.88453],[2.28921,48.88453],[2.28922,48.88452],[2.28933,48.88444],[2.28934,48.88444],[2.28935,48.88443],[2.28935,48.88442],[2.28935,48.88442],[2.28935,48.88441],[2.28935,48.8844],[2.28934,48.8844],[2.28902,48.88419],[2.28901,48.88418],[2.289,48.88418],[2.28898,48.88418],[2.28897,48.88417]],"quartier":"Ternes","lengthM":41,"story":"Abdon-Robert Casso (Valmanya (Pyrénées Orientales), 1912-Paris, 2002), premier Général de la Brigade des Sapeurs Pompiers de Paris. Il fut nommé, par le ministre de l'Intérieur, en 1970, maire du 17ème arrondissement.","image":{"provider":"panoramax","id":"855829ae-0f2f-4b4f-b703-bb2b6d664da3","lat":48.8843,"lng":2.28928,"sequenceId":"378080bb-6241-4ff4-80a3-71c24b3f4b94"}},{"kind":"street","id":"v:17:9449","name":"impasse Boursault","arr":17,"lat":48.88293,"lng":2.32054,"themes":[],"shape":[[2.32056,48.88297],[2.3206,48.88288],[2.32059,48.88288],[2.32057,48.88289],[2.32048,48.88287],[2.32042,48.88293],[2.32043,48.88294],[2.32051,48.88295],[2.32056,48.88296],[2.32056,48.88296],[2.32056,48.88296],[2.32056,48.88297],[2.32056,48.88297]],"quartier":"Batignolles","lengthM":10,"story":"Voisinage de la rue Boursault.","image":{"provider":"panoramax","id":"27807016-ff00-4aa9-ac7b-4698b98a03af","lat":48.88292,"lng":2.32053,"sequenceId":"a1e94e75-e914-403f-8bb4-153019167838"}},{"kind":"street","id":"v:17:11655","name":"impasse de La Jonquière","arr":17,"lat":48.89477,"lng":2.31623,"themes":[],"shape":[[2.31664,48.89517],[2.31661,48.89516],[2.31659,48.89516],[2.31652,48.89507],[2.31634,48.89482],[2.31631,48.89478],[2.31629,48.89476],[2.31614,48.89457],[2.31612,48.89454],[2.31607,48.89447],[2.31602,48.89449],[2.31603,48.89451],[2.31604,48.89452],[2.31602,48.89453],[2.316,48.89453],[2.31601,48.89454],[2.31601,48.89454],[2.31601,48.89454],[2.31601,48.89455],[2.31601,48.89455],[2.31601,48.89455],[2.31603,48.89459],[2.31606,48.89463],[2.31606,48.89463],[2.31611,48.8947],[2.31616,48.89476],[2.31619,48.8948],[2.31624,48.89487],[2.31628,48.89493],[2.31634,48.89491],[2.31641,48.89499],[2.31644,48.89503],[2.31649,48.89509],[2.31655,48.89517],[2.31656,48.89519],[2.31664,48.89517]],"quartier":"Épinettes","lengthM":86,"story":"Voisinage de la rue de La Jonquière."},{"kind":"street","id":"v:17:11843","name":"impasse de Lévis","arr":17,"lat":48.88247,"lng":2.31547,"themes":["pedestrian"],"shape":[[2.31548,48.88248],[2.31548,48.88246],[2.31549,48.88245],[2.31552,48.88245],[2.31554,48.88243],[2.3155,48.88241],[2.31548,48.88243],[2.31548,48.88243],[2.31547,48.88244],[2.31545,48.88247],[2.31534,48.88244],[2.31532,48.88245],[2.31543,48.88251],[2.31545,48.88251],[2.31551,48.88254],[2.31553,48.88255],[2.31556,48.88252],[2.31549,48.88249],[2.31548,48.88248]],"quartier":"Batignolles","lengthM":19,"story":"Voisinage de la rue de Lévis.","image":{"provider":"panoramax","id":"1e3d4e6d-1c98-4d25-b481-0563e4f2c4b4","lat":48.88235,"lng":2.31532,"sequenceId":"b62e423a-55e8-46af-a24c-d18f1d836c06"}},{"kind":"street","id":"v:17:10213","name":"impasse Deligny","arr":17,"lat":48.89646,"lng":2.32279,"themes":[],"shape":[[2.32259,48.89616],[2.32259,48.89615],[2.32252,48.89617],[2.32254,48.89617],[2.32259,48.89624],[2.32262,48.89627],[2.32268,48.89635],[2.32272,48.8964],[2.32275,48.89645],[2.32278,48.89649],[2.32284,48.89656],[2.32288,48.8966],[2.32292,48.89666],[2.32299,48.89675],[2.323,48.89677],[2.32306,48.89675],[2.32303,48.89671],[2.32301,48.89669],[2.32298,48.89666],[2.32295,48.89661],[2.3229,48.89655],[2.32285,48.89649],[2.32282,48.89645],[2.3228,48.89643],[2.32274,48.89635],[2.32267,48.89627],[2.32259,48.89616]],"quartier":"Épinettes","lengthM":74,"story":"M. Deligny, propriétaire."},{"kind":"street","id":"v:17:10255","name":"impasse des Deux Cousins","arr":17,"lat":48.88492,"lng":2.29355,"themes":[],"shape":[[2.29355,48.88485],[2.29334,48.88473],[2.29325,48.88479],[2.29328,48.88481],[2.2933,48.88482],[2.29332,48.88484],[2.29353,48.88495],[2.2936,48.88499],[2.29369,48.88504],[2.29372,48.88506],[2.29373,48.88509],[2.29378,48.88504],[2.29366,48.88497],[2.2937,48.88493],[2.29369,48.88493],[2.29361,48.88488],[2.29355,48.88485]],"quartier":"Ternes","lengthM":50,"story":"Propriété de deux cousins.","image":{"provider":"panoramax","id":"484587a2-022b-47c1-9eae-c29dd2bfecab","lat":48.88542,"lng":2.29371,"sequenceId":"e3d957b3-b6c0-43fe-9b72-f60d064a08f2"}},{"kind":"street","id":"v:17:12725","name":"impasse du Pèlerin","arr":17,"lat":48.89469,"lng":2.31647,"themes":[],"shape":[[2.31652,48.89507],[2.31666,48.89504],[2.31671,48.89502],[2.31673,48.89494],[2.31689,48.89485],[2.31677,48.89469],[2.31663,48.89473],[2.31661,48.89474],[2.31659,48.89473],[2.31658,48.89473],[2.31651,48.89463],[2.31643,48.89453],[2.31643,48.89452],[2.31643,48.89452],[2.31643,48.89451],[2.31644,48.8945],[2.31645,48.8945],[2.31646,48.8945],[2.31634,48.89447],[2.31622,48.89444],[2.31621,48.89444],[2.31625,48.89449],[2.31628,48.89454],[2.31629,48.89455],[2.31631,48.89457],[2.31636,48.89464],[2.3164,48.89469],[2.3164,48.89469],[2.31643,48.89473],[2.31645,48.89475],[2.31647,48.89478],[2.31643,48.8948],[2.31641,48.89481],[2.31639,48.89481],[2.31638,48.89481],[2.31652,48.89507]],"quartier":"Épinettes","lengthM":84,"story":"Substitué à celui de Saint-Jacques en souvenir des pèlerinages de ce saint."},{"kind":"street","id":"v:17:11758","name":"impasse Léger","arr":17,"lat":48.88533,"lng":2.30956,"themes":[],"shape":[[2.30936,48.88519],[2.30926,48.88513],[2.30922,48.88515],[2.30931,48.8852],[2.30939,48.88525],[2.30953,48.88533],[2.30966,48.88541],[2.3098,48.88549],[2.30996,48.88558],[2.30999,48.88556],[2.30983,48.88546],[2.3096,48.88533],[2.30936,48.88519]],"quartier":"Plaine de Monceaux","lengthM":70,"story":"Nom de propriétaire."},{"kind":"street","id":"v:17:12134","name":"impasse Marty","arr":17,"lat":48.89698,"lng":2.32509,"themes":[],"shape":[[2.32506,48.89702],[2.32519,48.89696],[2.32526,48.89693],[2.32528,48.89692],[2.32538,48.89687],[2.32534,48.89683],[2.32501,48.89699],[2.325,48.89698],[2.32495,48.897],[2.32491,48.89701],[2.3249,48.89711],[2.32492,48.89709],[2.325,48.89705],[2.32506,48.89702]],"quartier":"Épinettes","lengthM":40,"story":"M. Marty, propriétaire.","image":{"provider":"panoramax","id":"43521fe5-15de-475d-afb7-e9e0f31070de","lat":48.89687,"lng":2.32472,"sequenceId":"a271070b-4aab-49fb-9455-d80c02598f2a"}},{"kind":"street","id":"v:17:12423","name":"impasse Naboulet","arr":17,"lat":48.89436,"lng":2.32111,"themes":[],"shape":[[2.32103,48.89424],[2.32097,48.89417],[2.32093,48.89418],[2.32101,48.89427],[2.32103,48.89429],[2.32108,48.89435],[2.32117,48.89444],[2.32118,48.89445],[2.32119,48.89447],[2.3212,48.89448],[2.32121,48.89449],[2.32122,48.89448],[2.32124,48.89447],[2.32123,48.89446],[2.32116,48.89438],[2.32113,48.89435],[2.32104,48.89425],[2.32103,48.89424]],"quartier":"Épinettes","lengthM":55,"story":"M. Naboulet, propriétaire."},{"kind":"street","id":"v:17:13654","name":"impasse Saint-Ouen","arr":17,"lat":48.89387,"lng":2.32715,"themes":[],"shape":[[2.32711,48.89373],[2.32707,48.89372],[2.32706,48.89372],[2.327,48.89375],[2.32698,48.89377],[2.32698,48.89377],[2.32703,48.89382],[2.32706,48.89383],[2.32709,48.89386],[2.32712,48.89389],[2.32713,48.89391],[2.32716,48.89394],[2.32726,48.89407],[2.32725,48.89409],[2.32738,48.89408],[2.32735,48.89407],[2.32731,48.89402],[2.32729,48.89399],[2.32726,48.89395],[2.32718,48.89386],[2.32714,48.89381],[2.32715,48.89378],[2.32711,48.89373],[2.32711,48.89373]],"quartier":"Épinettes","lengthM":40,"story":"Voisinage de l'avenue de Saint-Ouen.","image":{"provider":"panoramax","id":"94763648-6ea3-4d55-b453-58a337693df3","lat":48.89417,"lng":2.32705,"sequenceId":"f3a195cb-bae5-4935-99f3-5d813367e244"}},{"kind":"street","id":"v:17:15592","name":"parvis Jean-Maurice Verdier","arr":17,"lat":48.88707,"lng":2.2935,"themes":[],"shape":[[2.2937,48.88712],[2.29339,48.88692],[2.29337,48.88702],[2.29336,48.88702],[2.29346,48.8872],[2.2937,48.88712]],"quartier":"Ternes","story":"Jean-Maurice Verdier (1928-2018), juriste et universitaire.","image":{"provider":"panoramax","id":"915d3f36-bfd4-443c-b3b4-d00686e837ba","lat":48.8869,"lng":2.29349,"sequenceId":"8e716144-b4c1-411f-9670-85783ad3d943"}},{"kind":"street","id":"v:17:15687","name":"parvis Robert Badinter","arr":17,"lat":48.89564,"lng":2.31039,"themes":[],"shape":[[2.31007,48.89605],[2.31166,48.89514],[2.31085,48.89487],[2.31013,48.89583],[2.30959,48.89589],[2.31007,48.89605]],"quartier":"Batignolles","story":"Robert Badinter (Paris, 1928 – Paris, 2024), avocat, essayiste, homme politique, engagé contre la peine de mort.","image":{"provider":"panoramax","id":"60f78d8c-bbb8-4c67-bda0-3558c4ac79f8","lat":48.89607,"lng":2.31029,"sequenceId":"a1e94e75-e914-403f-8bb4-153019167838"}},{"kind":"street","id":"v:17:9320","name":"passage Berzélius","arr":17,"lat":48.8952,"lng":2.32093,"themes":["passages"],"shape":[[2.32069,48.89536],[2.32119,48.8952],[2.32123,48.8952],[2.32128,48.89522],[2.32117,48.89505],[2.32108,48.89508],[2.32098,48.89511],[2.32087,48.89515],[2.32073,48.8952],[2.32066,48.89522],[2.3206,48.89524],[2.32069,48.89536]],"quartier":"Épinettes","lengthM":52,"story":"Jean Jacques Berzélius (1779-1848), chimiste suédois ; quartier où ont été groupés des noms de savants ; voisinage de la rue Berzélius."},{"kind":"street","id":"v:17:9422","name":"passage Boulay","arr":17,"lat":48.8954,"lng":2.31759,"themes":["passages"],"shape":[[2.31761,48.89555],[2.31761,48.89555],[2.31766,48.89555],[2.31767,48.89549],[2.31763,48.89549],[2.31762,48.89549],[2.31763,48.89537],[2.31764,48.89537],[2.31764,48.89537],[2.31765,48.89526],[2.31767,48.89514],[2.31766,48.89514],[2.31767,48.89507],[2.31768,48.89505],[2.31759,48.89507],[2.31761,48.89509],[2.3176,48.89521],[2.31759,48.89528],[2.31757,48.89538],[2.31752,48.89538],[2.31751,48.89541],[2.31751,48.89544],[2.31751,48.89545],[2.31751,48.89546],[2.3175,48.89553],[2.3175,48.89554],[2.31749,48.89557],[2.31749,48.89557],[2.31749,48.8956],[2.31747,48.8956],[2.3176,48.89565],[2.3176,48.8956],[2.31761,48.89555]],"quartier":"Épinettes","lengthM":62,"story":"Voisinage de la rue Boulay.","image":{"provider":"panoramax","id":"ada3e445-1e60-4e49-8bb6-6eeaac6756b8","lat":48.89561,"lng":2.31725,"sequenceId":"da753f1e-d0d7-42db-a950-f171ee2d6f88"}},{"kind":"street","id":"v:17:9620","name":"passage Cardinet","arr":17,"lat":48.88617,"lng":2.31152,"themes":["passages"],"shape":[[2.3122,48.8867],[2.31219,48.8867],[2.31219,48.88667],[2.31241,48.88653],[2.31248,48.88648],[2.31257,48.88636],[2.31243,48.88646],[2.31221,48.88659],[2.31205,48.88653],[2.31196,48.88647],[2.31175,48.88633],[2.31165,48.88627],[2.31137,48.88608],[2.31127,48.88601],[2.31109,48.88587],[2.31098,48.88581],[2.31088,48.88575],[2.31067,48.88561],[2.31063,48.88558],[2.31054,48.88552],[2.31042,48.88544],[2.31049,48.88555],[2.31073,48.88571],[2.31083,48.88578],[2.31095,48.88588],[2.31099,48.8859],[2.31103,48.88592],[2.31113,48.88598],[2.31132,48.88611],[2.31152,48.88624],[2.31162,48.88631],[2.31181,48.88643],[2.3119,48.88649],[2.31211,48.88664],[2.31211,48.88666],[2.3122,48.8867]],"quartier":"Batignolles","lengthM":220,"story":"Nom de propriétaire.","image":{"provider":"panoramax","id":"e907b313-0765-4974-b84a-dd5d56f64446","lat":48.88519,"lng":2.31097,"sequenceId":"b62e423a-55e8-46af-a24c-d18f1d836c06"}},{"kind":"street","id":"v:17:9820","name":"passage Chatelet","arr":17,"lat":48.8972,"lng":2.32476,"themes":["passages"],"shape":[[2.32473,48.8973],[2.32475,48.89727],[2.32481,48.89728],[2.32481,48.89724],[2.32491,48.89713],[2.3249,48.89711],[2.32491,48.89701],[2.32487,48.897],[2.32478,48.89696],[2.32478,48.89695],[2.3247,48.89699],[2.32474,48.89701],[2.32483,48.89706],[2.32484,48.89709],[2.32469,48.89726],[2.32468,48.89728],[2.32468,48.8973],[2.32468,48.89732],[2.32468,48.89736],[2.32472,48.89736],[2.32473,48.89736],[2.32474,48.89734],[2.32473,48.89734],[2.32473,48.89732],[2.32473,48.8973],[2.32473,48.8973]],"quartier":"Épinettes","lengthM":48,"story":"M. Chatelet, propriétaire du terrain sur lequel la voie a été ouverte.","image":{"provider":"panoramax","id":"43521fe5-15de-475d-afb7-e9e0f31070de","lat":48.89687,"lng":2.32472,"sequenceId":"a271070b-4aab-49fb-9455-d80c02598f2a"}},{"kind":"street","id":"v:17:14774","name":"passage de la Hutte au Garde","arr":17,"lat":48.89151,"lng":2.30337,"themes":["passages"],"shape":[[2.30368,48.89167],[2.30293,48.89124],[2.3029,48.89127],[2.30364,48.8917],[2.30368,48.89167]],"quartier":"Batignolles","lengthM":73,"story":"Référence à l'ancienne présence d'une hutte utilisée par les gardes-chasses des garennes royales au XVIIe siècle.","image":{"provider":"panoramax","id":"14ff054a-5ff5-4188-ad6d-addc8429aab1","lat":48.89122,"lng":2.30287,"sequenceId":"bf252c2c-9aaa-4ef8-afca-2902ff3afcb8"}},{"kind":"street","id":"v:17:8792","name":"passage des Acacias","arr":17,"lat":48.87785,"lng":2.29396,"themes":["passages"],"shape":[[2.29411,48.87778],[2.29412,48.87773],[2.2941,48.87774],[2.29401,48.87781],[2.29391,48.87787],[2.29386,48.8779],[2.29382,48.87793],[2.29375,48.87798],[2.29379,48.878],[2.29411,48.87778]],"quartier":"Ternes","lengthM":36,"story":"Voisinage de la rue des Acacias.","image":{"provider":"panoramax","id":"34b397ff-c1ea-40b8-9a7b-b814f7b51a66","lat":48.87799,"lng":2.29428,"sequenceId":"9fa4c120-d507-4faf-873b-35b7d0a4cd8c"}},{"kind":"street","id":"v:17:10321","name":"passage Doisy","arr":17,"lat":48.87839,"lng":2.29193,"themes":["passages"],"shape":[[2.29194,48.87884],[2.29188,48.87858],[2.29196,48.87846],[2.29194,48.87845],[2.29198,48.87838],[2.29209,48.87822],[2.29209,48.87821],[2.29213,48.87814],[2.29216,48.8781],[2.29214,48.87807],[2.29213,48.87807],[2.29213,48.87807],[2.29211,48.87807],[2.2921,48.87807],[2.29209,48.87808],[2.29198,48.87818],[2.29181,48.87814],[2.29165,48.87809],[2.29165,48.87809],[2.29162,48.87813],[2.29163,48.87813],[2.29181,48.87818],[2.29188,48.8782],[2.29193,48.87822],[2.29197,48.87826],[2.29192,48.87835],[2.29183,48.87849],[2.29171,48.87867],[2.29174,48.8787],[2.29188,48.87886],[2.2919,48.87889],[2.29192,48.87892],[2.29196,48.87896],[2.29202,48.87898],[2.29197,48.8789],[2.29194,48.87884]],"quartier":"Ternes","lengthM":135,"story":"M. Doisy, propriétaire."},{"kind":"street","id":"v:17:9981","name":"passage du Commandant Charles Martel","arr":17,"lat":48.88448,"lng":2.31749,"themes":["passages"],"shape":[[2.31742,48.8844],[2.31731,48.88434],[2.31726,48.88439],[2.31739,48.88446],[2.31742,48.88447],[2.31744,48.88449],[2.31745,48.88449],[2.31753,48.88453],[2.31773,48.88463],[2.31779,48.88458],[2.31766,48.88452],[2.31758,48.88448],[2.31742,48.8844]],"quartier":"Batignolles","lengthM":44,"story":"Charles Isidore Martel (1867-1924), officier de marine.","image":{"provider":"panoramax","id":"07fcd61d-0f10-421b-bd5e-894db1840d5a","lat":48.88445,"lng":2.31746,"sequenceId":"a1e94e75-e914-403f-8bb4-153019167838"}},{"kind":"street","id":"v:17:10741","name":"passage Flourens","arr":17,"lat":48.89723,"lng":2.32704,"themes":["passages","pedestrian"],"shape":[[2.32734,48.89714],[2.32734,48.89704],[2.32732,48.89708],[2.3273,48.89709],[2.32729,48.89709],[2.32729,48.89709],[2.32711,48.89717],[2.32701,48.89721],[2.32682,48.89729],[2.32672,48.89733],[2.32672,48.89733],[2.32672,48.89737],[2.32667,48.8974],[2.32678,48.8974],[2.32678,48.89737],[2.32691,48.89732],[2.32701,48.89727],[2.32724,48.89718],[2.32734,48.89714]],"quartier":"Épinettes","lengthM":60,"story":"Flourens (1794-1867), physiologiste français.","image":{"provider":"panoramax","id":"a8c94013-2ef3-43e7-8f6d-5a1d4a778ac3","lat":48.89749,"lng":2.3267,"sequenceId":"da753f1e-d0d7-42db-a950-f171ee2d6f88"}},{"kind":"street","id":"v:17:10931","name":"passage Geffroy-Didelot","arr":17,"lat":48.8822,"lng":2.31734,"themes":["passages","pedestrian"],"shape":[[2.31703,48.88264],[2.31707,48.8826],[2.31707,48.8826],[2.31723,48.8824],[2.31728,48.88232],[2.31733,48.88227],[2.31746,48.8821],[2.31753,48.882],[2.31766,48.88184],[2.31765,48.88184],[2.31772,48.88176],[2.31772,48.88175],[2.31767,48.88174],[2.31767,48.88174],[2.31764,48.88178],[2.31764,48.88178],[2.31761,48.88182],[2.3176,48.88183],[2.31755,48.88187],[2.31754,48.88187],[2.31745,48.882],[2.31738,48.88208],[2.31741,48.88208],[2.31732,48.88219],[2.31729,48.88223],[2.31722,48.88232],[2.31722,48.88233],[2.3171,48.88248],[2.31703,48.88257],[2.31702,48.88258],[2.31702,48.88258],[2.31699,48.88263],[2.31699,48.88264],[2.31703,48.88265],[2.31703,48.88264],[2.31703,48.88264]],"quartier":"Batignolles","lengthM":107,"story":"M. Geffroy-Didelot, propriétaire.","image":{"provider":"panoramax","id":"537f2fa9-69d2-47ff-81d9-c9caf302eacd","lat":48.8819,"lng":2.31758,"sequenceId":"b62e423a-55e8-46af-a24c-d18f1d836c06"}},{"kind":"street","id":"v:17:11756","name":"passage Legendre","arr":17,"lat":48.89179,"lng":2.32655,"themes":["passages"],"shape":[[2.32647,48.89188],[2.32657,48.89184],[2.32679,48.89174],[2.32684,48.89175],[2.32685,48.89175],[2.3268,48.89159],[2.32678,48.89161],[2.32669,48.89165],[2.32668,48.89166],[2.32663,48.89168],[2.3266,48.89169],[2.32655,48.89172],[2.32654,48.89172],[2.32649,48.89175],[2.32633,48.89182],[2.32623,48.89187],[2.3262,48.89186],[2.32638,48.89199],[2.32639,48.89197],[2.3264,48.89194],[2.3264,48.89192],[2.32647,48.89188]],"quartier":"Épinettes","lengthM":47,"story":"Voisinage de la rue Legendre.","image":{"provider":"panoramax","id":"7437aa01-93bc-4d77-8543-8dd5ee8237d3","lat":48.89153,"lng":2.32683,"sequenceId":"cdce5999-564b-4d18-ac2a-2495907e88ea"}},{"kind":"street","id":"v:17:12287","name":"passage Moncey","arr":17,"lat":48.88996,"lng":2.32562,"themes":["passages","pedestrian"],"shape":[[2.3252,48.89014],[2.32617,48.8898],[2.32618,48.8898],[2.32618,48.88976],[2.32585,48.88988],[2.32584,48.88988],[2.32576,48.88991],[2.32566,48.88994],[2.32554,48.88998],[2.32545,48.89001],[2.32531,48.89006],[2.32519,48.8901],[2.32515,48.8901],[2.3252,48.89014]],"quartier":"Épinettes","lengthM":80,"story":"Bon Adrien Jeannot de Moncey (1754-1842), duc de Conegliano, maréchal de France","image":{"provider":"panoramax","id":"369865ad-9ee5-4cc3-8e6e-9a78950007df","lat":48.88959,"lng":2.32626,"sequenceId":"8e983f99-a6f8-4711-b7bf-8d20073f0acf"}},{"kind":"street","id":"v:17:12777","name":"passage Petit Cerf","arr":17,"lat":48.89352,"lng":2.31667,"themes":["passages"],"shape":[[2.31709,48.89385],[2.31733,48.89377],[2.31709,48.89382],[2.31704,48.89381],[2.31699,48.89377],[2.31695,48.89373],[2.31695,48.89373],[2.31673,48.89354],[2.31673,48.89354],[2.31658,48.89339],[2.31642,48.89324],[2.31625,48.89312],[2.31616,48.89305],[2.3161,48.89308],[2.31618,48.89314],[2.31619,48.89314],[2.31619,48.89315],[2.31619,48.89315],[2.31619,48.89316],[2.31619,48.89316],[2.31619,48.89316],[2.31633,48.89328],[2.31635,48.89329],[2.31639,48.89333],[2.31664,48.89356],[2.31672,48.89364],[2.31681,48.89371],[2.31686,48.89376],[2.31694,48.89381],[2.31696,48.89383],[2.31699,48.89385],[2.31702,48.89386],[2.31703,48.89386],[2.31704,48.89386],[2.31707,48.89386],[2.31709,48.89385]],"quartier":"Épinettes","lengthM":130,"story":"M. Petit Cerf, propriétaire.","image":{"provider":"panoramax","id":"a156c5c6-9d99-4f90-8ea7-b3e9718b2d39","lat":48.89299,"lng":2.31608,"sequenceId":"a1e94e75-e914-403f-8bb4-153019167838"}},{"kind":"street","id":"v:17:12939","name":"passage Poncelet","arr":17,"lat":48.8799,"lng":2.29756,"themes":["passages"],"shape":[[2.2973,48.88015],[2.29735,48.8801],[2.29741,48.88006],[2.29748,48.88],[2.2975,48.87999],[2.29754,48.87996],[2.29758,48.87993],[2.29759,48.87992],[2.29763,48.87989],[2.29763,48.87988],[2.29762,48.87988],[2.29765,48.87986],[2.29774,48.87979],[2.29779,48.87975],[2.2978,48.87974],[2.29787,48.87968],[2.29787,48.87968],[2.29787,48.87968],[2.29792,48.87959],[2.29784,48.87966],[2.29782,48.87968],[2.29767,48.8798],[2.29764,48.87983],[2.2976,48.87985],[2.2976,48.87985],[2.29757,48.87988],[2.29756,48.87988],[2.29749,48.87993],[2.29749,48.87995],[2.29741,48.88001],[2.29729,48.8801],[2.29722,48.88006],[2.29714,48.88002],[2.2971,48.88004],[2.29729,48.88015],[2.2973,48.88015]],"quartier":"Ternes","lengthM":90,"story":"Voisinage de la rue Poncelet.","image":{"provider":"panoramax","id":"1581323a-cb2a-41c7-86b7-8454d68dd28b","lat":48.8796,"lng":2.29792,"sequenceId":"b62e423a-55e8-46af-a24c-d18f1d836c06"}},{"kind":"street","id":"v:17:13028","name":"passage Pouchet","arr":17,"lat":48.89626,"lng":2.32223,"themes":["passages"],"shape":[[2.32222,48.89626],[2.32233,48.89625],[2.3224,48.89622],[2.3224,48.89621],[2.32246,48.89619],[2.32252,48.89617],[2.32259,48.89615],[2.32268,48.89612],[2.32287,48.89605],[2.32301,48.896],[2.3229,48.896],[2.32285,48.89601],[2.32275,48.89605],[2.32265,48.89608],[2.32256,48.89612],[2.32246,48.89615],[2.32231,48.8962],[2.32222,48.89626],[2.32215,48.8963],[2.32222,48.89626],[2.32213,48.89627],[2.32196,48.89633],[2.32194,48.89634],[2.32184,48.89637],[2.32175,48.89641],[2.3217,48.89642],[2.3216,48.89646],[2.32163,48.89649],[2.32163,48.89649],[2.32168,48.89647],[2.32172,48.89646],[2.32181,48.89642],[2.32192,48.89639],[2.32202,48.89635],[2.32214,48.89631],[2.32215,48.8963]],"quartier":"Épinettes","lengthM":115,"story":"Voisinage de la rue Pouchet."},{"kind":"street","id":"v:17:15051","name":"passage Rose Valland","arr":17,"lat":48.89674,"lng":2.31793,"themes":["passages"],"shape":[[2.31833,48.89635],[2.31827,48.89632],[2.31811,48.89651],[2.31802,48.8966],[2.3177,48.89697],[2.31769,48.89697],[2.31762,48.89706],[2.31758,48.8971],[2.31764,48.89713],[2.31833,48.89635]],"quartier":"Épinettes","lengthM":100,"story":"Rose Valland (Isère, 1898-Essonne, 1980), historienne d'art et résistante, à l'origine du sauvetage du patrimoine français pillé par les nazis durant l'occupation.","image":{"provider":"panoramax","id":"d380fbb7-097c-4f9f-88af-87d807869b3f","lat":48.89716,"lng":2.31765,"sequenceId":"bf252c2c-9aaa-4ef8-afca-2902ff3afcb8"}},{"kind":"street","id":"v:17:13335","name":"passage Roux","arr":17,"lat":48.88133,"lng":2.29764,"themes":["passages"],"shape":[[2.29747,48.88122],[2.29728,48.88115],[2.29728,48.88112],[2.29716,48.8812],[2.29717,48.8812],[2.29723,48.88119],[2.29726,48.88121],[2.29733,48.88124],[2.29752,48.88132],[2.29763,48.88137],[2.29785,48.88146],[2.29809,48.88157],[2.29809,48.88159],[2.29817,48.88153],[2.29814,48.88153],[2.29807,48.8815],[2.29791,48.88143],[2.29793,48.88142],[2.29788,48.8814],[2.29781,48.88137],[2.29778,48.88136],[2.29756,48.88126],[2.29753,48.88125],[2.2975,48.88124],[2.2975,48.88124],[2.29747,48.88122]],"quartier":"Ternes","lengthM":80,"story":"M. Roux, propriétaire.","image":{"provider":"panoramax","id":"f7d73dfa-70d6-42f3-84d5-88ae1bea07e1","lat":48.88157,"lng":2.29815,"sequenceId":"b62e423a-55e8-46af-a24c-d18f1d836c06"}},{"kind":"street","id":"v:17:13551","name":"passage Saint-Ange","arr":17,"lat":48.89643,"lng":2.32779,"themes":["passages"],"shape":[[2.32751,48.89653],[2.32764,48.8965],[2.32771,48.89652],[2.32775,48.89651],[2.32775,48.89652],[2.3279,48.89649],[2.32792,48.89648],[2.32791,48.89647],[2.32795,48.89646],[2.32796,48.89646],[2.32796,48.89645],[2.32796,48.89645],[2.32796,48.89644],[2.32797,48.89644],[2.32797,48.89643],[2.32799,48.89643],[2.32798,48.89641],[2.32796,48.89639],[2.32816,48.8963],[2.32823,48.89628],[2.32836,48.89625],[2.32821,48.89624],[2.32815,48.89625],[2.32785,48.89633],[2.32785,48.89633],[2.32777,48.89635],[2.32768,48.89637],[2.32747,48.89642],[2.32743,48.89643],[2.32735,48.89645],[2.32726,48.89648],[2.32724,48.89648],[2.3273,48.89658],[2.32731,48.89658],[2.32747,48.89654],[2.32751,48.89653]],"quartier":"Épinettes","lengthM":85,"story":"M. Saint-Ange, propriétaire.","image":{"provider":"panoramax","id":"1131c2d4-57ee-4929-9967-319c11924e09","lat":48.89623,"lng":2.32836,"sequenceId":"8e983f99-a6f8-4711-b7bf-8d20073f0acf"}},{"kind":"street","id":"v:17:13646","name":"passage Saint-Michel","arr":17,"lat":48.88873,"lng":2.32539,"themes":["passages","pedestrian"],"shape":[[2.32508,48.88887],[2.32522,48.88882],[2.32537,48.88877],[2.32547,48.88873],[2.32561,48.88867],[2.32577,48.88862],[2.3258,48.88862],[2.32577,48.88854],[2.32576,48.88856],[2.32564,48.8886],[2.32553,48.88864],[2.32542,48.88869],[2.3253,48.88873],[2.32527,48.88874],[2.32518,48.88877],[2.32504,48.88883],[2.32501,48.88882],[2.32507,48.8889],[2.32508,48.88887]],"quartier":"Épinettes","lengthM":63,"story":"Conduit à l'église Saint-Michel des Batignolles.","image":{"provider":"panoramax","id":"7fd4c70e-99bc-4970-9431-49a0ff5f8675","lat":48.88863,"lng":2.32581,"sequenceId":"cdce5999-564b-4d18-ac2a-2495907e88ea"}},{"kind":"street","id":"v:17:15187","name":"passerelle Marcelle Henry","arr":17,"lat":48.8899,"lng":2.31089,"themes":[],"shape":[[2.31136,48.89019],[2.31041,48.88944],[2.31032,48.88949],[2.31028,48.88951],[2.31123,48.89027],[2.31129,48.89023],[2.31136,48.89019]],"quartier":"Batignolles","story":"Marcelle Henry (Angers, 1895-Paris, 1945), résistante. Nommée à titre posthume sous-directeur honoraire au ministère du Travail et de la Sécurité Sociale, élevée au grade d'Officier du Mérite social, Chevalier de la Légion d'honneur et décorée de la Croix de guerre 39-45 avc palm…","image":{"provider":"panoramax","id":"7f29eaf7-10eb-44eb-bd06-ca20392cba6b","lat":48.88946,"lng":2.31024,"sequenceId":"ee842571-639c-4352-9e4e-84046d5df414"}},{"kind":"street","id":"v:17:8824","name":"place Aimé Maillart","arr":17,"lat":48.88156,"lng":2.29549,"themes":["places"],"shape":[[2.29548,48.88139],[2.29547,48.88139],[2.29544,48.88139],[2.29543,48.8814],[2.29542,48.88141],[2.29541,48.88142],[2.29529,48.88152],[2.29529,48.88152],[2.29529,48.88153],[2.29529,48.88154],[2.29529,48.88155],[2.29529,48.88155],[2.2953,48.88156],[2.29531,48.88156],[2.29553,48.88167],[2.29554,48.88167],[2.29556,48.88168],[2.29557,48.88168],[2.29557,48.88169],[2.29558,48.88169],[2.2956,48.88168],[2.29561,48.88168],[2.29561,48.88168],[2.29562,48.88167],[2.29563,48.88167],[2.29563,48.88166],[2.29563,48.88166],[2.29563,48.88164],[2.29563,48.88164],[2.29563,48.88164],[2.29561,48.8816],[2.29551,48.88141],[2.29551,48.8814],[2.2955,48.8814],[2.29549,48.88139],[2.29548,48.88139]],"quartier":"Ternes","story":"Louis dit Aimé Maillart (1817-1871), compositeur.","image":{"provider":"panoramax","id":"61630e6a-573e-41c7-ab22-604cb04819b0","lat":48.8817,"lng":2.29554,"sequenceId":"b62e423a-55e8-46af-a24c-d18f1d836c06"}},{"kind":"street","id":"v:17:15441","name":"place André Zirnheld","arr":17,"lat":48.88623,"lng":2.3139,"themes":["places"],"shape":[[2.31373,48.88632],[2.31389,48.88638],[2.31395,48.88629],[2.31398,48.88618],[2.31398,48.88618],[2.31397,48.88617],[2.31396,48.88616],[2.31394,48.88616],[2.31393,48.88616],[2.31391,48.88616],[2.3138,48.88623],[2.31373,48.88632]],"quartier":"Batignolles","story":"André Zirnheld (Paris, 1913 - Marsa Matruh (Égypte), 1942), premier officier parachutiste français tué au combat et auteur de la \"Prière du parachutiste\". Compagnon de la Libération.","image":{"provider":"panoramax","id":"471fc91c-0a52-43f3-af2f-134e96ff177c","lat":48.88613,"lng":2.31398,"sequenceId":"b62e423a-55e8-46af-a24c-d18f1d836c06"}},{"kind":"street","id":"v:17:15494","name":"place Anny Flore","arr":17,"lat":48.88135,"lng":2.28587,"themes":["places"],"shape":[[2.28607,48.88139],[2.28562,48.88111],[2.28562,48.88112],[2.2858,48.88144],[2.28583,48.88149],[2.28594,48.88146],[2.28603,48.88142],[2.28607,48.88139]],"quartier":"Ternes","story":"Marie-Antoinette Quié, dite Anny Flore (Cahus 1912 - Boulogne-Billancourt 1985), mannequin, chanteuse, comédienne.","image":{"provider":"panoramax","id":"b66d1109-eae6-4f7d-b9c3-ec3c338d9183","lat":48.8815,"lng":2.28582,"sequenceId":"65317fc1-8596-44db-ac50-6d0926519755"}},{"kind":"street","id":"v:17:9059","name":"place Arnault Tzanck","arr":17,"lat":48.89878,"lng":2.32319,"themes":["places"],"shape":[[2.32362,48.89866],[2.32356,48.8986],[2.32342,48.89846],[2.32301,48.89844],[2.32294,48.89851],[2.3229,48.89855],[2.32282,48.89862],[2.32279,48.89862],[2.3228,48.89862],[2.32273,48.89864],[2.32272,48.89864],[2.32272,48.89864],[2.3222,48.89878],[2.32213,48.89879],[2.32219,48.89907],[2.32224,48.89907],[2.3225,48.89907],[2.3236,48.89909],[2.32368,48.89909],[2.3239,48.89909],[2.32395,48.8991],[2.32395,48.89909],[2.32409,48.89881],[2.32408,48.89881],[2.32401,48.89875],[2.324,48.89874],[2.32362,48.89866]],"quartier":"Épinettes","lengthM":73,"story":"Arnault Tzanck (1885-1954), médecin, apôtre et pionnier de la transfusion sanguine. Animateur des sociétés nationales et internationales de transfusion sanguine.","image":{"provider":"panoramax","id":"31783af3-89fb-4b48-8382-e12f52d505a2","lat":48.89882,"lng":2.32195,"sequenceId":"bf252c2c-9aaa-4ef8-afca-2902ff3afcb8"}},{"kind":"street","id":"v:17:15086","name":"place Blanche Lefebvre","arr":17,"lat":48.89732,"lng":2.31769,"themes":["places"],"shape":[[2.31788,48.89734],[2.3175,48.8972],[2.31741,48.8973],[2.31779,48.89744],[2.31788,48.89734]],"quartier":"Épinettes","lengthM":33,"story":"Célèbre parisienne féministe qui fut tuée le 23 mai 1871, à l'âge de 24 ans, sur la barricade des Batignolles, durant la Commune.","image":{"provider":"panoramax","id":"1da223f5-0983-4175-b691-8f3c542c27d3","lat":48.89703,"lng":2.31734,"sequenceId":"bf252c2c-9aaa-4ef8-afca-2902ff3afcb8"}},{"kind":"street","id":"v:17:9431","name":"place Boulnois","arr":17,"lat":48.87924,"lng":2.29583,"themes":["places"],"shape":[[2.2961,48.87922],[2.29598,48.87917],[2.29587,48.87912],[2.29581,48.87917],[2.29569,48.87912],[2.29558,48.87906],[2.29546,48.87901],[2.2954,48.87907],[2.29552,48.87913],[2.29561,48.87916],[2.29574,48.87923],[2.29568,48.87928],[2.2958,48.87934],[2.29591,48.87939],[2.29591,48.87939],[2.29591,48.87939],[2.29594,48.8794],[2.29595,48.87939],[2.29599,48.87936],[2.29601,48.87935],[2.29603,48.87932],[2.29612,48.87925],[2.2961,48.87922]],"quartier":"Ternes","lengthM":55,"story":"Le baron Louis Jacques François Boulnois (1773-1833), lieutenant général, a fait ouvrir cette voie sur sa propriété.","image":{"provider":"panoramax","id":"02932a5b-6db1-496a-b435-99e748a50a36","lat":48.87919,"lng":2.29573,"sequenceId":"e2d10eeb-55bb-4641-88f5-8e9861be3409"}},{"kind":"street","id":"v:17:9767","name":"place Charles Fillion","arr":17,"lat":48.88767,"lng":2.31672,"themes":["places"],"shape":[[2.31574,48.88834],[2.3158,48.88866],[2.31586,48.8886],[2.31591,48.88857],[2.31594,48.88855],[2.31606,48.88848],[2.31612,48.88844],[2.31616,48.88842],[2.31616,48.88842],[2.31627,48.88835],[2.31627,48.88835],[2.31631,48.88833],[2.31631,48.88833],[2.31668,48.88811],[2.31688,48.88799],[2.31702,48.88791],[2.31724,48.88778],[2.31747,48.88764],[2.31758,48.88757],[2.31771,48.88749],[2.31781,48.88709],[2.31772,48.88702],[2.31763,48.88696],[2.31751,48.88686],[2.31728,48.88673],[2.31715,48.88666],[2.31697,48.88657],[2.31684,48.8865],[2.31684,48.88651],[2.31679,48.88648],[2.31676,48.88647],[2.3166,48.88659],[2.31751,48.88727],[2.3175,48.88734],[2.31583,48.88834],[2.31574,48.88834]],"quartier":"Batignolles","lengthM":340,"story":"Charles Fillion (1883-1917), conseiller municipal, mort au champ d'honneur.","image":{"provider":"panoramax","id":"499c72cb-527d-494f-98e2-a7cab1c4a858","lat":48.88753,"lng":2.31754,"sequenceId":"a1e94e75-e914-403f-8bb4-153019167838"}},{"kind":"street","id":"v:17:11367","name":"place d'Israël","arr":17,"lat":48.88511,"lng":2.30335,"themes":["places"],"shape":[[2.30361,48.88512],[2.30348,48.88494],[2.30347,48.88495],[2.30347,48.88495],[2.30346,48.88495],[2.30345,48.88495],[2.30344,48.88496],[2.30343,48.88496],[2.30342,48.88496],[2.30341,48.88495],[2.3034,48.88495],[2.3034,48.88495],[2.30339,48.88494],[2.30339,48.88494],[2.30338,48.88493],[2.30307,48.88513],[2.30303,48.88517],[2.30288,48.88535],[2.30288,48.88535],[2.30291,48.88539],[2.30291,48.88539],[2.30322,48.88542],[2.30329,48.88543],[2.3037,48.88537],[2.30373,48.88533],[2.30364,48.88516],[2.30361,48.88512]],"quartier":"Plaine de Monceaux","story":"Etat du Moyen-Orient."},{"kind":"street","id":"v:17:15307","name":"place de Jérusalem","arr":17,"lat":48.8875,"lng":2.29485,"themes":["places"],"shape":[[2.29517,48.8874],[2.29466,48.88725],[2.29453,48.88726],[2.29432,48.8875],[2.29434,48.88759],[2.29471,48.88787],[2.29485,48.88788],[2.29521,48.88748],[2.2952,48.88746],[2.29518,48.88742],[2.29517,48.8874]],"quartier":"Plaine de Monceaux","story":"en rappel de la rue de Jérusalem, supprimée par l'agrandissement du Palais de Justice en 1883. hommage participant au travail de mémoire, d'histoire et de lutte contre toutes les formes de discriminations.","image":{"provider":"panoramax","id":"75696d93-2cf5-4889-9a91-8d6b738aa4b4","lat":48.88774,"lng":2.29478,"sequenceId":"8e716144-b4c1-411f-9670-85783ad3d943"}},{"kind":"street","id":"v:17:12969","name":"place de la Porte de Champerret","arr":17,"lat":48.8859,"lng":2.29024,"themes":["places"],"shape":[[2.29048,48.8863],[2.29079,48.88608],[2.29079,48.88608],[2.29083,48.88605],[2.29105,48.88595],[2.29131,48.88592],[2.29158,48.88567],[2.29084,48.88535],[2.29065,48.88557],[2.29059,48.88562],[2.29059,48.88562],[2.29048,48.88566],[2.29043,48.88567],[2.29043,48.88566],[2.2902,48.8857],[2.29017,48.8857],[2.29009,48.88571],[2.28999,48.88572],[2.28999,48.88572],[2.28996,48.88573],[2.28987,48.88574],[2.28979,48.88575],[2.28975,48.88575],[2.28975,48.88575],[2.28951,48.88578],[2.28948,48.88578],[2.28931,48.88581],[2.28953,48.8861],[2.28969,48.88618],[2.28976,48.88622],[2.28991,48.88631],[2.28989,48.88632],[2.28997,48.88637],[2.29038,48.88647],[2.29037,48.88638],[2.29048,48.8863]],"quartier":"Ternes","story":"Située en partie sur l'emplacement de l'ancienne porte de Champerret."},{"kind":"street","id":"v:17:11844","name":"place de Lévis","arr":17,"lat":48.8836,"lng":2.31355,"themes":["places","pedestrian"],"shape":[[2.31374,48.88367],[2.31385,48.88358],[2.3138,48.88358],[2.31378,48.88357],[2.31368,48.88351],[2.31353,48.88341],[2.31338,48.88332],[2.31321,48.88338],[2.31319,48.88349],[2.31319,48.8835],[2.3132,48.8835],[2.3132,48.8835],[2.3136,48.88374],[2.31361,48.88374],[2.31361,48.88374],[2.31362,48.88374],[2.31363,48.88374],[2.31363,48.88374],[2.31364,48.88374],[2.31365,48.88373],[2.31374,48.88367]],"quartier":"Plaine de Monceaux","lengthM":50,"story":"Voisinage de la rue de Lévis.","image":{"provider":"panoramax","id":"67fd84b6-7d44-4265-8507-74cabe746a60","lat":48.88347,"lng":2.31321,"sequenceId":"38d02cd5-0b94-497e-a1fb-6f78e76d4c69"}},{"kind":"street","id":"v:17:13994","name":"place de Verdun","arr":17,"lat":48.8794,"lng":2.28068,"themes":["places"],"shape":[[2.28047,48.87952],[2.28065,48.87967],[2.28093,48.88006],[2.28101,48.87997],[2.281,48.87996],[2.28099,48.87994],[2.28098,48.87991],[2.28097,48.87988],[2.28096,48.87986],[2.28096,48.87985],[2.28096,48.87982],[2.28096,48.87978],[2.28097,48.87975],[2.28098,48.87974],[2.28103,48.87961],[2.281,48.87957],[2.28096,48.87951],[2.28092,48.87946],[2.28087,48.87939],[2.28079,48.87928],[2.28073,48.87918],[2.28067,48.87909],[2.28063,48.87903],[2.28061,48.87899],[2.28044,48.87889],[2.28043,48.87888],[2.28038,48.87888],[2.28037,48.87888],[2.28036,48.87888],[2.28031,48.87885],[2.28029,48.87884],[2.28023,48.8788],[2.28001,48.87892],[2.2801,48.87898],[2.28026,48.87923],[2.28047,48.87952]],"quartier":"Ternes","story":"Verdun, ville du département de la Meuse, célèbre par la bataille dont elle fut le centre en 1916","image":{"provider":"panoramax","id":"eff57b9c-f91e-4e64-9d59-3d211eec0749","lat":48.87951,"lng":2.28054,"sequenceId":"bf252c2c-9aaa-4ef8-afca-2902ff3afcb8"}},{"kind":"street","id":"v:17:14127","name":"place de Wagram","arr":17,"lat":48.88734,"lng":2.30475,"themes":["places"],"shape":[[2.30517,48.88755],[2.30517,48.88754],[2.30517,48.88754],[2.30523,48.88734],[2.30523,48.88734],[2.30523,48.88732],[2.30527,48.88717],[2.30522,48.88707],[2.30494,48.88687],[2.30478,48.88686],[2.30441,48.88697],[2.30431,48.88705],[2.30428,48.88721],[2.30427,48.88722],[2.30427,48.88722],[2.30421,48.88742],[2.30422,48.88742],[2.30421,48.88744],[2.30432,48.88761],[2.30441,48.8877],[2.30481,48.88774],[2.30494,48.88768],[2.30517,48.88755]],"quartier":"Plaine de Monceaux","story":"Place située à l'extrémité de l'avenue de Wagram. Victoire de l'armée française sur les Autrichiens le 6 juillet 1809.","image":{"provider":"panoramax","id":"66c933ee-68ba-43ab-9df2-e0679fffee36","lat":48.88731,"lng":2.30377,"sequenceId":"72248bfb-1d80-4642-b00d-9efec77029e3"}},{"kind":"street","id":"v:17:14775","name":"place des Magasins de l'Opéra Comique","arr":17,"lat":48.89098,"lng":2.30509,"themes":["places"],"shape":[[2.30524,48.89094],[2.30497,48.89081],[2.30485,48.89092],[2.30494,48.89097],[2.30499,48.89099],[2.30512,48.89106],[2.30513,48.89105],[2.30513,48.89104],[2.30514,48.89104],[2.30515,48.89102],[2.30523,48.89095],[2.30524,48.89094]],"quartier":"Batignolles","lengthM":25,"story":"Référence à la présence, à côté de cette place, d'un des magasins des décors de l'Opéra Comique, théâtre fondé au début du XVIIIe siècle.","image":{"provider":"panoramax","id":"d1f1a6c2-c6f2-49b7-91ca-7ef7904bc1bb","lat":48.89087,"lng":2.30493,"sequenceId":"bf252c2c-9aaa-4ef8-afca-2902ff3afcb8"}},{"kind":"street","id":"v:17:14997","name":"place du 22 Novembre 1943","arr":17,"lat":48.88548,"lng":2.29358,"themes":["places"],"shape":[[2.29384,48.88551],[2.29371,48.88526],[2.29348,48.88528],[2.29305,48.88556],[2.2933,48.88567],[2.29384,48.88554],[2.29384,48.88551]],"quartier":"Plaine de Monceaux","story":"Commémoration de l'indépendance du Liban reconnue à partir de 1936 par un traité signé par la France et devenue effective le 22 novembre 1943."},{"kind":"street","id":"v:17:9480","name":"place du Brésil","arr":17,"lat":48.88425,"lng":2.30267,"themes":["places"],"shape":[[2.3029,48.88407],[2.30272,48.88402],[2.3023,48.88406],[2.30226,48.88412],[2.3022,48.88418],[2.30243,48.88443],[2.30253,48.88447],[2.30261,48.88449],[2.30302,48.88444],[2.30307,48.88436],[2.3031,48.88431],[2.3029,48.88407]],"quartier":"Plaine de Monceaux","story":"Etat de l'Amérique Latine.","image":{"provider":"panoramax","id":"b62e3a7b-95ac-4df7-8035-243e30e7884d","lat":48.88431,"lng":2.30254,"sequenceId":"e2d10eeb-55bb-4641-88f5-8e9861be3409"}},{"kind":"street","id":"v:17:10291","name":"place du Docteur Félix Lobligeois","arr":17,"lat":48.88657,"lng":2.31822,"themes":["places"],"shape":[[2.31793,48.88702],[2.31808,48.88693],[2.31826,48.88682],[2.31846,48.8867],[2.31858,48.88661],[2.31859,48.8866],[2.31861,48.88658],[2.31862,48.88655],[2.31862,48.88653],[2.31863,48.8865],[2.31862,48.88647],[2.31862,48.88645],[2.31861,48.88643],[2.31848,48.88634],[2.31847,48.88633],[2.31844,48.88632],[2.31842,48.88632],[2.3184,48.88631],[2.31835,48.88631],[2.31829,48.88631],[2.31825,48.88632],[2.31821,48.88633],[2.31818,48.88634],[2.31815,48.88635],[2.31787,48.88638],[2.31757,48.88656],[2.31737,48.88668],[2.31751,48.88686],[2.31759,48.8868],[2.31799,48.88657],[2.31807,48.88652],[2.31827,48.88669],[2.31821,48.88673],[2.31782,48.88697],[2.31772,48.88702],[2.31793,48.88702]],"quartier":"Batignolles","lengthM":92,"story":"Félix Lobligeois (1874-1942), vice-président du Conseil municipal, radiologue, victime de la science.","image":{"provider":"panoramax","id":"3b79194a-d04b-46c4-bc05-b27bd8303e09","lat":48.88639,"lng":2.31834,"sequenceId":"a1e94e75-e914-403f-8bb4-153019167838"}},{"kind":"street","id":"v:17:10985","name":"place du Général Catroux","arr":17,"lat":48.88244,"lng":2.31046,"themes":["places"],"shape":[[2.30957,48.88351],[2.31042,48.88313],[2.31072,48.88299],[2.31107,48.88284],[2.31137,48.8827],[2.31158,48.88261],[2.31203,48.88242],[2.31176,48.88211],[2.31172,48.88208],[2.31164,48.88199],[2.3116,48.88196],[2.31126,48.8817],[2.31092,48.88186],[2.31082,48.8819],[2.31082,48.88191],[2.31078,48.88193],[2.31077,48.88193],[2.31067,48.88197],[2.31061,48.882],[2.31055,48.88203],[2.31055,48.88203],[2.31051,48.88205],[2.31044,48.88208],[2.31043,48.88209],[2.3104,48.8821],[2.31039,48.8821],[2.31021,48.88219],[2.30971,48.88241],[2.3094,48.88256],[2.3088,48.88282],[2.30899,48.8831],[2.30913,48.88324],[2.30914,48.88325],[2.30914,48.88325],[2.30923,48.88333],[2.30957,48.88351]],"quartier":"Plaine de Monceaux","lengthM":230,"story":"Georges Catroux (Limoges, 1877-Paris, 1969), général et homme politique français ; gouverneur général de l'Indochine en 1940, grand chancelier de la Légion d'honneur (1954-1969).","image":{"provider":"panoramax","id":"720986aa-3318-4fd3-afd5-7d8e4f943f39","lat":48.88224,"lng":2.3108,"sequenceId":"b62e423a-55e8-46af-a24c-d18f1d836c06"}},{"kind":"street","id":"v:17:10922","name":"place du Général Koenig","arr":17,"lat":48.88108,"lng":2.28468,"themes":["places"],"shape":[[2.28505,48.88093],[2.2851,48.88092],[2.28522,48.88096],[2.28494,48.88061],[2.28437,48.88074],[2.28427,48.88072],[2.2836,48.88083],[2.28333,48.88132],[2.28348,48.88143],[2.28398,48.88149],[2.28435,48.88139],[2.28447,48.88136],[2.28481,48.88121],[2.28482,48.88119],[2.28482,48.88119],[2.28482,48.88117],[2.28483,48.88115],[2.28483,48.88114],[2.28483,48.88114],[2.28483,48.88113],[2.28483,48.88112],[2.28483,48.88111],[2.28483,48.8811],[2.28483,48.8811],[2.28483,48.88109],[2.28483,48.88107],[2.28483,48.88107],[2.28483,48.88106],[2.28483,48.88105],[2.28482,48.88104],[2.28482,48.88103],[2.28482,48.88102],[2.28482,48.88101],[2.28481,48.88099],[2.28496,48.88095],[2.28505,48.88093]],"quartier":"Ternes","story":"Marie Pierre Koenig (Caen, 1898-Paris, 1970), général français et homme politique ; célèbre par sa résistance à Bir-Hakeim en 1942 ; ministre de la Défense nationale en 1954-1955 ; maréchal de France à titre posthume.","image":{"provider":"panoramax","id":"d3258333-9939-4ca4-9039-41499e480f1a","lat":48.88126,"lng":2.28472,"sequenceId":"1bef991b-552e-4694-bc97-77bdf74471b7"}},{"kind":"street","id":"v:17:12077","name":"place du Maréchal Juin","arr":17,"lat":48.88498,"lng":2.29736,"themes":["places"],"shape":[[2.29768,48.8844],[2.29733,48.88435],[2.29693,48.88441],[2.29676,48.88447],[2.29645,48.8848],[2.29642,48.88491],[2.2965,48.88518],[2.29661,48.88528],[2.29671,48.88537],[2.29694,48.88547],[2.29705,48.8855],[2.29746,48.88552],[2.29757,48.8855],[2.29788,48.8854],[2.29798,48.88532],[2.29814,48.88514],[2.29817,48.88506],[2.2982,48.88496],[2.29812,48.8847],[2.29791,48.88451],[2.29768,48.8844]],"quartier":"Plaine de Monceaux","story":"Alphonse Juin (Bône, 1888-Paris, 1967), maréchal de France, commandant le corps expéditionnaire français en Italie (1943-1944) ; résident général au Maroc (1947-1951). Membre de l'Académie française (1952).","image":{"provider":"panoramax","id":"ae0fc4e9-5cb3-4296-a858-058fc769749e","lat":48.88531,"lng":2.2971,"sequenceId":"b62e423a-55e8-46af-a24c-d18f1d836c06"}},{"kind":"street","id":"v:17:12467","name":"place du Nicaragua","arr":17,"lat":48.88519,"lng":2.30714,"themes":["places"],"shape":[[2.30752,48.88518],[2.30721,48.88501],[2.30714,48.88502],[2.3067,48.88501],[2.30666,48.8851],[2.30681,48.88527],[2.30684,48.88532],[2.30729,48.88538],[2.30735,48.88537],[2.30754,48.88523],[2.30752,48.88518]],"quartier":"Plaine de Monceaux","story":"Etat de l'Amérique centrale."},{"kind":"street","id":"v:17:15225","name":"place Françoise Dorin","arr":17,"lat":48.88922,"lng":2.3141,"themes":["places"],"shape":[[2.31335,48.88956],[2.31337,48.88957],[2.31438,48.88918],[2.31466,48.88912],[2.31473,48.88908],[2.31471,48.88905],[2.31456,48.88884],[2.31439,48.88894],[2.31379,48.88928],[2.31381,48.88929],[2.31335,48.88956]],"quartier":"Batignolles","story":"Françoise Dorin (Paris, 1928 - Courbevoie (Hauts-de-Seine), 2018), comédienne, écrivaine et auteure de chansons.","image":{"provider":"panoramax","id":"4859ce66-2f8b-4960-8f61-1b32f1bb8488","lat":48.88902,"lng":2.31472,"sequenceId":"ee842571-639c-4352-9e4e-84046d5df414"}},{"kind":"street","id":"v:17:15391","name":"place Jacqueline François","arr":17,"lat":48.88039,"lng":2.29974,"themes":["places"],"shape":[[2.29953,48.88051],[2.29964,48.88056],[2.29968,48.88056],[2.29979,48.88062],[2.30002,48.88031],[2.30003,48.88027],[2.29993,48.88015],[2.29989,48.88014],[2.29957,48.88033],[2.29952,48.88036],[2.29953,48.88051]],"quartier":"Plaine de Monceaux","story":"Jacqueline François, née Jacqueline Jeanne Andrée Guillemautot (Neuilly-sur-Seine, 1922 - Courbevoie, 2009), chanteuse.","image":{"provider":"panoramax","id":"930218cf-84d6-4d70-98dc-83a72c078d71","lat":48.8802,"lng":2.29996,"sequenceId":"b62e423a-55e8-46af-a24c-d18f1d836c06"}},{"kind":"street","id":"v:17:14890","name":"place Louis Bernier","arr":17,"lat":48.89251,"lng":2.30441,"themes":["places"],"shape":[[2.30439,48.89237],[2.30435,48.89234],[2.30425,48.89241],[2.30419,48.89246],[2.30436,48.89256],[2.30437,48.89256],[2.30437,48.89256],[2.30438,48.89257],[2.30439,48.89257],[2.3044,48.89257],[2.30441,48.89257],[2.30442,48.89257],[2.30443,48.89257],[2.30444,48.89257],[2.30445,48.89257],[2.30446,48.89257],[2.30446,48.89256],[2.30447,48.89256],[2.30448,48.89256],[2.30449,48.89255],[2.30459,48.89248],[2.30457,48.89247],[2.30443,48.89239],[2.30439,48.89237]],"quartier":"Batignolles","lengthM":25,"story":"Stanislas Louis Bernier (Valenciennes, 1845-Paris, 1919) architecte, membre de l'Académie des Beaux Arts. Il fut chargé de la reconstruction de l'Opéra Comique de 1893 à 1898."},{"kind":"street","id":"v:17:14946","name":"place Loulou Gasté","arr":17,"lat":48.8869,"lng":2.30077,"themes":["places"],"shape":[[2.3006,48.88676],[2.30059,48.88676],[2.30058,48.88676],[2.30058,48.88677],[2.30057,48.88677],[2.30057,48.88677],[2.30056,48.88677],[2.30056,48.88678],[2.30056,48.88678],[2.30056,48.88679],[2.30056,48.8868],[2.30056,48.8868],[2.30076,48.88707],[2.30076,48.88708],[2.30077,48.88708],[2.30078,48.88708],[2.30078,48.88708],[2.30079,48.88708],[2.3008,48.88708],[2.30081,48.88708],[2.30081,48.88708],[2.30082,48.88708],[2.30101,48.88693],[2.30101,48.88693],[2.30101,48.88692],[2.30102,48.88692],[2.30102,48.88691],[2.30102,48.88691],[2.30101,48.8869],[2.30101,48.8869],[2.30101,48.88689],[2.301,48.88689],[2.30099,48.88688],[2.30062,48.88677],[2.30061,48.88676],[2.3006,48.88676]],"quartier":"Plaine de Monceaux","story":"Louis Gasté dit Loulou Gasté (Paris, 1908-Rueil-Malmaison, 1995), guitariste de jazz. Il composa 1200 chansons dont \"feelings\" et  \"ma cabane au Canada\" (1949), qui rendit son épouse  Line Renaud  célèbre. Officier des Arts et Lettres."},{"kind":"street","id":"v:17:14905","name":"place Madeleine Daniélou","arr":17,"lat":48.88372,"lng":2.28205,"themes":["places"],"shape":[[2.28195,48.88363],[2.28193,48.88363],[2.28193,48.88363],[2.28193,48.88363],[2.28193,48.88363],[2.28193,48.88363],[2.28192,48.88364],[2.28192,48.88364],[2.28191,48.88365],[2.28196,48.88369],[2.282,48.88373],[2.282,48.88373],[2.28202,48.88376],[2.28205,48.88377],[2.28207,48.88378],[2.28211,48.88381],[2.28213,48.88381],[2.28214,48.88381],[2.28215,48.88381],[2.28216,48.88381],[2.28216,48.88381],[2.28216,48.88381],[2.28217,48.8838],[2.28217,48.8838],[2.28217,48.8838],[2.28217,48.88379],[2.28217,48.88379],[2.28217,48.88379],[2.28217,48.88378],[2.28217,48.88378],[2.28202,48.88366],[2.28201,48.88365],[2.28199,48.88364],[2.28198,48.88364],[2.28197,48.88363],[2.28195,48.88363]],"quartier":"Ternes","lengthM":16,"story":"Madeleine Daniélou, née Clamorgan (Mayenne-1880, Neuilly sur Seine-1956) fondatrice d'écoles pour les jeunes filles à la visée pédagogique novatrice."},{"kind":"street","id":"v:17:15213","name":"place Marcelle Henry","arr":17,"lat":48.89031,"lng":2.3114,"themes":["places"],"shape":[[2.31136,48.89019],[2.31129,48.89023],[2.31123,48.89027],[2.31117,48.8903],[2.31159,48.89063],[2.31182,48.89048],[2.31139,48.89017],[2.31136,48.89019]],"quartier":"Batignolles","story":"Marcelle Henry, née Marie Louise Marguerite Marcelle Henry (Angers, 1895 - Paris (19e), 1945), résistante. Nommée à titre posthume sous-directeur honoraire au ministère du Travail et de la Sécurité Sociale.","image":{"provider":"panoramax","id":"1954c39c-434a-4fa5-b387-3beb9d818bbb","lat":48.89062,"lng":2.31159,"sequenceId":"a1e94e75-e914-403f-8bb4-153019167838"}},{"kind":"street","id":"v:17:15724","name":"place Marie Dubas","arr":17,"lat":48.89623,"lng":2.3247,"themes":["places"],"shape":[[2.32472,48.89633],[2.32486,48.89628],[2.32468,48.8961],[2.32453,48.8961],[2.32472,48.89633]],"quartier":"Épinettes","story":"Marie Dubas (Paris, 1894 – Paris, 1972), comédienne et artiste lyrique."},{"kind":"street","id":"v:17:12300","name":"place Monseigneur Loutil","arr":17,"lat":48.88386,"lng":2.30477,"themes":["places"],"shape":[[2.3047,48.88367],[2.30437,48.88372],[2.30436,48.88376],[2.30461,48.88399],[2.30465,48.88403],[2.30495,48.88408],[2.30502,48.88408],[2.30516,48.88392],[2.30517,48.88387],[2.30477,48.88368],[2.3047,48.88367]],"quartier":"Plaine de Monceaux","story":"Monseigneur Loutil, écrivain sous le pseudonyme de Pierre l'Hermite. Proximité de l'église Saint-François de Sales où il exerça son ministère.","image":{"provider":"panoramax","id":"64f7d9a8-b99c-4e05-98df-eaf2ee24501b","lat":48.88383,"lng":2.3049,"sequenceId":"e2d10eeb-55bb-4641-88f5-8e9861be3409"}},{"kind":"street","id":"v:17:12697","name":"place Paul Léautaud","arr":17,"lat":48.88723,"lng":2.29774,"themes":["places"],"shape":[[2.29818,48.88701],[2.29745,48.88676],[2.29737,48.88681],[2.29706,48.88711],[2.29706,48.88715],[2.29705,48.88719],[2.29705,48.8872],[2.29763,48.88746],[2.2977,48.88754],[2.298,48.88754],[2.29803,48.88753],[2.2981,48.88752],[2.29813,48.88751],[2.29838,48.88715],[2.29839,48.88713],[2.29818,48.88701]],"quartier":"Plaine de Monceaux","story":"Paul Léautaud (Paris, 1872-Robinson-sur-Seine, 1956), écrivain français.","image":{"provider":"panoramax","id":"3c79c30f-1761-47de-b411-b6ab5f05acc8","lat":48.88732,"lng":2.29762,"sequenceId":"378080bb-6241-4ff4-80a3-71c24b3f4b94"}},{"kind":"street","id":"v:17:14891","name":"place Paul Tortelier","arr":17,"lat":48.89201,"lng":2.30356,"themes":["places"],"shape":[[2.30386,48.89195],[2.30367,48.89184],[2.30348,48.89199],[2.30347,48.89199],[2.30347,48.892],[2.30347,48.892],[2.30346,48.892],[2.30346,48.89201],[2.30346,48.89201],[2.30346,48.89202],[2.30346,48.89202],[2.30346,48.89203],[2.30346,48.89203],[2.30347,48.89204],[2.30347,48.89204],[2.30347,48.89204],[2.30348,48.89205],[2.30348,48.89205],[2.30361,48.89213],[2.30378,48.89201],[2.30379,48.89199],[2.30384,48.89196],[2.30386,48.89195]],"quartier":"Batignolles","lengthM":27,"story":"Paul Tortelier (Paris, 1914-Villarceaux, 1990) violoncelliste et compositeur. Il fut professeur au Conservatoire de Paris de 1957 à 1969, et de Nice de 1978 à 1980.","image":{"provider":"panoramax","id":"88ed0f2c-dea1-4bae-b5d9-a37000f5c704","lat":48.89191,"lng":2.30372,"sequenceId":"bf252c2c-9aaa-4ef8-afca-2902ff3afcb8"}},