{"arr":11,"streets":[{"kind":"street","id":"v:11:14863","name":"allée du Philosophe","arr":11,"lat":48.85588,"lng":2.38487,"themes":[],"shape":[[2.38445,48.85577],[2.38446,48.85577],[2.38449,48.85578],[2.38451,48.85579],[2.38456,48.85579],[2.3846,48.8558],[2.38462,48.85581],[2.38468,48.85583],[2.3847,48.85584],[2.3848,48.85587],[2.38483,48.85588],[2.38488,48.8559],[2.3849,48.8559],[2.38501,48.85596],[2.38496,48.85603],[2.38498,48.85604],[2.38504,48.85605],[2.38505,48.85604],[2.3852,48.85609],[2.38522,48.85603],[2.38528,48.85598],[2.3853,48.85588],[2.38528,48.85586],[2.3852,48.85584],[2.38516,48.85584],[2.38511,48.85588],[2.38506,48.8559],[2.38506,48.8559],[2.38494,48.85586],[2.38489,48.85585],[2.38486,48.85586],[2.38484,48.85586],[2.38482,48.85585],[2.38454,48.85575],[2.38451,48.85575],[2.38445,48.85577]],"quartier":"Roquette","story":"Voisinage du boulevard Voltaire. Cette dénomination rend hommage à François-Marie Arouet dit Voltaire (Paris, 1694-1778) philosophe français du siècle des Lumières.","image":{"provider":"panoramax","id":"28da7820-4496-4ef6-b4dd-0071d1a1d524","lat":48.85574,"lng":2.38524,"sequenceId":"88cf100a-af66-49eb-aa07-225fff6ff923"}},{"kind":"street","id":"v:11:15439","name":"allée Hanna Kamieniecki","arr":11,"lat":48.86574,"lng":2.38418,"themes":[],"shape":[[2.38361,48.86623],[2.38364,48.86624],[2.38367,48.86624],[2.3837,48.86624],[2.38373,48.86622],[2.38383,48.86613],[2.38407,48.86591],[2.38408,48.8659],[2.38408,48.8659],[2.38449,48.86555],[2.38489,48.86519],[2.3849,48.86518],[2.38491,48.86517],[2.3849,48.86515],[2.38489,48.86513],[2.38487,48.86512],[2.38486,48.86512],[2.38484,48.86512],[2.38481,48.86512],[2.38479,48.86512],[2.38457,48.86532],[2.38415,48.86568],[2.38379,48.866],[2.3837,48.86608],[2.38363,48.86614],[2.38359,48.86618],[2.38359,48.8662],[2.38359,48.86621],[2.3836,48.86622],[2.38361,48.86623]],"quartier":"Père-Lachaise","story":"Hanna Kamieniecki (Grudiadz (Pologne), 1925 - Paris, 2020), résistante et psychologue, participe en 1999 à la création de l'AMEJD (association pour la mémoire des enfants juifs déportés du XIe).","image":{"provider":"panoramax","id":"a91a0e00-3431-4d8d-9721-bff3318e3e00","lat":48.86511,"lng":2.38488,"sequenceId":"05a8a27d-c3e1-4e35-b857-3b5c84ce2b7b"}},{"kind":"street","id":"v:11:15026","name":"allée Maria Doriath","arr":11,"lat":48.85222,"lng":2.39767,"themes":[],"shape":[[2.39832,48.85136],[2.39829,48.85136],[2.39826,48.85136],[2.39824,48.85137],[2.39822,48.85138],[2.39805,48.8516],[2.39806,48.85163],[2.39796,48.85175],[2.39747,48.85239],[2.39706,48.85291],[2.39706,48.85292],[2.39705,48.85294],[2.39706,48.85294],[2.39706,48.85295],[2.39707,48.85296],[2.39708,48.85296],[2.39709,48.85297],[2.39711,48.85297],[2.39712,48.85297],[2.39713,48.85297],[2.39714,48.85297],[2.39716,48.85296],[2.39717,48.85296],[2.39718,48.85295],[2.39719,48.85294],[2.39818,48.85167],[2.39819,48.85166],[2.39837,48.85143],[2.39837,48.85142],[2.39837,48.8514],[2.39836,48.85139],[2.39834,48.85137],[2.39832,48.85136]],"quartier":"Charonne","lengthM":199,"story":"Maria Doriath (1913-2005), femme politique, conseillère générale de la Seine, conseillère municipale. Chevalier dans l'Ordre des Palmes académiques et titulaire de la Croix du Combattant.","image":{"provider":"panoramax","id":"4d41c021-3c2c-4c0f-ba2e-7972ff66f64a","lat":48.85297,"lng":2.3972,"sequenceId":"14b516b0-329e-46f5-9c94-8a4719bcbed7"}},{"kind":"street","id":"v:11:15198","name":"allée Maya Surduts","arr":11,"lat":48.85474,"lng":2.3957,"themes":[],"shape":[[2.39457,48.85607],[2.39472,48.85613],[2.3949,48.85589],[2.3949,48.85589],[2.39508,48.85566],[2.39604,48.85442],[2.39604,48.85442],[2.39604,48.85442],[2.39604,48.85441],[2.39604,48.85441],[2.39604,48.85441],[2.39604,48.8544],[2.39604,48.8544],[2.39604,48.8544],[2.39603,48.85439],[2.39603,48.85439],[2.39602,48.85439],[2.39594,48.85436],[2.39593,48.85436],[2.39593,48.85436],[2.39592,48.85436],[2.39592,48.85436],[2.39591,48.85436],[2.3959,48.85436],[2.3959,48.85437],[2.3959,48.85437],[2.39589,48.85437],[2.39589,48.85437],[2.39493,48.85561],[2.39457,48.85607]],"quartier":"Charonne","story":"Maya Surduts née Merija Surduts (Riga (Lettonie), 1937-Paris, 2016) figure emblématique du mouvement féministe français.","image":{"provider":"panoramax","id":"4b798290-2ce2-42d8-a371-3c45e4f136ca","lat":48.85443,"lng":2.39612,"sequenceId":"ec6c981b-f650-48ca-ba2e-afff4e373610"}},{"kind":"street","id":"v:11:15295","name":"allée Mireille Knoll","arr":11,"lat":48.86463,"lng":2.38544,"themes":[],"shape":[[2.38491,48.86507],[2.38493,48.86508],[2.38496,48.86509],[2.38498,48.86509],[2.385,48.86508],[2.38502,48.86508],[2.38603,48.86419],[2.38604,48.86417],[2.38604,48.86416],[2.38604,48.86415],[2.38601,48.86413],[2.38599,48.86412],[2.38596,48.86412],[2.38593,48.86413],[2.3859,48.86415],[2.38491,48.86502],[2.3849,48.86504],[2.3849,48.86505],[2.38491,48.86507]],"quartier":"Père-Lachaise","story":"Mireille Knoll, née Mireille Ozana Kerbel (Paris, 1932 - Paris, 2018), retraitée, assassinée à son domicile, victime d'acte antisémite.","image":{"provider":"panoramax","id":"b606ccea-437b-4cb3-bd68-b1885fb809c9","lat":48.86409,"lng":2.38606,"sequenceId":"a42106ae-8cff-484b-bb47-38a1a011c7d0"}},{"kind":"street","id":"v:11:15315","name":"allée Neus Català","arr":11,"lat":48.85358,"lng":2.3966,"themes":[],"shape":[[2.39702,48.85302],[2.397,48.85302],[2.39698,48.85302],[2.39697,48.85302],[2.39696,48.85302],[2.39695,48.85303],[2.39695,48.85304],[2.39694,48.85304],[2.3969,48.85309],[2.39643,48.8537],[2.39639,48.85375],[2.39625,48.85393],[2.3962,48.854],[2.396,48.85425],[2.396,48.85428],[2.39601,48.85429],[2.39603,48.8543],[2.39607,48.85431],[2.39608,48.85431],[2.39609,48.85431],[2.3961,48.85431],[2.3961,48.85431],[2.39612,48.85431],[2.39612,48.8543],[2.39614,48.85429],[2.39633,48.85404],[2.39707,48.8531],[2.39707,48.85308],[2.39708,48.85307],[2.39708,48.85306],[2.39707,48.85305],[2.39706,48.85304],[2.39705,48.85303],[2.39704,48.85303],[2.39703,48.85302],[2.39702,48.85302]],"quartier":"Charonne","story":"Neus Català, née Neus Català i Pallejà (Els Guiamets (Catalogne), 1915 - Els Guiamets (Catalogne), 2019), résistante et survivante des camps de concentration nazis.","image":{"provider":"panoramax","id":"200a597d-f29c-4d0e-8074-4864953c708f","lat":48.85424,"lng":2.396,"sequenceId":"5a580b72-5884-4a79-a535-6aa81afa9f27"}},{"kind":"street","id":"v:11:15232","name":"allée Nicole Girard-Mangin","arr":11,"lat":48.86166,"lng":2.38799,"themes":[],"shape":[[2.38741,48.86273],[2.38741,48.86274],[2.38742,48.86275],[2.38743,48.86276],[2.38744,48.86277],[2.38746,48.86277],[2.38747,48.86277],[2.38749,48.86277],[2.3875,48.86276],[2.38751,48.86276],[2.38752,48.86275],[2.38753,48.86275],[2.38833,48.86108],[2.38833,48.86107],[2.38834,48.86107],[2.38834,48.86106],[2.38833,48.86105],[2.38833,48.86105],[2.38833,48.86104],[2.38832,48.86104],[2.38832,48.86103],[2.38831,48.86103],[2.3883,48.86102],[2.38829,48.86102],[2.38828,48.86102],[2.38827,48.86102],[2.38827,48.86102],[2.38826,48.86102],[2.38825,48.86102],[2.38824,48.86103],[2.38824,48.86103],[2.38823,48.86104],[2.38822,48.86104],[2.38822,48.86105],[2.38822,48.86105],[2.38741,48.86273]],"quartier":"Père-Lachaise","story":"Nicole Girard-Mangin, née Charlotte Florence Nicolette Mangin (Paris, 1878 - Paris, 1919), unique femme médecin affectée au front durant la Première guerre mondiale.","image":{"provider":"panoramax","id":"c98cfbdf-557c-4b91-88d2-9c1207fa73fe","lat":48.861,"lng":2.38834,"sequenceId":"05a8a27d-c3e1-4e35-b857-3b5c84ce2b7b"}},{"kind":"street","id":"v:11:14934","name":"allée Pauline Léon","arr":11,"lat":48.86106,"lng":2.37258,"themes":[],"shape":[[2.3725,48.86019],[2.37242,48.86023],[2.37246,48.86035],[2.37249,48.86041],[2.37251,48.86048],[2.37253,48.86054],[2.37255,48.86061],[2.37257,48.86067],[2.37258,48.86073],[2.37259,48.8608],[2.3726,48.86086],[2.37261,48.86092],[2.37262,48.86098],[2.37262,48.86104],[2.37263,48.8611],[2.37263,48.86119],[2.37263,48.86128],[2.37262,48.86136],[2.37261,48.86145],[2.37261,48.86151],[2.37259,48.86158],[2.37257,48.86168],[2.37255,48.86178],[2.37254,48.86183],[2.37252,48.86189],[2.37251,48.86193],[2.37261,48.86195],[2.37268,48.86165],[2.37272,48.86136],[2.37272,48.86106],[2.37269,48.86077],[2.37261,48.86047],[2.3725,48.86019]],"quartier":"Saint-Ambroise","lengthM":197,"story":"Pauline Léon (1768, Paris-1838) militante révolutionnaire et féministe.","image":{"provider":"panoramax","id":"61fd2c0c-6dde-4a7b-93e9-0dfc2b6ac42a","lat":48.86127,"lng":2.37271,"sequenceId":"a0a00ad2-8997-4004-b61f-1f5104d5705c"}},{"kind":"street","id":"v:11:14836","name":"allée Pierre Bérégovoy","arr":11,"lat":48.85801,"lng":2.39076,"themes":[],"shape":[[2.39424,48.85656],[2.39409,48.85661],[2.39353,48.8569],[2.39156,48.85778],[2.38999,48.85825],[2.38999,48.85825],[2.38998,48.85825],[2.38998,48.85825],[2.38997,48.85826],[2.38997,48.85826],[2.38996,48.85826],[2.38996,48.85827],[2.38996,48.85827],[2.38996,48.85827],[2.38996,48.85828],[2.38994,48.85835],[2.38995,48.85835],[2.38995,48.85836],[2.38995,48.85836],[2.38995,48.85836],[2.38995,48.85836],[2.38995,48.85836],[2.38995,48.85837],[2.38995,48.85837],[2.38996,48.85837],[2.38996,48.85837],[2.38996,48.85837],[2.38996,48.85837],[2.38997,48.85837],[2.38997,48.85837],[2.38997,48.85837],[2.38998,48.85837],[2.39234,48.85763],[2.39428,48.85663],[2.39429,48.85659],[2.39424,48.85656]],"quartier":"Père-Lachaise","lengthM":380,"story":"Pierre Bérégovoy (Déville-lès-Rouen, 1925-Nevers, 1993), homme politique.","image":{"provider":"panoramax","id":"7f13ae0a-61ae-452e-8686-eae2c4132990","lat":48.8584,"lng":2.38997,"sequenceId":"05a8a27d-c3e1-4e35-b857-3b5c84ce2b7b"}},{"kind":"street","id":"v:11:15201","name":"allée Stefa Skurnik","arr":11,"lat":48.85914,"lng":2.3892,"themes":[],"shape":[[2.38949,48.85851],[2.38948,48.85851],[2.38945,48.85851],[2.38944,48.85852],[2.38943,48.85853],[2.38942,48.85853],[2.38938,48.85862],[2.38923,48.85893],[2.38899,48.85944],[2.38885,48.85973],[2.38884,48.85974],[2.38884,48.85975],[2.38884,48.85977],[2.38884,48.85977],[2.38886,48.85978],[2.38886,48.85979],[2.38888,48.8598],[2.38889,48.8598],[2.38891,48.8598],[2.38892,48.8598],[2.38894,48.85979],[2.38895,48.85978],[2.38896,48.85977],[2.38896,48.85977],[2.38911,48.85947],[2.38923,48.85922],[2.3895,48.85865],[2.38952,48.85861],[2.38955,48.85856],[2.38955,48.85856],[2.38955,48.85854],[2.38954,48.85853],[2.38953,48.85852],[2.38952,48.85852],[2.3895,48.85851],[2.38949,48.85851]],"quartier":"Père-Lachaise","story":"Stefa Skurnik, née Régine Lembergier (Skierniewice (Pologne), 1917-Paris, 2014) polonaise engagée dans la Résistance française.","image":{"provider":"panoramax","id":"b53854ed-81c6-410a-a9c0-1b2461be1099","lat":48.85984,"lng":2.38888,"sequenceId":"cd9f8296-7a73-46d2-90c2-d2a9be340e3b"}},{"kind":"street","id":"v:11:15231","name":"allée Suzanne Noël","arr":11,"lat":48.86046,"lng":2.38857,"themes":[],"shape":[[2.38828,48.86091],[2.38828,48.86092],[2.38828,48.86093],[2.38828,48.86093],[2.38829,48.86094],[2.38829,48.86095],[2.3883,48.86095],[2.38831,48.86095],[2.38832,48.86096],[2.38833,48.86096],[2.38834,48.86096],[2.38835,48.86096],[2.38836,48.86096],[2.38837,48.86096],[2.38838,48.86095],[2.38839,48.86095],[2.3884,48.86094],[2.38885,48.86],[2.38885,48.86],[2.38885,48.85999],[2.38885,48.85998],[2.38885,48.85998],[2.38884,48.85997],[2.38884,48.85996],[2.38883,48.85996],[2.38882,48.85996],[2.38881,48.85995],[2.3888,48.85995],[2.38879,48.85995],[2.38878,48.85995],[2.38877,48.85995],[2.38876,48.85996],[2.38875,48.85996],[2.38874,48.85997],[2.38874,48.85997],[2.38828,48.86091]],"quartier":"Père-Lachaise","story":"Suzanne Noël, née Suzanne Blanche Marguerite Gros (Laon (Aisne), 1878 - Paris, 1954), pionnière de la chirurgie esthétique et féministe. Décorée de la Légion d'honneur.","image":{"provider":"panoramax","id":"d5cfea95-0ee6-4178-b9a8-3d876d16a8b8","lat":48.86002,"lng":2.38889,"sequenceId":"05a8a27d-c3e1-4e35-b857-3b5c84ce2b7b"}},{"kind":"street","id":"v:11:14017","name":"allée Verte","arr":11,"lat":48.85932,"lng":2.3701,"themes":[],"shape":[[2.37007,48.85932],[2.37023,48.85938],[2.37031,48.8594],[2.37045,48.85944],[2.37057,48.85947],[2.37068,48.8595],[2.37069,48.85951],[2.37076,48.85953],[2.37077,48.85952],[2.37115,48.85961],[2.37151,48.85974],[2.37159,48.85968],[2.37112,48.85956],[2.37101,48.85954],[2.37094,48.85951],[2.37061,48.85944],[2.37055,48.85941],[2.37007,48.85932],[2.36997,48.85932],[2.37007,48.85932],[2.37001,48.85925],[2.36981,48.8592],[2.36963,48.85915],[2.36945,48.85911],[2.36945,48.85911],[2.36918,48.85904],[2.3691,48.85902],[2.36909,48.85904],[2.36904,48.85903],[2.3689,48.85899],[2.36889,48.85904],[2.3691,48.85909],[2.3692,48.85912],[2.36963,48.85923],[2.36992,48.85931],[2.36997,48.85932]],"quartier":"Saint-Ambroise","lengthM":216,"story":"Voisinage de la rue du chemin Vert, autrefois rue Verte.","image":{"provider":"panoramax","id":"2e0a82bd-1209-4cbb-8d28-d119c984e84b","lat":48.85915,"lng":2.37019,"sequenceId":"0c086e9f-9640-467a-a774-453bd68e2fbe"}},{"kind":"street","id":"v:11:15197","name":"allée Zabel Essayan","arr":11,"lat":48.86356,"lng":2.38667,"themes":[],"shape":[[2.38716,48.8631],[2.38715,48.8631],[2.38713,48.8631],[2.38711,48.8631],[2.3871,48.8631],[2.38709,48.86311],[2.38673,48.86342],[2.38649,48.86364],[2.38607,48.86401],[2.38606,48.86402],[2.38605,48.86403],[2.38605,48.86404],[2.38606,48.86405],[2.38607,48.86406],[2.38608,48.86407],[2.38609,48.86407],[2.3861,48.86408],[2.38611,48.86408],[2.38614,48.86408],[2.38615,48.86408],[2.38616,48.86407],[2.38617,48.86407],[2.38618,48.86406],[2.3866,48.8637],[2.38684,48.86348],[2.3872,48.86317],[2.3872,48.86317],[2.38721,48.86316],[2.38721,48.86314],[2.38721,48.86314],[2.38721,48.86313],[2.3872,48.86312],[2.3872,48.86311],[2.38718,48.8631],[2.38717,48.8631],[2.38716,48.8631]],"quartier":"Père-Lachaise","story":"Zabel Essayan, née Hovhanessian (Constantinople (Turquie), 1878-1943) femme de lettres arménienne et militante des droits humains.","image":{"provider":"panoramax","id":"68921ed6-43b5-433b-9167-6fdbfd8a723b","lat":48.86412,"lng":2.38614,"sequenceId":"a42106ae-8cff-484b-bb47-38a1a011c7d0"}},{"kind":"street","id":"v:11:9462","name":"avenue de Bouvines","arr":11,"lat":48.85027,"lng":2.3963,"themes":[],"shape":[[2.39595,48.84976],[2.39596,48.84986],[2.39597,48.84991],[2.396,48.85006],[2.39602,48.85014],[2.39603,48.85018],[2.39604,48.85026],[2.39611,48.85057],[2.39614,48.85071],[2.39616,48.85082],[2.39613,48.85084],[2.39676,48.85094],[2.39669,48.85089],[2.39666,48.85073],[2.39664,48.85064],[2.39662,48.85058],[2.39661,48.85053],[2.3966,48.85047],[2.39659,48.85039],[2.39658,48.85033],[2.39657,48.85029],[2.39655,48.85022],[2.39645,48.84966],[2.39641,48.84948],[2.3959,48.84953],[2.39593,48.84969],[2.39595,48.84976]],"quartier":"Sainte-Marguerite","lengthM":155,"story":"Victoire remportée par Philippe-Auguste, en 1214. Voisinage des colonnes monumentales que surmontent les statues de Saint-Louis et de Philippe-Auguste.","image":{"provider":"panoramax","id":"02bd5f2f-99a5-46a3-a231-440d819ea435","lat":48.85095,"lng":2.39661,"sequenceId":"58cd3024-5d76-4481-b468-2c9bb4d67459"}},{"kind":"street","id":"v:11:13203","name":"avenue de la République","arr":11,"lat":48.86563,"lng":2.37283,"themes":[],"shape":[[2.37802,48.86462],[2.38406,48.8636],[2.38622,48.86291],[2.37802,48.86462],[2.36716,48.86661],[2.36865,48.86653],[2.36997,48.866],[2.36716,48.86661],[2.37517,48.86517],[2.37775,48.8648],[2.37707,48.86465],[2.37517,48.86517],[2.37246,48.86566],[2.37414,48.86548],[2.37389,48.86525],[2.37246,48.86566],[2.37089,48.86602],[2.37226,48.86588],[2.37195,48.86562],[2.37089,48.86602],[2.36669,48.867],[2.36577,48.86707],[2.36668,48.86691],[2.36669,48.867],[2.37018,48.86611],[2.37073,48.86613],[2.371,48.86608],[2.37018,48.86611],[2.37462,48.86525],[2.37501,48.86532],[2.37517,48.86517],[2.37462,48.86525]],"quartier":"Folie-Méricourt","lengthM":1600,"story":"Aboutit à la place de la République.","image":{"provider":"panoramax","id":"cc265304-9b51-47fc-9130-c2a2794e9354","lat":48.86604,"lng":2.37093,"sequenceId":"e5fcc4ac-4dd2-4eca-a526-835952a96808"}},{"kind":"street","id":"v:11:13737","name":"avenue de Taillebourg","arr":11,"lat":48.84973,"lng":2.39781,"themes":[],"shape":[[2.39844,48.85044],[2.3986,48.84994],[2.3985,48.84996],[2.39829,48.84981],[2.3982,48.84974],[2.39815,48.8497],[2.3981,48.84966],[2.39802,48.8496],[2.39799,48.84958],[2.39794,48.84954],[2.3979,48.84951],[2.39764,48.84931],[2.39745,48.84916],[2.39731,48.84906],[2.39694,48.84931],[2.39708,48.84942],[2.39716,48.84948],[2.39731,48.84959],[2.39737,48.84963],[2.39741,48.84966],[2.39751,48.84974],[2.39758,48.84979],[2.39761,48.84981],[2.39765,48.84984],[2.39769,48.84987],[2.39773,48.84991],[2.39815,48.85022],[2.39836,48.85038],[2.39844,48.85044]],"quartier":"Sainte-Marguerite","lengthM":155,"story":"Victoire remportée par Saint-Louis, en 1242 ; voisinage de la place de la Nation, où se trouve une statue de Saint-Louis.","image":{"provider":"panoramax","id":"fd6c8897-5119-4bb6-b551-d044c6564ae2","lat":48.84922,"lng":2.39688,"sequenceId":"dace0857-33f4-4c86-b442-98321f0cc50f"}},{"kind":"street","id":"v:11:13894","name":"avenue du Trône","arr":11,"lat":48.84813,"lng":2.39831,"themes":[],"shape":[[2.39912,48.8481],[2.39896,48.8477],[2.39876,48.84772],[2.39852,48.84774],[2.3983,48.84776],[2.39821,48.8478],[2.39811,48.84781],[2.39803,48.84781],[2.39802,48.84781],[2.39798,48.84782],[2.39775,48.84784],[2.39771,48.84784],[2.39769,48.84784],[2.39745,48.84786],[2.39761,48.84862],[2.39774,48.84861],[2.39795,48.84859],[2.39815,48.84857],[2.39836,48.84855],[2.39866,48.84855],[2.39868,48.84855],[2.39892,48.84853],[2.39894,48.84852],[2.39906,48.84851],[2.39912,48.8481]],"quartier":"Picpus","lengthM":56,"story":"Cette voie faisait partie de l'ancienne place du Trône (nommée, pendant la Révolution, place du Trône Renversé), devenue place de la Nation, qui devait son nom primitif au trône élevé en 1660, à l'occasion de l'entrée de Louis XIV et de Marie-Thérèse, après leur mariage.","image":{"provider":"panoramax","id":"1d35db3e-0639-46c1-bd32-463efcb3284e","lat":48.84795,"lng":2.39769,"sequenceId":"4679a020-014b-479a-81cb-6b01a47b4416"}},{"kind":"street","id":"v:11:11426","name":"avenue Jean Aicard","arr":11,"lat":48.86541,"lng":2.38117,"themes":[],"shape":[[2.38091,48.86596],[2.38095,48.86591],[2.38101,48.86583],[2.38103,48.8658],[2.38111,48.86569],[2.38115,48.86565],[2.38132,48.86542],[2.38133,48.86541],[2.38135,48.86542],[2.3815,48.86522],[2.38153,48.86518],[2.38163,48.86502],[2.38165,48.86502],[2.38175,48.8649],[2.38173,48.86489],[2.38178,48.86482],[2.38166,48.86466],[2.38183,48.86444],[2.38166,48.86435],[2.38168,48.8644],[2.38152,48.86461],[2.38145,48.86469],[2.38139,48.86478],[2.38116,48.86507],[2.38107,48.86519],[2.38064,48.86576],[2.3806,48.86581],[2.38052,48.86591],[2.38052,48.86591],[2.38041,48.86605],[2.38024,48.86628],[2.38061,48.86636],[2.3807,48.86624],[2.38076,48.86616],[2.38088,48.866],[2.38091,48.86596]],"quartier":"Saint-Ambroise","lengthM":240,"story":"Jean Aicard (1848-1921), poète et auteur dramatique français ; membre de l'Académie française.","image":{"provider":"panoramax","id":"0fbdd008-8382-4d7c-96d9-b587643cfcd6","lat":48.86431,"lng":2.38163,"sequenceId":"acdf01d9-d13b-4d81-976c-0fa8c484d265"}},{"kind":"street","id":"v:11:11753","name":"avenue Ledru-Rollin","arr":11,"lat":48.85109,"lng":2.37471,"themes":[],"shape":[[2.36942,48.84682],[2.37095,48.8479],[2.37091,48.84752],[2.36942,48.84682],[2.3743,48.84962],[2.37574,48.85111],[2.3753,48.85036],[2.3743,48.84962],[2.37258,48.84865],[2.37338,48.84928],[2.37389,48.84921],[2.37258,48.84865],[2.36926,48.84685],[2.36817,48.84597],[2.36839,48.84645],[2.36926,48.84685],[2.37872,48.85572],[2.37947,48.85721],[2.37938,48.85726],[2.37872,48.85572],[2.37728,48.85328],[2.37741,48.85378],[2.37803,48.85456],[2.37728,48.85328],[2.3761,48.8513],[2.37659,48.85235],[2.37678,48.85214],[2.3761,48.8513],[2.37143,48.84799],[2.37219,48.8486],[2.37243,48.84838],[2.37143,48.84799],[2.37803,48.85456],[2.37844,48.85555],[2.37854,48.85518],[2.37803,48.85456],[2.37685,48.85252],[2.37704,48.85313],[2.37737,48.85314],[2.37685,48.85252]],"quartier":"Quinze-Vingts","lengthM":1540,"story":"Alexandre Auguste Ledru, dit Ledru-Rollin (1807-1874), avocat français, député, membre du Gouvernement provisoire de 1848.","image":{"provider":"panoramax","id":"986f8da0-4513-4257-b31b-05978708daed","lat":48.8533,"lng":2.37727,"sequenceId":"476a707c-5e98-4843-bebe-60bba6bf309f"}},{"kind":"street","id":"v:11:12812","name":"avenue Philippe-Auguste","arr":11,"lat":48.85349,"lng":2.39274,"themes":[],"shape":[[2.3927,48.85356],[2.39325,48.85302],[2.39405,48.85174],[2.39471,48.85076],[2.39411,48.85093],[2.39377,48.85148],[2.39334,48.85217],[2.39283,48.853],[2.3927,48.85356],[2.39133,48.85576],[2.39089,48.85612],[2.38992,48.85768],[2.39017,48.8581],[2.39038,48.85766],[2.39083,48.85693],[2.39103,48.8566],[2.39139,48.85602],[2.39133,48.85576],[2.39133,48.85576],[2.39176,48.85543],[2.39217,48.85477],[2.39272,48.85388],[2.39243,48.85356],[2.39219,48.85403],[2.39171,48.8548],[2.39135,48.85538],[2.39133,48.85576],[2.39428,48.85058],[2.39475,48.85061],[2.39499,48.85023],[2.39517,48.84994],[2.39537,48.84962],[2.39497,48.84955],[2.39466,48.85006],[2.39446,48.85037],[2.39428,48.85058]],"quartier":"Roquette","lengthM":1040,"story":"Philippe-Auguste, roi de France (1180-1223), dont la statue est érigée sur l'une des colonnes de la place de la Nation ; voisinage de cette place.","image":{"provider":"panoramax","id":"f90f27f8-4629-4593-8292-8d770553c6e7","lat":48.8558,"lng":2.39131,"sequenceId":"05a8a27d-c3e1-4e35-b857-3b5c84ce2b7b"}},{"kind":"street","id":"v:11:9260","name":"boulevard de Belleville","arr":11,"lat":48.8695,"lng":2.38009,"themes":[],"shape":[[2.37784,48.87156],[2.37821,48.87121],[2.3787,48.87082],[2.37905,48.87054],[2.37923,48.8704],[2.37963,48.87009],[2.37981,48.86995],[2.38004,48.86977],[2.38009,48.86973],[2.38031,48.8696],[2.38069,48.8694],[2.38085,48.86925],[2.38131,48.86897],[2.38244,48.86813],[2.38288,48.86762],[2.38334,48.86728],[2.38314,48.86708],[2.3825,48.86705],[2.38253,48.86713],[2.3826,48.8672],[2.38227,48.86749],[2.38165,48.86795],[2.38141,48.86813],[2.38074,48.86863],[2.38048,48.86882],[2.38009,48.86913],[2.37947,48.86962],[2.37921,48.86983],[2.3789,48.87007],[2.37831,48.87053],[2.37786,48.8709],[2.37755,48.87118],[2.37725,48.87146],[2.37733,48.87206],[2.37753,48.87187],[2.37784,48.87156]],"quartier":"Belleville","lengthM":680,"story":"Longe l'ancienne commune de Belleville.","image":{"provider":"panoramax","id":"f343f728-f192-4fa2-b74b-21e2fa7294e3","lat":48.86727,"lng":2.38263,"sequenceId":"04617823-5811-4837-b047-1bcb2f2b58d8"}},{"kind":"street","id":"v:11:9801","name":"boulevard de Charonne","arr":11,"lat":48.85379,"lng":2.39594,"themes":[],"shape":[[2.39581,48.85423],[2.39677,48.85387],[2.39704,48.85355],[2.3974,48.85306],[2.39776,48.8526],[2.39819,48.85204],[2.39881,48.85106],[2.39919,48.84994],[2.39946,48.84913],[2.39906,48.84851],[2.39911,48.84878],[2.39862,48.8489],[2.39852,48.84868],[2.39845,48.84897],[2.39877,48.84945],[2.39823,48.85103],[2.397,48.85277],[2.39581,48.85423],[2.39608,48.85436],[2.39546,48.85475],[2.39534,48.85491],[2.39447,48.85602],[2.39298,48.85708],[2.39194,48.85758],[2.39094,48.85787],[2.3903,48.85848],[2.39157,48.85811],[2.39242,48.85786],[2.3927,48.85772],[2.39348,48.85731],[2.39409,48.857],[2.3949,48.85644],[2.39536,48.85572],[2.39574,48.8552],[2.39596,48.85492],[2.39608,48.85436]],"quartier":"Charonne","lengthM":1344,"story":"Longe l'ancienne commune de Charonne.","image":{"provider":"panoramax","id":"4b798290-2ce2-42d8-a371-3c45e4f136ca","lat":48.85443,"lng":2.39612,"sequenceId":"ec6c981b-f650-48ca-ba2e-afff4e373610"}},{"kind":"street","id":"v:11:12208","name":"boulevard de Ménilmontant","arr":11,"lat":48.8633,"lng":2.38641,"themes":[],"shape":[[2.38356,48.86708],[2.38377,48.86666],[2.38405,48.86626],[2.38443,48.86591],[2.38475,48.86563],[2.38495,48.86546],[2.38537,48.86509],[2.38575,48.86478],[2.38639,48.8642],[2.38692,48.86374],[2.38719,48.8635],[2.38765,48.86317],[2.38911,48.8601],[2.38916,48.86009],[2.38929,48.86004],[2.38934,48.85996],[2.38934,48.85988],[2.38925,48.85983],[2.38952,48.8592],[2.39014,48.85853],[2.38917,48.85868],[2.38885,48.85938],[2.38861,48.85987],[2.38817,48.8608],[2.38764,48.8619],[2.38728,48.86264],[2.38643,48.86354],[2.38568,48.86419],[2.38553,48.86431],[2.38459,48.86514],[2.3839,48.86574],[2.38318,48.86638],[2.38294,48.86666],[2.3828,48.86675],[2.38266,48.86679],[2.38356,48.86708]],"quartier":"Père-Lachaise","lengthM":1080,"story":"Longe l'ancien village de Ménilmontant.","image":{"provider":"panoramax","id":"0322ed1b-ecdd-48b1-9c2b-6db851bef032","lat":48.85926,"lng":2.38945,"sequenceId":"ec6c981b-f650-48ca-ba2e-afff4e373610"}},{"kind":"street","id":"v:11:11574","name":"boulevard Jules Ferry","arr":11,"lat":48.8671,"lng":2.36879,"themes":[],"shape":[[2.36789,48.86862],[2.36807,48.86839],[2.36832,48.86807],[2.36854,48.86778],[2.36879,48.86746],[2.36901,48.86718],[2.3692,48.86694],[2.3694,48.86668],[2.3694,48.86668],[2.36942,48.86665],[2.36943,48.86664],[2.36945,48.86661],[2.36946,48.86661],[2.36948,48.86657],[2.36949,48.86657],[2.3695,48.86654],[2.36952,48.86653],[2.36954,48.8665],[2.36955,48.86649],[2.36958,48.86645],[2.3696,48.86642],[2.36966,48.86634],[2.36905,48.86672],[2.36879,48.86667],[2.36895,48.86647],[2.36843,48.86657],[2.36849,48.86659],[2.36834,48.86686],[2.36817,48.86708],[2.36802,48.86727],[2.36794,48.86738],[2.3677,48.86768],[2.36744,48.86802],[2.36731,48.86819],[2.36762,48.86859],[2.36789,48.86862]],"quartier":"Folie-Méricourt","lengthM":245,"story":"Jules, François, Camille Ferry (1832-1893), avocat et homme politique français. Il fit adopter les principales mesures de réforme de l'enseignement public (laïcité, gratuité, caractère obligatoire de l'enseignement primaire) et contribua à établir les grandes libertés publiques (…","image":{"provider":"panoramax","id":"19e9ef2d-7ccc-4997-8c37-10eaa9c0b9b7","lat":48.86644,"lng":2.36941,"sequenceId":"4289433e-dea2-4b83-8010-ef483de913b6"}},{"kind":"street","id":"v:11:13226","name":"boulevard Richard Lenoir","arr":11,"lat":48.86199,"lng":2.37072,"themes":[],"shape":[[2.37125,48.8579],[2.37214,48.8613],[2.37281,48.86036],[2.37125,48.8579],[2.37092,48.86411],[2.37203,48.86329],[2.37264,48.86244],[2.37092,48.86411],[2.37008,48.85549],[2.37008,48.85528],[2.36968,48.85531],[2.37008,48.85549],[2.37069,48.85661],[2.37074,48.85764],[2.37148,48.8574],[2.37069,48.85661],[2.37201,48.86261],[2.37186,48.86227],[2.3716,48.86266],[2.37201,48.86261],[2.36967,48.86568],[2.36911,48.86587],[2.36888,48.86616],[2.36967,48.86568],[2.3705,48.86525],[2.37074,48.86494],[2.36993,48.8657],[2.3705,48.86525],[2.36936,48.86554],[2.36956,48.86562],[2.37014,48.86484],[2.36936,48.86554],[2.37075,48.86407],[2.37037,48.86424],[2.37025,48.86469],[2.37075,48.86407],[2.37112,48.86446],[2.37106,48.86423],[2.3706,48.86482],[2.37112,48.86446],[2.37057,48.85669],[2.37069,48.85661],[2.3708,48.85647],[2.37057,48.85669],[2.37092,48.86411],[2.37084,48.86409],[2.37098,48.86415],[2.37092,48.86411]],"quartier":"Folie-Méricourt","lengthM":1500,"story":"François Richard (1765-1839), manufacturier d'étoffes. A la mort de son associé, Joseph Lenoir-Dufresne (1768-1806), il adopta partiellement son nom en souvenir de la firme qu'ils avaient menée en commun et s'appela désormais, François Richard-Lenoir ; quartier de fabriques.","image":{"provider":"panoramax","id":"bb783367-4a36-4590-9b57-78227afb481f","lat":48.86525,"lng":2.37043,"sequenceId":"fd6a8507-4dae-4900-85ab-001b99375b5d"}},{"kind":"street","id":"v:11:14115","name":"boulevard Voltaire","arr":11,"lat":48.86051,"lng":2.37561,"themes":[],"shape":[[2.39255,48.85044],[2.38646,48.85384],[2.3892,48.85257],[2.39255,48.85044],[2.37201,48.86261],[2.37557,48.86113],[2.37582,48.86099],[2.37201,48.86261],[2.38435,48.85546],[2.38321,48.85578],[2.38121,48.85733],[2.38435,48.85546],[2.39222,48.85034],[2.3939,48.84983],[2.39407,48.84924],[2.39222,48.85034],[2.37685,48.85975],[2.37825,48.8591],[2.37769,48.85907],[2.37685,48.85975],[2.36707,48.86557],[2.36567,48.86623],[2.36611,48.86633],[2.36707,48.86557],[2.37011,48.86376],[2.37154,48.86273],[2.37078,48.86318],[2.37011,48.86376],[2.36898,48.8644],[2.3702,48.86389],[2.36974,48.8638],[2.36898,48.8644],[2.37846,48.85859],[2.37896,48.85868],[2.37938,48.85842],[2.37846,48.85859],[2.36707,48.86557],[2.36787,48.86528],[2.36773,48.86517],[2.36707,48.86557],[2.36833,48.86483],[2.36871,48.86478],[2.36919,48.86452],[2.36833,48.86483],[2.36773,48.86517],[2.3684,48.8646],[2.36794,48.86488],[2.36773,48.86517]],"quartier":"Folie-Méricourt","lengthM":2850,"story":"François Marie Arouet, dit Voltaire (1694-1778), écrivain français.","image":{"provider":"panoramax","id":"5c0a0fdf-7664-40b1-9cfe-b73ac9b868cc","lat":48.86383,"lng":2.37013,"sequenceId":"79141595-c966-497c-b582-5d55c2cc3256"}},{"kind":"street","id":"v:11:9225","name":"cité Beauharnais","arr":11,"lat":48.85362,"lng":2.38921,"themes":[],"shape":[[2.38905,48.85348],[2.38885,48.85344],[2.38885,48.85344],[2.38853,48.85338],[2.38845,48.85336],[2.38837,48.85335],[2.38827,48.85347],[2.38828,48.85346],[2.3883,48.85345],[2.38832,48.85345],[2.38835,48.85346],[2.38837,48.85346],[2.38867,48.85352],[2.38873,48.85353],[2.38888,48.85356],[2.38904,48.85359],[2.38914,48.85361],[2.38929,48.85364],[2.38935,48.85366],[2.38956,48.8537],[2.38956,48.8537],[2.38964,48.85371],[2.38995,48.85377],[2.39011,48.85381],[2.39012,48.85384],[2.39009,48.85392],[2.39003,48.85411],[2.38999,48.85412],[2.39019,48.85414],[2.39033,48.85374],[2.39015,48.85371],[2.38977,48.85363],[2.38961,48.8536],[2.38916,48.85351],[2.38913,48.8535],[2.38905,48.85348]],"quartier":"Sainte-Marguerite","lengthM":210,"story":"Voisinage de l'ancien boulevard du Prince Eugène, actuellement boulevard Voltaire. Eugène de Beauharnais dit le Prince Eugène (Paris, 1781-Munich, 1824). Fils de Joséphine de Beauharnais et beau-fils de Napoléon Bonaparte qui le fit prince d'Empire et vice-roi d'Italie."},{"kind":"street","id":"v:11:9318","name":"cité Bertrand","arr":11,"lat":48.86426,"lng":2.38218,"themes":[],"shape":[[2.38235,48.86431],[2.38234,48.8643],[2.38234,48.86429],[2.38235,48.86427],[2.38235,48.86426],[2.38236,48.86425],[2.38237,48.86424],[2.38228,48.86426],[2.38177,48.86409],[2.38167,48.86405],[2.38154,48.86408],[2.38164,48.86411],[2.38188,48.86419],[2.38192,48.86421],[2.38218,48.86429],[2.38223,48.86431],[2.38223,48.8643],[2.38225,48.86431],[2.38239,48.86435],[2.38239,48.86435],[2.38237,48.86434],[2.38236,48.86433],[2.38235,48.86432],[2.38235,48.86431]],"quartier":"Saint-Ambroise","lengthM":72,"story":"M. Bertrand, propriétaire des terrains sur lesquels cette voie a été ouverte.","image":{"provider":"panoramax","id":"78d486a6-9485-41ee-95d3-7dda73b2fc3c","lat":48.86395,"lng":2.38185,"sequenceId":"e5fcc4ac-4dd2-4eca-a526-835952a96808"}},{"kind":"street","id":"v:11:8984","name":"cité d'Angoulême","arr":11,"lat":48.86651,"lng":2.37477,"themes":[],"shape":[[2.37484,48.86628],[2.37484,48.86628],[2.37474,48.86645],[2.37465,48.86662],[2.37452,48.86688],[2.37461,48.8669],[2.37468,48.86676],[2.37477,48.8666],[2.37485,48.86645],[2.37493,48.8663],[2.37492,48.8663],[2.37484,48.86628]],"quartier":"Folie-Méricourt","lengthM":73,"story":"Voisinage de l'ancienne rue d'Angoulême.","image":{"provider":"panoramax","id":"9baa8846-ae82-4030-849f-e947ceeda4c2","lat":48.86714,"lng":2.37415,"sequenceId":"81e4dcd9-8745-4c56-b9cf-e2cddb14a7c2"}},{"kind":"street","id":"v:11:10107","name":"cité de Crussol","arr":11,"lat":48.86362,"lng":2.36805,"themes":[],"shape":[[2.36808,48.86301],[2.36801,48.86318],[2.3678,48.86362],[2.36786,48.86366],[2.36781,48.86377],[2.36778,48.86388],[2.36775,48.86392],[2.36776,48.86392],[2.36776,48.86393],[2.36778,48.86394],[2.36772,48.86403],[2.36773,48.86403],[2.36773,48.86404],[2.36775,48.86404],[2.36775,48.86404],[2.3678,48.86394],[2.3678,48.86394],[2.36783,48.86389],[2.36786,48.86378],[2.36788,48.86377],[2.36803,48.86339],[2.36809,48.86339],[2.36806,48.86352],[2.36822,48.86353],[2.3683,48.86346],[2.36805,48.86333],[2.36851,48.86339],[2.36856,48.86338],[2.36857,48.86338],[2.36858,48.86338],[2.36864,48.86341],[2.36866,48.86345],[2.36868,48.86338],[2.36852,48.86331],[2.36808,48.86314],[2.36808,48.86301]],"quartier":"Folie-Méricourt","lengthM":156,"story":"Voisinage de la rue de Crussol."},{"kind":"street","id":"v:11:8936","name":"cité de l'Ameublement","arr":11,"lat":48.85114,"lng":2.38567,"themes":[],"shape":[[2.38579,48.85164],[2.3858,48.85156],[2.38577,48.85156],[2.38571,48.85156],[2.38571,48.85142],[2.38571,48.85136],[2.38571,48.85132],[2.38571,48.85126],[2.3857,48.85108],[2.3857,48.85108],[2.3857,48.85087],[2.38569,48.85087],[2.38569,48.85071],[2.38569,48.85071],[2.38569,48.85059],[2.38569,48.85051],[2.38559,48.85051],[2.3856,48.85061],[2.3856,48.85069],[2.3856,48.85077],[2.3856,48.85085],[2.38561,48.85106],[2.38561,48.85118],[2.38561,48.85122],[2.38561,48.85138],[2.38561,48.8514],[2.38562,48.8515],[2.38562,48.85158],[2.38562,48.85164],[2.38579,48.85164]],"quartier":"Sainte-Marguerite","lengthM":126,"story":"Voie bordée de fabriques de meubles.","image":{"provider":"panoramax","id":"7648e86e-f06a-4706-a0d5-f57be77b6f13","lat":48.85043,"lng":2.38568,"sequenceId":"58cd3024-5d76-4481-b468-2c9bb4d67459"}},{"kind":"street","id":"v:11:9136","name":"cité de l'Avenir","arr":11,"lat":48.86585,"lng":2.38335,"themes":[],"shape":[[2.38315,48.86601],[2.38326,48.86586],[2.38342,48.86583],[2.38349,48.86585],[2.38354,48.86578],[2.38361,48.8658],[2.38366,48.86582],[2.38377,48.86586],[2.3838,48.86583],[2.38373,48.86581],[2.38372,48.8658],[2.38359,48.86576],[2.38357,48.86575],[2.38349,48.86573],[2.3835,48.86572],[2.38341,48.86569],[2.3834,48.86569],[2.38333,48.86578],[2.38327,48.86579],[2.38323,48.86578],[2.38321,48.86579],[2.38317,48.86584],[2.38314,48.86588],[2.38309,48.86595],[2.38305,48.86601],[2.3828,48.86593],[2.38277,48.86597],[2.38294,48.86602],[2.38311,48.86607],[2.38315,48.86601]],"quartier":"Saint-Ambroise","lengthM":96,"image":{"provider":"panoramax","id":"eb967906-f4d3-40d5-a542-4636ea9edbb4","lat":48.86604,"lng":2.38367,"sequenceId":"3fa09f95-5b3a-4670-9113-543d5ce642ec"}},{"kind":"street","id":"v:11:11341","name":"cité de l'Industrie","arr":11,"lat":48.86539,"lng":2.37808,"themes":[],"shape":[[2.37806,48.86507],[2.37787,48.86501],[2.37784,48.86505],[2.37793,48.86508],[2.37797,48.8651],[2.37804,48.86514],[2.3782,48.86518],[2.37828,48.86521],[2.37809,48.86559],[2.37809,48.86559],[2.37808,48.86561],[2.37808,48.86563],[2.37808,48.86564],[2.37807,48.86565],[2.37807,48.86565],[2.37802,48.86575],[2.37807,48.86576],[2.37812,48.86566],[2.37813,48.86564],[2.37817,48.86561],[2.37839,48.86519],[2.37818,48.86511],[2.37806,48.86507]],"quartier":"Saint-Ambroise","lengthM":105,"story":"Voie située dans un quartier industriel.","image":{"provider":"panoramax","id":"114d7edb-f093-4308-8199-2fdb3eb27ffd","lat":48.86581,"lng":2.37771,"sequenceId":"fa43b0b7-b066-40fb-8d01-6a55e13bd38c"}},{"kind":"street","id":"v:11:13309","name":"cité de la Roquette","arr":11,"lat":48.85499,"lng":2.37403,"themes":[],"shape":[[2.37426,48.85485],[2.37415,48.8548],[2.37409,48.85486],[2.37391,48.85501],[2.37377,48.85514],[2.37373,48.85514],[2.37388,48.85522],[2.37387,48.85519],[2.37402,48.85507],[2.3742,48.85491],[2.37423,48.85488],[2.37426,48.85485]],"quartier":"Roquette","lengthM":50,"story":"Voisinage de la rue de la Roquette.","image":{"provider":"panoramax","id":"9336c09f-1c5e-4b23-b621-af16f0865568","lat":48.8552,"lng":2.37387,"sequenceId":"476a707c-5e98-4843-bebe-60bba6bf309f"}},{"kind":"street","id":"v:11:12806","name":"cité de Phalsbourg","arr":11,"lat":48.85564,"lng":2.38513,"themes":[],"shape":[[2.38471,48.85546],[2.38451,48.8554],[2.3845,48.85537],[2.38435,48.85546],[2.38435,48.85546],[2.38436,48.85546],[2.38436,48.85546],[2.38437,48.85546],[2.38438,48.85546],[2.38439,48.85546],[2.38465,48.85554],[2.38486,48.85561],[2.38512,48.85569],[2.38527,48.85573],[2.3853,48.85575],[2.38539,48.85577],[2.38539,48.85577],[2.38582,48.85591],[2.38586,48.85592],[2.3861,48.85599],[2.38617,48.85591],[2.38592,48.85584],[2.38589,48.85583],[2.38574,48.85578],[2.38566,48.85576],[2.38561,48.85574],[2.38545,48.85569],[2.38545,48.85569],[2.38527,48.85564],[2.38517,48.8556],[2.38496,48.85554],[2.38471,48.85546]],"quartier":"Roquette","lengthM":145,"story":"Phalsbourg: chef-lieu de canton de la Moselle annexé à la France en 1661 et place forte de l'Est, célèbre par sa défense héroïque en 1814-1815 et en 1870.","image":{"provider":"panoramax","id":"4c37a950-ed8e-4c11-accc-56f905d99189","lat":48.85574,"lng":2.3854,"sequenceId":"05a8a27d-c3e1-4e35-b857-3b5c84ce2b7b"}},{"kind":"street","id":"v:11:13883","name":"cité des Trois Bornes","arr":11,"lat":48.86703,"lng":2.37199,"themes":[],"shape":[[2.37166,48.86763],[2.37184,48.86736],[2.37185,48.86734],[2.37186,48.86732],[2.37188,48.86729],[2.37189,48.86728],[2.37211,48.86695],[2.37219,48.86681],[2.37221,48.8668],[2.37222,48.86678],[2.3723,48.86666],[2.37234,48.8666],[2.37224,48.86657],[2.37216,48.86669],[2.37215,48.8667],[2.37212,48.86674],[2.37212,48.86674],[2.37213,48.86674],[2.37211,48.86677],[2.37206,48.86684],[2.37206,48.86686],[2.37205,48.86686],[2.37204,48.86686],[2.37197,48.86697],[2.37197,48.86697],[2.37198,48.86697],[2.37194,48.86703],[2.37192,48.86706],[2.37192,48.86707],[2.37191,48.86707],[2.37186,48.86718],[2.37182,48.86724],[2.37172,48.8674],[2.37159,48.8676],[2.37162,48.86762],[2.37166,48.86763]],"quartier":"Folie-Méricourt","lengthM":125,"story":"Voisinage de la rue des Trois Bornes.","image":{"provider":"panoramax","id":"87060b11-de27-447e-93e2-97a3c98122e7","lat":48.86653,"lng":2.37224,"sequenceId":"fd6a8507-4dae-4900-85ab-001b99375b5d"}},{"kind":"street","id":"v:11:10077","name":"cité du Couvent","arr":11,"lat":48.85467,"lng":2.38392,"themes":[],"shape":[[2.38385,48.85484],[2.38397,48.85466],[2.38402,48.85457],[2.38405,48.85453],[2.38409,48.85448],[2.38399,48.85448],[2.38383,48.85472],[2.3838,48.85473],[2.38379,48.85473],[2.38375,48.85478],[2.38379,48.85479],[2.38375,48.85484],[2.38373,48.85488],[2.38381,48.8549],[2.38385,48.85484],[2.3841,48.85448],[2.3841,48.85447],[2.3841,48.85448],[2.3841,48.85448]],"quartier":"Roquette","lengthM":51,"story":"Située sur l'emplacement de l'ancien couvent des Dames de Saint-Benoist.","image":{"provider":"panoramax","id":"fa5d0c10-3d1b-4cff-ad17-222f3f22c806","lat":48.85483,"lng":2.38381,"sequenceId":"05a8a27d-c3e1-4e35-b857-3b5c84ce2b7b"}},{"kind":"street","id":"v:11:10389","name":"cité Dupont","arr":11,"lat":48.86278,"lng":2.38067,"themes":[],"shape":[[2.38009,48.86251],[2.37996,48.86245],[2.37991,48.8625],[2.38005,48.86256],[2.3805,48.86274],[2.38064,48.8628],[2.38084,48.86289],[2.38097,48.86294],[2.38097,48.86294],[2.38097,48.86295],[2.3811,48.86301],[2.38123,48.86307],[2.3813,48.8631],[2.38135,48.86306],[2.38122,48.863],[2.38108,48.86293],[2.38095,48.86287],[2.38091,48.86285],[2.38082,48.86281],[2.38072,48.86277],[2.38066,48.86275],[2.3806,48.86272],[2.38044,48.86265],[2.38041,48.86264],[2.38022,48.86256],[2.38019,48.86255],[2.38009,48.86251]],"quartier":"Saint-Ambroise","lengthM":120,"story":"M. Dupont, propriétaire.","image":{"provider":"panoramax","id":"87933c0f-889c-4d87-8956-aeba2ccc52be","lat":48.86312,"lng":2.3816,"sequenceId":"83a2b3b6-8cd0-4475-9f2a-17ccc57ede1a"}},{"kind":"street","id":"v:11:10405","name":"cité Durmar","arr":11,"lat":48.8661,"lng":2.38216,"themes":[],"shape":[[2.38183,48.86662],[2.38186,48.86658],[2.38188,48.86655],[2.38189,48.86653],[2.3819,48.86653],[2.38192,48.8665],[2.38192,48.86648],[2.382,48.86637],[2.38212,48.86621],[2.38223,48.86604],[2.38239,48.86582],[2.3824,48.86582],[2.38241,48.86581],[2.38242,48.86581],[2.38242,48.8658],[2.38243,48.86579],[2.38243,48.86578],[2.38243,48.86578],[2.38242,48.86577],[2.38243,48.86576],[2.38252,48.86556],[2.38247,48.86562],[2.38237,48.86575],[2.38235,48.86576],[2.38234,48.86576],[2.38233,48.86577],[2.38233,48.86582],[2.38218,48.86603],[2.38215,48.86606],[2.3821,48.86614],[2.38193,48.86639],[2.38189,48.86638],[2.38182,48.86652],[2.38181,48.86657],[2.38176,48.86665],[2.38183,48.86662]],"quartier":"Saint-Ambroise","lengthM":120,"story":"M. Durmar, propriétaire."},{"kind":"street","id":"v:11:11138","name":"cité Griset","arr":11,"lat":48.8667,"lng":2.37885,"themes":[],"shape":[[2.37937,48.8662],[2.37927,48.86618],[2.37919,48.86626],[2.37913,48.86633],[2.37889,48.8666],[2.37888,48.86661],[2.37887,48.86661],[2.37881,48.86668],[2.37871,48.86678],[2.37869,48.86681],[2.37858,48.86693],[2.37847,48.86704],[2.37851,48.86706],[2.37838,48.8672],[2.37843,48.86722],[2.37843,48.86722],[2.37856,48.86708],[2.37856,48.86708],[2.37866,48.86697],[2.37877,48.86685],[2.3789,48.86671],[2.37912,48.86647],[2.37918,48.8664],[2.37921,48.86637],[2.37926,48.86632],[2.37937,48.8662]],"quartier":"Folie-Méricourt","lengthM":120,"story":"M. Griset, propriétaire."},{"kind":"street","id":"v:11:11345","name":"cité Industrielle","arr":11,"lat":48.85881,"lng":2.3808,"themes":[],"shape":[[2.38135,48.85819],[2.3814,48.85813],[2.38141,48.85805],[2.38139,48.85807],[2.38135,48.85812],[2.38131,48.85812],[2.38118,48.85828],[2.38121,48.85829],[2.38109,48.85843],[2.3809,48.85865],[2.38094,48.85869],[2.38094,48.85869],[2.38107,48.85853],[2.3812,48.85838],[2.38125,48.85831],[2.3813,48.85825],[2.38135,48.85819],[2.38135,48.85819],[2.38032,48.85943],[2.38039,48.85934],[2.38044,48.85932],[2.38046,48.85929],[2.38047,48.85924],[2.3805,48.85921],[2.38052,48.85918],[2.38067,48.859],[2.38067,48.85892],[2.38052,48.85911],[2.38044,48.8592],[2.38032,48.85935],[2.38026,48.85941],[2.3802,48.85949],[2.3801,48.85961],[2.38009,48.85962],[2.38021,48.85956],[2.38032,48.85943]],"quartier":"Roquette","lengthM":215,"story":"Quartier industriel.","image":{"provider":"panoramax","id":"07026f0f-aafd-44d8-a89a-c9f417f1bece","lat":48.85921,"lng":2.38047,"sequenceId":"05a8a27d-c3e1-4e35-b857-3b5c84ce2b7b"}},{"kind":"street","id":"v:11:11524","name":"cité Joly","arr":11,"lat":48.86247,"lng":2.38298,"themes":[],"shape":[[2.38345,48.86193],[2.3833,48.86188],[2.38323,48.86198],[2.38315,48.86209],[2.38308,48.86219],[2.38297,48.86233],[2.3829,48.86242],[2.38282,48.86253],[2.38274,48.86264],[2.38267,48.86274],[2.38265,48.86277],[2.38252,48.86295],[2.38265,48.86301],[2.38274,48.86288],[2.38278,48.86283],[2.38279,48.86282],[2.3828,48.86281],[2.38282,48.86278],[2.38286,48.86273],[2.38296,48.86258],[2.38307,48.86244],[2.38319,48.86227],[2.38321,48.86225],[2.38324,48.86221],[2.38332,48.8621],[2.38345,48.86193]],"quartier":"Saint-Ambroise","lengthM":135,"story":"M. Joly, propriétaire."},{"kind":"street","id":"v:11:12629","name":"cité Parchappe","arr":11,"lat":48.85294,"lng":2.37153,"themes":[],"shape":[[2.37136,48.85278],[2.37132,48.85279],[2.37141,48.85287],[2.3714,48.85287],[2.37142,48.85289],[2.3717,48.85314],[2.37168,48.85318],[2.37183,48.85315],[2.37181,48.85314],[2.37157,48.85293],[2.37157,48.85294],[2.37156,48.85294],[2.37154,48.85292],[2.37154,48.85292],[2.3715,48.85288],[2.37145,48.85285],[2.37136,48.85278]],"quartier":"Roquette","lengthM":50,"story":"M. Parchappe, propriétaire.","image":{"provider":"panoramax","id":"26d22b50-d83d-4237-874e-a5d8700a2ea4","lat":48.85278,"lng":2.37137,"sequenceId":"b8648734-15e7-4474-9474-124f0d5c3642"}},{"kind":"street","id":"v:11:12955","name":"cité Popincourt","arr":11,"lat":48.86238,"lng":2.37478,"themes":["pedestrian"],"shape":[[2.37507,48.86247],[2.37487,48.86237],[2.37471,48.8623],[2.37456,48.86223],[2.37435,48.86214],[2.37435,48.86215],[2.37433,48.86215],[2.37427,48.86213],[2.37427,48.86213],[2.37421,48.8621],[2.37419,48.86209],[2.37411,48.8621],[2.37416,48.86212],[2.37416,48.86212],[2.37428,48.86218],[2.37445,48.86226],[2.37482,48.86242],[2.37483,48.86243],[2.37483,48.86243],[2.37483,48.86243],[2.37485,48.86244],[2.37485,48.86244],[2.37486,48.86244],[2.37486,48.86244],[2.37486,48.86244],[2.37488,48.86245],[2.37493,48.86247],[2.37518,48.86259],[2.37532,48.86265],[2.37543,48.8627],[2.37549,48.86273],[2.37563,48.86279],[2.37548,48.86265],[2.37538,48.86261],[2.37527,48.86256],[2.37507,48.86247]],"quartier":"Saint-Ambroise","lengthM":134,"story":"Voisinage de la rue Popincourt. Manoir de Jean de Popincourt, premier président du Parlement sous Charles VI."},{"kind":"street","id":"v:11:13501","name":"cité Souzy","arr":11,"lat":48.85175,"lng":2.38895,"themes":[],"shape":[[2.38878,48.85171],[2.38871,48.85171],[2.3887,48.85178],[2.38898,48.8518],[2.38915,48.85181],[2.38918,48.85185],[2.38928,48.85175],[2.38908,48.85173],[2.38895,48.85172],[2.38885,48.85172],[2.38878,48.85171]],"quartier":"Sainte-Marguerite","lengthM":42,"image":{"provider":"panoramax","id":"bc734938-9ed2-4c01-a5fa-3cf0125105f6","lat":48.85221,"lng":2.38936,"sequenceId":"4679a020-014b-479a-81cb-6b01a47b4416"}},{"kind":"street","id":"v:11:14116","name":"cité Voltaire","arr":11,"lat":48.85274,"lng":2.39034,"themes":[],"shape":[[2.39165,48.85287],[2.39147,48.85277],[2.39144,48.85284],[2.39106,48.85277],[2.39043,48.85265],[2.38997,48.85257],[2.38993,48.85256],[2.38979,48.85253],[2.38958,48.85249],[2.38942,48.85247],[2.38941,48.85245],[2.38944,48.85261],[2.38943,48.85264],[2.38946,48.85268],[2.38945,48.85269],[2.38949,48.85271],[2.38959,48.85273],[2.39013,48.85283],[2.39025,48.85285],[2.39043,48.85289],[2.3904,48.85282],[2.38961,48.85268],[2.38962,48.85268],[2.38958,48.85266],[2.38962,48.8526],[2.38965,48.8526],[2.39018,48.8527],[2.39077,48.85281],[2.39102,48.85286],[2.39119,48.85289],[2.39123,48.8529],[2.39137,48.85293],[2.39145,48.85294],[2.3916,48.85297],[2.39161,48.85296],[2.39165,48.85287]],"quartier":"Sainte-Marguerite","lengthM":170,"story":"François Marie Arouet, dit Voltaire (1694-1778), écrivain français. Voisinage du boulevard Voltaire.","image":{"provider":"panoramax","id":"fbf641bb-0756-4e90-9a06-fcc5e85135b5","lat":48.85306,"lng":2.39024,"sequenceId":"32bf8834-7569-4ba3-b96a-a62d678bab8e"}},{"kind":"street","id":"v:11:10135","name":"cour Damoye","arr":11,"lat":48.85427,"lng":2.37043,"themes":[],"shape":[[2.37072,48.85482],[2.37075,48.8548],[2.37071,48.85474],[2.37067,48.85467],[2.37048,48.85438],[2.37049,48.85434],[2.3705,48.85433],[2.37036,48.85412],[2.37039,48.85411],[2.37031,48.85404],[2.37037,48.85402],[2.37037,48.85402],[2.3704,48.85401],[2.37023,48.85385],[2.37024,48.85383],[2.37022,48.8538],[2.3702,48.8538],[2.37018,48.8538],[2.37012,48.85371],[2.37007,48.85371],[2.37014,48.85381],[2.37013,48.85383],[2.37015,48.85386],[2.37027,48.85407],[2.37026,48.85407],[2.37046,48.85444],[2.37055,48.85461],[2.37058,48.85468],[2.37064,48.8548],[2.37067,48.8548],[2.37069,48.8548],[2.37071,48.85482],[2.37071,48.85481],[2.37072,48.85482]],"quartier":"Roquette","lengthM":124,"story":"M. Damoye, propriétaire.","image":{"provider":"panoramax","id":"86d36050-b748-4e4e-8b48-78594960929f","lat":48.85398,"lng":2.37022,"sequenceId":"0fead88a-4948-47b2-b8bf-b9e06ef58a6f"}},{"kind":"street","id":"v:11:10591","name":"cour de l'Étoile d'Or","arr":11,"lat":48.85208,"lng":2.37482,"themes":[],"shape":[[2.37508,48.85238],[2.37485,48.8521],[2.37486,48.8521],[2.37486,48.85209],[2.37488,48.85207],[2.37489,48.85207],[2.37489,48.85206],[2.37492,48.85205],[2.37492,48.85205],[2.37491,48.85203],[2.37488,48.85204],[2.37487,48.85205],[2.37487,48.85205],[2.37484,48.85206],[2.37484,48.85207],[2.37483,48.85207],[2.37482,48.85206],[2.37477,48.85207],[2.37475,48.85203],[2.3747,48.85198],[2.37465,48.85192],[2.37464,48.85191],[2.37454,48.85178],[2.37449,48.8518],[2.37455,48.85188],[2.37459,48.85192],[2.37465,48.85199],[2.37466,48.85201],[2.37473,48.85209],[2.37488,48.85226],[2.37489,48.85228],[2.37489,48.85228],[2.37496,48.85231],[2.37497,48.85231],[2.37504,48.85239],[2.37508,48.85238]],"quartier":"Sainte-Marguerite","lengthM":80,"story":"Enseigne de l'Etoile d'or.","image":{"provider":"panoramax","id":"fa9402dc-83af-40e0-9578-4c3ad2957a6c","lat":48.85193,"lng":2.37458,"sequenceId":"920eef23-4d87-4821-a2e4-11029be4c2e4"}},{"kind":"street","id":"v:11:11342","name":"cour de l'Industrie","arr":11,"lat":48.85103,"lng":2.38739,"themes":[],"shape":[[2.38712,48.85048],[2.38711,48.85053],[2.3871,48.85057],[2.3871,48.85057],[2.38709,48.85067],[2.38707,48.85067],[2.38708,48.85069],[2.38703,48.85106],[2.38706,48.85119],[2.387,48.85119],[2.38705,48.85126],[2.38707,48.85125],[2.38754,48.85128],[2.38759,48.85128],[2.3877,48.85125],[2.38777,48.85126],[2.38776,48.8513],[2.38776,48.85133],[2.38774,48.85147],[2.38785,48.85147],[2.38785,48.85121],[2.38785,48.85119],[2.38774,48.8512],[2.38776,48.8512],[2.38774,48.85121],[2.38773,48.85122],[2.3876,48.85122],[2.3876,48.85121],[2.38714,48.85107],[2.38721,48.85107],[2.38722,48.85103],[2.38721,48.85103],[2.38724,48.85068],[2.38718,48.85067],[2.38718,48.85048],[2.38712,48.85048]],"quartier":"Sainte-Marguerite","lengthM":60,"story":"Voie située dans un quartier industriel.","image":{"provider":"panoramax","id":"55e2c59f-d39d-4332-8e60-f8baad2cb87c","lat":48.85144,"lng":2.38778,"sequenceId":"085d02b3-86bf-40a4-8b2d-7cfd3780ab81"}},{"kind":"street","id":"v:11:12588","name":"cour de l'Ours","arr":11,"lat":48.85189,"lng":2.37572,"themes":[],"shape":[[2.37545,48.85155],[2.37541,48.85156],[2.37548,48.85165],[2.37549,48.85168],[2.37551,48.85175],[2.37551,48.85175],[2.37552,48.85176],[2.37555,48.85175],[2.3756,48.8518],[2.37588,48.85213],[2.37588,48.85213],[2.37589,48.85213],[2.376,48.85226],[2.37601,48.85227],[2.37604,48.85229],[2.37607,48.85228],[2.37604,48.85224],[2.376,48.8522],[2.37602,48.85218],[2.37601,48.85219],[2.37599,48.85216],[2.37599,48.85215],[2.37596,48.85212],[2.37595,48.85211],[2.37567,48.85179],[2.37566,48.8518],[2.37556,48.85167],[2.37557,48.85167],[2.37557,48.85166],[2.37557,48.85166],[2.37557,48.85165],[2.37558,48.85165],[2.37556,48.85163],[2.37553,48.85164],[2.37552,48.85164],[2.37545,48.85155]],"quartier":"Sainte-Marguerite","lengthM":90,"story":"Un ours a été sculpté sur la façade de l'immeuble 95, rue du Faubourg Saint-Antoine.","image":{"provider":"panoramax","id":"e557692e-9ffe-42aa-8e15-3c65ab9b12ff","lat":48.85182,"lng":2.37568,"sequenceId":"e624006f-1d4d-4289-8c7a-42d538e5ce2f"}},{"kind":"street","id":"v:11:12003","name":"cour de la Maison Brûlée","arr":11,"lat":48.85194,"lng":2.37539,"themes":[],"shape":[[2.37516,48.85162],[2.37513,48.85163],[2.37521,48.85173],[2.37521,48.85174],[2.37523,48.85176],[2.37527,48.85181],[2.37527,48.85181],[2.37539,48.85196],[2.37541,48.85199],[2.37539,48.85199],[2.37541,48.85202],[2.37548,48.85209],[2.37548,48.85209],[2.37552,48.85214],[2.37544,48.85217],[2.37564,48.8524],[2.37568,48.85239],[2.37565,48.85235],[2.37583,48.85229],[2.3755,48.8519],[2.37544,48.85192],[2.37542,48.85192],[2.3753,48.85179],[2.37529,48.85178],[2.37525,48.85173],[2.37525,48.85172],[2.37516,48.85162]],"quartier":"Sainte-Marguerite","lengthM":100,"image":{"provider":"panoramax","id":"71ba20e3-9610-4083-828f-9ed3bd8990bd","lat":48.85229,"lng":2.37536,"sequenceId":"f5434798-e04d-487d-8224-7a2200760b7b"}},{"kind":"street","id":"v:11:10188","name":"cour Debille","arr":11,"lat":48.85603,"lng":2.37963,"themes":["pedestrian"],"shape":[[2.37945,48.85645],[2.37951,48.85636],[2.37966,48.85613],[2.37976,48.85598],[2.37983,48.85587],[2.37989,48.85577],[2.37986,48.85576],[2.37989,48.85571],[2.37997,48.85559],[2.37985,48.85556],[2.37985,48.85556],[2.37985,48.85557],[2.37985,48.85557],[2.3795,48.85611],[2.37946,48.85617],[2.3794,48.85625],[2.37933,48.85636],[2.37923,48.85636],[2.37936,48.85659],[2.37938,48.85656],[2.37945,48.85645]],"quartier":"Roquette","lengthM":110,"story":"M. Debille, propriétaire.","image":{"provider":"panoramax","id":"61f8601b-080a-4792-8c7a-05e8673340a6","lat":48.85566,"lng":2.37989,"sequenceId":"d78d30c0-6bbb-4695-9f46-2a587dee7650"}},{"kind":"street","id":"v:11:10209","name":"cour Delépine","arr":11,"lat":48.85364,"lng":2.37607,"themes":[],"shape":[[2.37621,48.85338],[2.3762,48.8534],[2.37618,48.85345],[2.37617,48.85348],[2.37615,48.8535],[2.37615,48.8535],[2.37612,48.85355],[2.37608,48.85353],[2.37603,48.85359],[2.37604,48.85361],[2.37592,48.85376],[2.3759,48.85379],[2.37589,48.85378],[2.37581,48.85388],[2.37581,48.85388],[2.3758,48.85389],[2.37605,48.85397],[2.37606,48.85396],[2.37602,48.85394],[2.37602,48.85395],[2.37591,48.85391],[2.376,48.85379],[2.37606,48.85371],[2.37615,48.85359],[2.37631,48.85338],[2.37623,48.85338],[2.37627,48.85333],[2.37624,48.85333],[2.37621,48.85338]],"quartier":"Roquette","lengthM":73,"story":"Voisinage de l'impasse Delépine.","image":{"provider":"panoramax","id":"49a2e3e6-1717-48bd-911f-67c876f5e2cb","lat":48.85374,"lng":2.3757,"sequenceId":"e3d471ba-23ff-4c4c-a800-48f05808a387"}},{"kind":"street","id":"v:11:10631","name":"cour des Fabriques","arr":11,"lat":48.86678,"lng":2.37524,"themes":[],"shape":[[2.37516,48.86704],[2.37516,48.86704],[2.37516,48.86704],[2.37516,48.86704],[2.37519,48.867],[2.37519,48.867],[2.37519,48.867],[2.37521,48.86696],[2.37521,48.86696],[2.37522,48.86695],[2.37528,48.86687],[2.37563,48.86629],[2.37562,48.86628],[2.37536,48.86622],[2.37528,48.86635],[2.37522,48.86647],[2.37521,48.86648],[2.37511,48.86677],[2.3751,48.86677],[2.37512,48.86677],[2.37538,48.86633],[2.37539,48.86631],[2.3755,48.86632],[2.37551,48.86633],[2.3755,48.86636],[2.37516,48.86694],[2.37517,48.86695],[2.37517,48.86695],[2.37515,48.86698],[2.37515,48.86698],[2.37514,48.86699],[2.37512,48.86703],[2.37512,48.86703],[2.37512,48.86703],[2.37512,48.86703],[2.37516,48.86704]],"quartier":"Folie-Méricourt","lengthM":160,"story":"Situé dans un quartier industriel."},{"kind":"street","id":"v:11:13887","name":"cour des Trois Frères","arr":11,"lat":48.85204,"lng":2.37511,"themes":[],"shape":[[2.37548,48.85241],[2.37498,48.85183],[2.37498,48.85182],[2.37494,48.85178],[2.37491,48.85179],[2.37485,48.85171],[2.37481,48.85172],[2.37487,48.8518],[2.37484,48.85181],[2.37488,48.85185],[2.37491,48.85185],[2.37508,48.85205],[2.37541,48.85243],[2.37542,48.85245],[2.37545,48.85246],[2.3755,48.85244],[2.37548,48.85241]],"quartier":"Sainte-Marguerite","lengthM":100,"story":"Donné par M. Vignes, propriétaire, qui avait trois fils.","image":{"provider":"panoramax","id":"045630a0-ed78-4a2e-be82-c3418e8b4800","lat":48.85177,"lng":2.37488,"sequenceId":"f5434798-e04d-487d-8224-7a2200760b7b"}},{"kind":"street","id":"v:11:9593","name":"cour du Cantal","arr":11,"lat":48.85382,"lng":2.37184,"themes":[],"shape":[[2.37112,48.854],[2.37129,48.85395],[2.37136,48.85392],[2.37136,48.85391],[2.37143,48.85393],[2.37151,48.85401],[2.37151,48.85402],[2.37181,48.8539],[2.37208,48.85379],[2.37208,48.85379],[2.37215,48.85376],[2.3722,48.85374],[2.37224,48.85376],[2.37232,48.85385],[2.37232,48.85385],[2.37236,48.85384],[2.37236,48.85383],[2.37229,48.85376],[2.37228,48.85374],[2.37224,48.8537],[2.37214,48.8536],[2.37211,48.85357],[2.37207,48.85359],[2.37217,48.85371],[2.37205,48.85376],[2.37195,48.85366],[2.37193,48.85379],[2.37177,48.85385],[2.3717,48.85378],[2.37172,48.85376],[2.3717,48.85388],[2.37156,48.85394],[2.37134,48.85389],[2.37133,48.85389],[2.37133,48.85389],[2.37112,48.854]],"quartier":"Roquette","lengthM":135,"story":"Autrefois les habitants de cette cour étaient en grande partie originaires du département du Cantal.","image":{"provider":"panoramax","id":"2e93d335-fd70-4b9a-b7d2-3e6595dc53d8","lat":48.85388,"lng":2.37235,"sequenceId":"d78d30c0-6bbb-4695-9f46-2a587dee7650"}},{"kind":"street","id":"v:11:10033","name":"cour du Coq","arr":11,"lat":48.85928,"lng":2.3695,"themes":[],"shape":[[2.36989,48.85941],[2.36993,48.85935],[2.3699,48.85934],[2.3699,48.85935],[2.36961,48.85928],[2.36917,48.85917],[2.36907,48.85914],[2.36907,48.85914],[2.36887,48.85909],[2.36885,48.85912],[2.36906,48.85917],[2.36964,48.85932],[2.36962,48.85936],[2.36964,48.85936],[2.36964,48.85935],[2.36966,48.85936],[2.36967,48.85935],[2.36989,48.85941]],"quartier":"Saint-Ambroise","lengthM":94,"story":"Surnom d'un propriétaire.","image":{"provider":"panoramax","id":"d06d6282-1879-406b-80ca-5b6d5ca52d9a","lat":48.85906,"lng":2.36884,"sequenceId":"58d7670f-86f2-4cef-85fe-93e4123824eb"}},{"kind":"street","id":"v:11:12501","name":"cour du Nom de Jésus","arr":11,"lat":48.85245,"lng":2.37276,"themes":[],"shape":[[2.37267,48.85228],[2.37264,48.85229],[2.37271,48.85239],[2.37263,48.85242],[2.37265,48.85244],[2.37266,48.85243],[2.37269,48.85243],[2.37281,48.85257],[2.37279,48.85257],[2.37278,48.85258],[2.37281,48.85261],[2.37297,48.85256],[2.37295,48.85254],[2.37295,48.85254],[2.37281,48.85239],[2.37279,48.85237],[2.37274,48.85238],[2.37267,48.85228]],"quartier":"Roquette","lengthM":34,"story":"Ancienne enseigne.","image":{"provider":"panoramax","id":"8ddaeb87-6e01-4cf2-b69d-326e6bdd5bcc","lat":48.85233,"lng":2.37256,"sequenceId":"b8648734-15e7-4474-9474-124f0d5c3642"}},{"kind":"street","id":"v:11:12610","name":"cour du Panier Fleuri","arr":11,"lat":48.85313,"lng":2.3744,"themes":[],"shape":[[2.37459,48.85305],[2.37457,48.85303],[2.3745,48.85307],[2.37446,48.85309],[2.37446,48.85309],[2.3744,48.85313],[2.3744,48.85313],[2.37425,48.8532],[2.37421,48.85317],[2.3742,48.85317],[2.37419,48.85316],[2.37416,48.85318],[2.37427,48.85326],[2.37444,48.85316],[2.37443,48.85315],[2.37449,48.85311],[2.37449,48.85311],[2.37452,48.85309],[2.37459,48.85305]],"quartier":"Roquette","lengthM":36,"story":"En souvenir d'un opéra comique d'Ambroise Thomas.","image":{"provider":"panoramax","id":"5ee0bc9d-8c2d-421a-9ffa-df1b3e33939b","lat":48.85303,"lng":2.37411,"sequenceId":"d78d30c0-6bbb-4695-9f46-2a587dee7650"}},{"kind":"street","id":"v:11:13582","name":"cour du Saint-Esprit","arr":11,"lat":48.85134,"lng":2.37754,"themes":[],"shape":[[2.37745,48.85106],[2.37741,48.85107],[2.37745,48.85117],[2.37743,48.85117],[2.37744,48.8512],[2.37745,48.8512],[2.37745,48.8512],[2.37746,48.8512],[2.37746,48.85121],[2.3775,48.85131],[2.3775,48.8513],[2.37753,48.85139],[2.37756,48.85147],[2.37757,48.8515],[2.3776,48.85158],[2.37763,48.85165],[2.37766,48.85173],[2.37766,48.85174],[2.37771,48.85174],[2.37772,48.85173],[2.37777,48.85173],[2.37764,48.8514],[2.37765,48.85139],[2.37766,48.85137],[2.37758,48.85138],[2.37755,48.8513],[2.37751,48.8512],[2.37751,48.85119],[2.37751,48.85118],[2.3775,48.85116],[2.37749,48.85116],[2.37747,48.8511],[2.37745,48.85106]],"quartier":"Sainte-Marguerite","lengthM":88,"story":"Ancienne enseigne.","image":{"provider":"panoramax","id":"5647b76a-62b3-44fd-8f73-fdff9c0343dd","lat":48.85171,"lng":2.37794,"sequenceId":"f5434798-e04d-487d-8224-7a2200760b7b"}},{"kind":"street","id":"v:11:11395","name":"cour Jacques Viguès","arr":11,"lat":48.85277,"lng":2.37348,"themes":[],"shape":[[2.37369,48.8526],[2.37364,48.85262],[2.37366,48.85267],[2.37365,48.85268],[2.37346,48.85276],[2.37342,48.85277],[2.37341,48.85277],[2.37337,48.85273],[2.37336,48.85273],[2.37336,48.85273],[2.37332,48.85274],[2.37337,48.85279],[2.37328,48.85283],[2.37323,48.85284],[2.37318,48.85286],[2.37314,48.85288],[2.37323,48.85298],[2.37327,48.85297],[2.37332,48.85295],[2.37337,48.85293],[2.37351,48.85287],[2.37355,48.85285],[2.37373,48.85278],[2.37374,48.85279],[2.37378,48.85277],[2.3737,48.85267],[2.3737,48.85264],[2.37369,48.8526],[2.37369,48.8526]],"quartier":"Roquette","lengthM":46,"story":"Nom de propriétaire.","image":{"provider":"panoramax","id":"6090c010-dc05-42ae-aa92-8fc8785ef5d9","lat":48.85326,"lng":2.37363,"sequenceId":"d78d30c0-6bbb-4695-9f46-2a587dee7650"}},{"kind":"street","id":"v:11:13103","name":"cour Quellard","arr":11,"lat":48.85353,"lng":2.37387,"themes":[],"shape":[[2.37367,48.85327],[2.3737,48.85332],[2.3737,48.85332],[2.37374,48.85336],[2.37374,48.85336],[2.37381,48.85343],[2.37384,48.85346],[2.37385,48.85346],[2.37383,48.85347],[2.37375,48.85358],[2.37369,48.85354],[2.37368,48.85354],[2.37365,48.85356],[2.37401,48.8538],[2.37404,48.85378],[2.37399,48.85375],[2.37398,48.85374],[2.37395,48.85372],[2.37381,48.85363],[2.37389,48.85356],[2.37405,48.85366],[2.37409,48.85368],[2.37409,48.85368],[2.37412,48.8537],[2.37418,48.85374],[2.37423,48.85372],[2.37416,48.85367],[2.37416,48.85363],[2.37387,48.85345],[2.37377,48.85337],[2.37377,48.85337],[2.37377,48.85336],[2.37376,48.85335],[2.37376,48.85335],[2.37372,48.85331],[2.37367,48.85327]],"quartier":"Roquette","lengthM":80,"story":"M. Quellard, propriétaire.","image":{"provider":"panoramax","id":"3e675aeb-6c1d-42d3-93c0-41853109cba7","lat":48.85391,"lng":2.37398,"sequenceId":"476a707c-5e98-4843-bebe-60bba6bf309f"}},{"kind":"street","id":"v:11:13618","name":"cour Saint-Joseph","arr":11,"lat":48.85255,"lng":2.37359,"themes":[],"shape":[[2.37303,48.8528],[2.37329,48.8527],[2.37332,48.85274],[2.37336,48.85273],[2.37333,48.85268],[2.37363,48.85257],[2.37369,48.8526],[2.37367,48.85256],[2.37367,48.85256],[2.37367,48.85255],[2.37375,48.85252],[2.37377,48.85254],[2.37398,48.85245],[2.37395,48.85242],[2.37396,48.85242],[2.37396,48.85242],[2.37406,48.85239],[2.37406,48.85239],[2.37404,48.85236],[2.37404,48.85236],[2.37404,48.85236],[2.37394,48.85239],[2.37394,48.85239],[2.37394,48.8524],[2.37391,48.85236],[2.37369,48.85244],[2.37365,48.85246],[2.37334,48.85257],[2.37329,48.85258],[2.37317,48.85263],[2.37295,48.8527],[2.37296,48.85272],[2.37299,48.85271],[2.37304,48.85277],[2.37302,48.85278],[2.37303,48.8528]],"quartier":"Roquette","lengthM":87,"story":"Joseph, prénom d'un des propriétaires. D'après Lazare, elle devrait son nom à une enseigne.","image":{"provider":"panoramax","id":"62ea7a3f-2abe-4bbd-9633-7499471bf787","lat":48.8523,"lng":2.37412,"sequenceId":"476a707c-5e98-4843-bebe-60bba6bf309f"}},{"kind":"street","id":"v:11:13627","name":"cour Saint-Louis","arr":11,"lat":48.8529,"lng":2.37285,"themes":[],"shape":[[2.37243,48.85235],[2.3724,48.85237],[2.37246,48.85246],[2.37248,48.85248],[2.37246,48.85252],[2.37264,48.85274],[2.37275,48.85281],[2.37279,48.85285],[2.3728,48.85295],[2.37266,48.85303],[2.37277,48.85318],[2.3729,48.85319],[2.37305,48.85335],[2.37313,48.85335],[2.37323,48.8533],[2.37326,48.8533],[2.37337,48.85335],[2.37329,48.85328],[2.37329,48.85328],[2.37322,48.85319],[2.37321,48.85319],[2.37309,48.85311],[2.37304,48.85313],[2.37309,48.85334],[2.37292,48.85318],[2.37296,48.85309],[2.37286,48.853],[2.37296,48.85292],[2.37295,48.85278],[2.3728,48.85269],[2.37271,48.8526],[2.37265,48.85253],[2.37257,48.85243],[2.3725,48.85245],[2.37243,48.85236],[2.37243,48.85235]],"quartier":"Roquette","lengthM":155,"story":"Ancienne enseigne.","image":{"provider":"panoramax","id":"db737508-bc1c-4768-9c26-7d6b623faf1d","lat":48.8534,"lng":2.37335,"sequenceId":"d78d30c0-6bbb-4695-9f46-2a587dee7650"}},{"kind":"street","id":"v:11:13651","name":"cour Saint-Nicolas","arr":11,"lat":48.85073,"lng":2.38812,"themes":[],"shape":[[2.3883,48.85049],[2.38825,48.85049],[2.38825,48.85056],[2.38825,48.85057],[2.38824,48.85058],[2.38816,48.85057],[2.38815,48.85057],[2.38814,48.85057],[2.38813,48.85063],[2.38815,48.85063],[2.38815,48.85064],[2.38815,48.85067],[2.38815,48.85072],[2.38814,48.8508],[2.38813,48.8508],[2.38806,48.8508],[2.38805,48.8508],[2.38802,48.8508],[2.388,48.85083],[2.38806,48.85084],[2.38808,48.85084],[2.38809,48.85085],[2.38806,48.8509],[2.38805,48.8509],[2.38793,48.8509],[2.38785,48.8509],[2.38785,48.85094],[2.38793,48.85094],[2.38793,48.85094],[2.38814,48.85095],[2.3882,48.85082],[2.3882,48.85077],[2.38829,48.85077],[2.3883,48.85056],[2.3883,48.85053],[2.3883,48.85049]],"quartier":"Sainte-Marguerite","lengthM":80,"story":"Nom donné par le propriétaire, ex-négociant de la rue Saint-Nicolas.","image":{"provider":"panoramax","id":"f4086a78-9d39-4496-b23b-76c3d77e7d18","lat":48.85116,"lng":2.38765,"sequenceId":"085d02b3-86bf-40a4-8b2d-7cfd3780ab81"}},{"kind":"street","id":"v:11:13416","name":"cour Sedaine","arr":11,"lat":48.85674,"lng":2.37476,"themes":[],"shape":[[2.37463,48.85688],[2.37467,48.8569],[2.37474,48.85683],[2.37486,48.85687],[2.37489,48.85684],[2.37478,48.85679],[2.37494,48.85661],[2.37505,48.85665],[2.37507,48.85663],[2.37481,48.85653],[2.37474,48.8566],[2.37485,48.85664],[2.37478,48.85672],[2.37466,48.85667],[2.37465,48.85669],[2.3747,48.85671],[2.37466,48.85676],[2.3746,48.85674],[2.37458,48.85676],[2.3747,48.85681],[2.37463,48.85688]],"quartier":"Roquette","lengthM":43,"story":"Voisinage de la rue Sedaine.","image":{"provider":"panoramax","id":"783205a8-5929-4601-9ec8-6e0dc704b458","lat":48.85691,"lng":2.3746,"sequenceId":"d78d30c0-6bbb-4695-9f46-2a587dee7650"}},{"kind":"street","id":"v:11:14062","name":"cour Viguès","arr":11,"lat":48.85221,"lng":2.37361,"themes":[],"shape":[[2.37351,48.85205],[2.37348,48.85206],[2.37354,48.85215],[2.37354,48.85215],[2.37355,48.85215],[2.37356,48.85217],[2.37356,48.85217],[2.37356,48.85218],[2.37357,48.85219],[2.37358,48.85221],[2.37355,48.85222],[2.37354,48.8522],[2.37351,48.85221],[2.37357,48.8523],[2.37353,48.85231],[2.37359,48.85241],[2.37364,48.8524],[2.37359,48.85234],[2.37376,48.85228],[2.37379,48.85233],[2.37383,48.85231],[2.37378,48.85226],[2.37376,48.85226],[2.37369,48.85216],[2.37367,48.85217],[2.37367,48.85217],[2.37361,48.85219],[2.37358,48.85214],[2.37351,48.85205]],"quartier":"Roquette","lengthM":31,"story":"M. Viguès, propriétaire.","image":{"provider":"panoramax","id":"f4b9d2b3-df13-4b73-9815-7b36264e2d0a","lat":48.85206,"lng":2.37348,"sequenceId":"4fdfb28e-1031-4511-970d-b01ab490b195"}},{"kind":"street","id":"v:11:15105","name":"esplanade Renée Lebas","arr":11,"lat":48.85239,"lng":2.38152,"themes":["pedestrian"],"shape":[[2.38125,48.85256],[2.38166,48.85249],[2.38187,48.85255],[2.38178,48.8524],[2.38163,48.85218],[2.38162,48.85223],[2.38158,48.85227],[2.38152,48.85229],[2.38106,48.85235],[2.38125,48.85256]],"quartier":"Sainte-Marguerite","story":"Renée Lebas (Paris, 1917-Paris, 2009) chanteuse et productrice.","image":{"provider":"panoramax","id":"9f92541a-d2ba-490c-90ae-79cde4296510","lat":48.85219,"lng":2.38172,"sequenceId":"f5434798-e04d-487d-8224-7a2200760b7b"}},{"kind":"street","id":"v:11:15088","name":"esplanade Roger Joseph Boscovich","arr":11,"lat":48.85484,"lng":2.36979,"themes":[],"shape":[[2.36922,48.85381],[2.36944,48.8543],[2.36946,48.85434],[2.36948,48.8544],[2.36951,48.85446],[2.36953,48.8545],[2.36956,48.85456],[2.36958,48.85462],[2.36961,48.85468],[2.36964,48.85474],[2.36966,48.85479],[2.36969,48.85485],[2.36971,48.85491],[2.36974,48.85497],[2.36977,48.85503],[2.36979,48.85507],[2.3698,48.85511],[2.36983,48.85516],[2.36986,48.85523],[2.36988,48.85529],[2.3699,48.8553],[2.36991,48.85531],[2.36993,48.85532],[2.36995,48.85532],[2.36997,48.85531],[2.36999,48.85531],[2.3702,48.85524],[2.37024,48.85522],[2.37026,48.85521],[2.37026,48.8552],[2.37022,48.85509],[2.37019,48.85503],[2.37,48.8546],[2.36982,48.8542],[2.3697,48.85394],[2.36922,48.85381]],"quartier":"Roquette","story":"Roger Joseph Boscovich (Raguse(Dubrovnik), 1711-Milan, 1787) philosophe croate symbole du Siècle des Lumières.","image":{"provider":"panoramax","id":"7df402df-4924-4ee0-a69d-db52fd301caa","lat":48.85522,"lng":2.36985,"sequenceId":"e60dd6fe-34b7-4d96-b188-9c2fcf00d211"}},{"kind":"street","id":"v:11:15037","name":"esplanade Roger Linet","arr":11,"lat":48.86788,"lng":2.37785,"themes":["pedestrian"],"shape":[[2.37727,48.86782],[2.37784,48.86794],[2.37836,48.86802],[2.37836,48.86802],[2.37837,48.86802],[2.37837,48.86802],[2.37837,48.86802],[2.37837,48.86802],[2.37837,48.86802],[2.37843,48.86798],[2.37843,48.86798],[2.37843,48.86798],[2.37843,48.86798],[2.37843,48.86797],[2.37843,48.86797],[2.37843,48.86797],[2.37843,48.86797],[2.37843,48.86796],[2.37842,48.86796],[2.37836,48.86796],[2.37735,48.8677],[2.37734,48.8677],[2.37732,48.8677],[2.3773,48.86771],[2.37729,48.86772],[2.37728,48.86772],[2.37724,48.86777],[2.37724,48.86778],[2.37724,48.86779],[2.37724,48.86779],[2.37724,48.8678],[2.37724,48.8678],[2.37725,48.86781],[2.37725,48.86781],[2.37726,48.86781],[2.37727,48.86782]],"quartier":"Folie-Méricourt","lengthM":88,"story":"Roger Linet (Cours-les-Barres (Cher), 1914-Chargé (Indre-et-Loire), 2003), syndicaliste, premier président de l'Union fraternelle des métallurgistes. Il fut élu député de la Seine de 1951 à 1956. (Croix de guerre, médaillé de la Résistance et de la Légion d'honneur).","image":{"provider":"panoramax","id":"3fe5ba0d-6d3a-4406-8676-85b697cdc9cd","lat":48.86803,"lng":2.37845,"sequenceId":"3f83c3f9-b1e8-47e7-abc3-dc6423bf967b"}},{"kind":"street","id":"v:11:8933","name":"impasse Amelot","arr":11,"lat":48.85988,"lng":2.36845,"themes":[],"shape":[[2.36821,48.85982],[2.36819,48.85981],[2.36819,48.85982],[2.36818,48.85982],[2.36817,48.85985],[2.36828,48.85986],[2.36833,48.85986],[2.36838,48.85987],[2.36843,48.85988],[2.36845,48.85988],[2.36848,48.85988],[2.36849,48.85989],[2.36851,48.85989],[2.36855,48.8599],[2.36902,48.86002],[2.36903,48.85999],[2.36903,48.85999],[2.36862,48.85989],[2.36845,48.85985],[2.36844,48.85984],[2.3683,48.85983],[2.36821,48.85982]],"quartier":"Saint-Ambroise","lengthM":65,"story":"Voisinage de la rue Amelot. Amelot était, en 1777, ministre et secrétaire d'Etat au département de Paris.","image":{"provider":"panoramax","id":"bd9d6912-964e-4a4a-a2a8-a6409def89e3","lat":48.85969,"lng":2.3682,"sequenceId":"048b975b-26b4-4829-9264-d47d7d28b69d"}},{"kind":"street","id":"v:11:9391","name":"impasse Bon Secours","arr":11,"lat":48.85505,"lng":2.38375,"themes":[],"shape":[[2.38408,48.85514],[2.38412,48.85512],[2.3841,48.8551],[2.3841,48.8551],[2.38379,48.85502],[2.3838,48.85501],[2.38375,48.855],[2.38361,48.85496],[2.38361,48.85496],[2.38352,48.85494],[2.38352,48.85493],[2.38333,48.85488],[2.38333,48.85488],[2.38331,48.85492],[2.38327,48.85496],[2.38326,48.85498],[2.38344,48.85504],[2.38386,48.85515],[2.38388,48.85512],[2.38395,48.85514],[2.38404,48.85516],[2.38413,48.85523],[2.38417,48.85521],[2.38408,48.85514]],"quartier":"Roquette","lengthM":70,"story":"Voisinage de l'ancien hôpital de Bon Secours.","image":{"provider":"panoramax","id":"1aca3495-d1c8-4e36-9677-2d66a2fa739f","lat":48.85485,"lng":2.3838,"sequenceId":"05a8a27d-c3e1-4e35-b857-3b5c84ce2b7b"}},{"kind":"street","id":"v:11:9632","name":"impasse Carrière-Mainguet","arr":11,"lat":48.85684,"lng":2.38826,"themes":[],"shape":[[2.38817,48.8568],[2.38816,48.85683],[2.38817,48.85683],[2.38839,48.85689],[2.38841,48.85686],[2.3884,48.85686],[2.3882,48.85681],[2.38817,48.8568]],"quartier":"Roquette","lengthM":20,"story":"M. Carrière-Mainguet, propriétaire.","image":{"provider":"panoramax","id":"3d8a88bc-3d86-413c-b83c-7eec1279bb22","lat":48.85674,"lng":2.38811,"sequenceId":"05a8a27d-c3e1-4e35-b857-3b5c84ce2b7b"}},{"kind":"street","id":"v:11:9788","name":"impasse Charles Petit","arr":11,"lat":48.85123,"lng":2.38499,"themes":[],"shape":[[2.38536,48.85125],[2.38536,48.85118],[2.38517,48.85118],[2.38512,48.85119],[2.38506,48.85119],[2.38501,48.85119],[2.38484,48.85119],[2.38459,48.8512],[2.38456,48.85119],[2.38459,48.85129],[2.38462,48.85127],[2.38482,48.85127],[2.38498,48.85126],[2.38512,48.85126],[2.38528,48.85125],[2.38536,48.85125]],"quartier":"Sainte-Marguerite","lengthM":57,"story":"M. Charles Petit, propriétaire du terrain sur lequel la voie a été ouverte.","image":{"provider":"panoramax","id":"76d598f3-dcc6-43b2-a59d-a795dabfa40a","lat":48.851,"lng":2.3843,"sequenceId":"b15abe94-66d8-495d-9974-23300e1fb068"}},{"kind":"street","id":"v:11:10170","name":"impasse Daunay","arr":11,"lat":48.86036,"lng":2.38727,"themes":[],"shape":[[2.3877,48.86048],[2.38771,48.86045],[2.38772,48.86043],[2.38772,48.86042],[2.38765,48.8604],[2.38761,48.86039],[2.38753,48.86038],[2.38749,48.86037],[2.38742,48.86036],[2.38738,48.86035],[2.38733,48.86034],[2.38731,48.86034],[2.38725,48.86032],[2.38696,48.86027],[2.38674,48.86022],[2.38663,48.8602],[2.38648,48.86017],[2.38645,48.86023],[2.38663,48.86026],[2.38664,48.86027],[2.38675,48.86029],[2.38685,48.86031],[2.38695,48.86033],[2.38705,48.86035],[2.38729,48.8604],[2.38734,48.86041],[2.3874,48.86042],[2.38748,48.86043],[2.38749,48.86044],[2.38749,48.86044],[2.38751,48.86044],[2.38755,48.86045],[2.38761,48.86046],[2.38761,48.86046],[2.3877,48.86048]],"quartier":"Roquette","lengthM":90,"story":"Voisinage de l'ancienne barrière d'Aunay.","image":{"provider":"panoramax","id":"172e8042-5488-411e-a469-8a3b23568e97","lat":48.86021,"lng":2.38644,"sequenceId":"05a8a27d-c3e1-4e35-b857-3b5c84ce2b7b"}},{"kind":"street","id":"v:11:9157","name":"impasse de la Baleine","arr":11,"lat":48.86735,"lng":2.37756,"themes":["pedestrian"],"shape":[[2.37751,48.86747],[2.37771,48.86723],[2.37793,48.86698],[2.37786,48.86694],[2.37777,48.86705],[2.37743,48.86745],[2.37741,48.86744],[2.37727,48.86759],[2.37738,48.86762],[2.37738,48.86762],[2.37751,48.86747]],"quartier":"Folie-Méricourt","lengthM":85,"story":"Nom donné par le propriétaire."},{"kind":"street","id":"v:11:12344","name":"impasse de Mont-Louis","arr":11,"lat":48.8577,"lng":2.38835,"themes":[],"shape":[[2.38857,48.85734],[2.38848,48.85732],[2.38845,48.85738],[2.38844,48.85741],[2.38841,48.85747],[2.38833,48.85763],[2.38831,48.85769],[2.38825,48.8578],[2.38823,48.85785],[2.38822,48.85787],[2.38819,48.85792],[2.38815,48.85802],[2.38811,48.8581],[2.3882,48.85811],[2.38822,48.85805],[2.38825,48.85801],[2.38827,48.85797],[2.38833,48.85783],[2.38835,48.85779],[2.38839,48.8577],[2.38844,48.85761],[2.38846,48.85757],[2.38846,48.85756],[2.38848,48.85752],[2.38853,48.85741],[2.38857,48.85734]],"quartier":"Roquette","lengthM":90,"story":"Voisinage de la rue de Mont-Louis.","image":{"provider":"panoramax","id":"ffc1ad99-da44-480b-b435-2512a83eae5f","lat":48.85811,"lng":2.38815,"sequenceId":"05a8a27d-c3e1-4e35-b857-3b5c84ce2b7b"}},{"kind":"street","id":"v:11:10204","name":"impasse Delaunay","arr":11,"lat":48.85527,"lng":2.38592,"themes":[],"shape":[[2.38581,48.85553],[2.38585,48.85547],[2.38585,48.85547],[2.3859,48.8554],[2.38603,48.85519],[2.38607,48.85514],[2.38611,48.85508],[2.38612,48.85506],[2.38611,48.85506],[2.38611,48.85505],[2.38618,48.85495],[2.38598,48.85495],[2.38599,48.85496],[2.38601,48.85499],[2.38603,48.85501],[2.3859,48.85521],[2.38592,48.85522],[2.38589,48.85527],[2.38583,48.85534],[2.38582,48.85534],[2.38581,48.85535],[2.38579,48.85538],[2.38577,48.85541],[2.38571,48.85551],[2.38571,48.85551],[2.38576,48.85552],[2.38581,48.85554],[2.38581,48.85553]],"quartier":"Roquette","lengthM":69,"story":"M. Delaunay, l'un des anciens propriétaires riverains.","image":{"provider":"panoramax","id":"72d74b2a-c0e4-4073-829e-63c2675926c6","lat":48.85505,"lng":2.38607,"sequenceId":"05a8a27d-c3e1-4e35-b857-3b5c84ce2b7b"}},{"kind":"street","id":"v:11:10208","name":"impasse Delépine","arr":11,"lat":48.85311,"lng":2.38949,"themes":[],"shape":[[2.38954,48.85311],[2.38939,48.85308],[2.38934,48.85307],[2.38926,48.85306],[2.38922,48.85305],[2.38917,48.85304],[2.38913,48.85303],[2.38913,48.85303],[2.38911,48.85303],[2.38906,48.85302],[2.38897,48.853],[2.38891,48.85299],[2.38887,48.85298],[2.38885,48.85298],[2.38869,48.85295],[2.38864,48.85298],[2.3888,48.85301],[2.38903,48.85305],[2.38956,48.85317],[2.38955,48.8532],[2.38999,48.85328],[2.3901,48.8533],[2.39036,48.85327],[2.39033,48.85327],[2.39029,48.85326],[2.39022,48.85324],[2.39011,48.85322],[2.39007,48.85321],[2.38993,48.85319],[2.38991,48.85318],[2.38989,48.85318],[2.38979,48.85316],[2.38972,48.85314],[2.38972,48.85314],[2.38962,48.85312],[2.38954,48.85311]],"quartier":"Sainte-Marguerite","lengthM":130,"story":"M. Delépine, propriétaire.","image":{"provider":"panoramax","id":"5b45d9f8-7197-4ec3-a543-65ef0aebab2b","lat":48.85293,"lng":2.38951,"sequenceId":"32bf8834-7569-4ba3-b96a-a62d678bab8e"}},{"kind":"street","id":"v:11:11413","name":"impasse des Jardiniers","arr":11,"lat":48.85213,"lng":2.39195,"themes":[],"shape":[[2.39237,48.8522],[2.39227,48.85218],[2.39227,48.85218],[2.39216,48.85216],[2.39208,48.85214],[2.39202,48.85213],[2.39189,48.85211],[2.39185,48.8521],[2.39185,48.8521],[2.39185,48.8521],[2.39185,48.8521],[2.39185,48.8521],[2.39185,48.8521],[2.39185,48.8521],[2.39185,48.8521],[2.39185,48.8521],[2.39184,48.85211],[2.39184,48.85211],[2.39184,48.85211],[2.39184,48.85211],[2.39184,48.85211],[2.39184,48.85211],[2.39184,48.85211],[2.39184,48.85211],[2.39183,48.85211],[2.39183,48.85211],[2.39173,48.85209],[2.39183,48.85215],[2.39187,48.85216],[2.39187,48.85216],[2.39187,48.85216],[2.39194,48.85217],[2.392,48.85218],[2.39213,48.85221],[2.39234,48.85225],[2.39237,48.8522]],"quartier":"Sainte-Marguerite","lengthM":48,"story":"Anciennement quartier de cultures maraîchères."},{"kind":"street","id":"v:11:13062","name":"impasse des Primevères","arr":11,"lat":48.85883,"lng":2.36953,"themes":["pedestrian"],"shape":[[2.36918,48.85872],[2.36905,48.85868],[2.36904,48.85871],[2.36928,48.85877],[2.3694,48.8588],[2.36937,48.85884],[2.36975,48.85894],[2.36994,48.85899],[2.37013,48.85904],[2.37017,48.85898],[2.36973,48.85886],[2.36973,48.85886],[2.36972,48.85886],[2.36957,48.85882],[2.36951,48.8588],[2.36929,48.85874],[2.36918,48.85872]],"quartier":"Saint-Ambroise","lengthM":140,"story":"Cette voie était autrefois bordée de jardins.","image":{"provider":"panoramax","id":"b629bb7e-aa1d-4516-97bd-b805899c27b5","lat":48.85896,"lng":2.37016,"sequenceId":"0c086e9f-9640-467a-a774-453bd68e2fbe"}},{"kind":"street","id":"v:11:13890","name":"impasse des Trois Soeurs","arr":11,"lat":48.85867,"lng":2.37728,"themes":[],"shape":[[2.37737,48.8589],[2.37741,48.85884],[2.37742,48.85883],[2.37743,48.85882],[2.37745,48.85879],[2.37746,48.85878],[2.37747,48.85876],[2.37756,48.85864],[2.37748,48.85861],[2.37729,48.85854],[2.37707,48.85847],[2.37675,48.85836],[2.37672,48.8584],[2.37687,48.85845],[2.377,48.8585],[2.37705,48.85852],[2.3771,48.85853],[2.37715,48.85855],[2.37721,48.85857],[2.37729,48.8586],[2.37743,48.85865],[2.37743,48.85865],[2.37746,48.85866],[2.37747,48.85868],[2.37743,48.85875],[2.37736,48.85885],[2.37734,48.85887],[2.37732,48.85886],[2.37731,48.85887],[2.37737,48.8589]],"quartier":"Roquette","lengthM":90,"story":"Dû à un lavoir dit des Trois Soeurs.","image":{"provider":"panoramax","id":"5669b28b-5c50-4198-8831-18f59339a6c8","lat":48.85851,"lng":2.37707,"sequenceId":"f5434798-e04d-487d-8224-7a2200760b7b"}},{"kind":"street","id":"v:11:9533","name":"impasse du Bureau","arr":11,"lat":48.85275,"lng":2.3946,"themes":[],"shape":[[2.3943,48.85332],[2.39473,48.85264],[2.39481,48.85265],[2.39481,48.85264],[2.39483,48.85262],[2.39484,48.8526],[2.39484,48.8526],[2.39485,48.85257],[2.39486,48.85255],[2.39479,48.85253],[2.39464,48.8525],[2.39463,48.85252],[2.39457,48.8526],[2.39456,48.8526],[2.39454,48.85264],[2.39455,48.85264],[2.39453,48.85268],[2.39436,48.85294],[2.3944,48.85295],[2.39432,48.85308],[2.39422,48.85325],[2.3943,48.85332]],"quartier":"Sainte-Marguerite","lengthM":100,"story":"Voisinage du passage du Bureau."},{"kind":"street","id":"v:11:10789","name":"impasse Franchemont","arr":11,"lat":48.85339,"lng":2.38355,"themes":[],"shape":[[2.38334,48.85332],[2.38333,48.85327],[2.38307,48.85337],[2.3833,48.8534],[2.38379,48.85349],[2.38392,48.85351],[2.38395,48.85342],[2.38383,48.8534],[2.38359,48.85336],[2.38334,48.85332]],"quartier":"Sainte-Marguerite","lengthM":60,"story":"M. Franchemont, propriétaire du terrain sur lequel la voie a été ouverte."},{"kind":"street","id":"v:11:11547","name":"impasse Joudrier","arr":11,"lat":48.85464,"lng":2.39522,"themes":[],"shape":[[2.3955,48.8547],[2.39547,48.85469],[2.39537,48.85466],[2.39533,48.85465],[2.3953,48.85464],[2.3951,48.85458],[2.39505,48.85457],[2.39463,48.85445],[2.39461,48.85447],[2.3946,48.85449],[2.39519,48.85467],[2.39528,48.85469],[2.39531,48.85471],[2.39533,48.85471],[2.39544,48.85474],[2.39545,48.85473],[2.39547,48.85473],[2.3955,48.8547]],"quartier":"Sainte-Marguerite","lengthM":70,"story":"M. Joudrier, propriétaire.","image":{"provider":"panoramax","id":"dfce1eb8-d957-44fd-a74b-94e8297d6107","lat":48.85408,"lng":2.39496,"sequenceId":"5a580b72-5884-4a79-a535-6aa81afa9f27"}},{"kind":"street","id":"v:11:11672","name":"impasse Lamier","arr":11,"lat":48.85775,"lng":2.38895,"themes":[],"shape":[[2.38914,48.85749],[2.38903,48.85747],[2.38901,48.85751],[2.38898,48.85756],[2.389,48.85756],[2.38896,48.85763],[2.38893,48.85769],[2.3889,48.85774],[2.38885,48.85785],[2.38878,48.85798],[2.38869,48.85815],[2.38869,48.85815],[2.38866,48.85821],[2.38874,48.85823],[2.38882,48.85807],[2.38888,48.85796],[2.38897,48.85778],[2.38907,48.85761],[2.38908,48.85758],[2.38911,48.85757],[2.38912,48.85754],[2.38912,48.85754],[2.38912,48.85754],[2.38914,48.85749]],"quartier":"Roquette","lengthM":90,"story":"M. Lamier, propriétaire.","image":{"provider":"panoramax","id":"9fc84037-c71f-404b-b6c3-df5bc48b4e07","lat":48.85823,"lng":2.38868,"sequenceId":"05a8a27d-c3e1-4e35-b857-3b5c84ce2b7b"}},{"kind":"street","id":"v:11:12376","name":"impasse Morlet","arr":11,"lat":48.85111,"lng":2.39551,"themes":[],"shape":[[2.39563,48.85089],[2.39558,48.85088],[2.39555,48.85095],[2.39554,48.85098],[2.39554,48.85098],[2.39546,48.85119],[2.39539,48.85124],[2.39539,48.85124],[2.39542,48.85129],[2.39538,48.85142],[2.39538,48.85143],[2.39542,48.85144],[2.39559,48.85101],[2.39559,48.851],[2.3956,48.85099],[2.39559,48.85099],[2.39563,48.85089]],"quartier":"Sainte-Marguerite","lengthM":100,"story":"M. Morlet, propriétaire."},{"kind":"street","id":"v:11:12890","name":"impasse Piver","arr":11,"lat":48.87017,"lng":2.37465,"themes":[],"shape":[[2.37468,48.87022],[2.37473,48.87015],[2.37471,48.87015],[2.37457,48.8701],[2.37453,48.87015],[2.3746,48.87018],[2.37467,48.8702],[2.37468,48.87022]],"quartier":"Folie-Méricourt","lengthM":15,"story":"M. Piver, propriétaire.","image":{"provider":"panoramax","id":"b64f7200-76cc-44a4-8980-1b091a163e97","lat":48.87008,"lng":2.37438,"sequenceId":"c0799e3c-b669-4abe-9c7f-27bc78f9acbd"}},{"kind":"street","id":"v:11:12956","name":"impasse Popincourt","arr":11,"lat":48.85907,"lng":2.37677,"themes":[],"shape":[[2.37708,48.85915],[2.37681,48.85906],[2.37664,48.859],[2.37647,48.85894],[2.37634,48.8589],[2.37631,48.85893],[2.37645,48.85898],[2.37653,48.859],[2.37659,48.85902],[2.37658,48.85903],[2.37663,48.85905],[2.37684,48.85912],[2.37684,48.85911],[2.37706,48.85918],[2.37706,48.85918],[2.37708,48.85916],[2.37708,48.85916],[2.37708,48.85916],[2.37708,48.85915]],"quartier":"Roquette","lengthM":70,"story":"Voisinage de la rue Popincourt. Manoir de Jean de Popincourt, premier président du Parlement sous Charles VI.","image":{"provider":"panoramax","id":"1dc8062d-e43f-4dc5-b27b-5bbb5048e7ce","lat":48.85901,"lng":2.37659,"sequenceId":"d78d30c0-6bbb-4695-9f46-2a587dee7650"}},{"kind":"street","id":"v:11:13106","name":"impasse Questre","arr":11,"lat":48.86808,"lng":2.38098,"themes":[],"shape":[[2.38077,48.86797],[2.38069,48.86793],[2.38068,48.86794],[2.38066,48.86795],[2.38066,48.86796],[2.38072,48.86798],[2.38076,48.868],[2.38098,48.86809],[2.38099,48.8681],[2.38102,48.86812],[2.38105,48.86813],[2.38112,48.86816],[2.38115,48.86817],[2.3812,48.86819],[2.38126,48.86822],[2.38126,48.86824],[2.38131,48.8682],[2.38123,48.86816],[2.38115,48.86813],[2.3811,48.86811],[2.38105,48.86809],[2.38102,48.86807],[2.381,48.86806],[2.38093,48.86804],[2.38087,48.86802],[2.38077,48.86797]],"quartier":"Folie-Méricourt","lengthM":55,"story":"M. Questre, propriétaire.","image":{"provider":"panoramax","id":"da3efb46-eb19-4176-978d-c7145b7852d6","lat":48.86826,"lng":2.38126,"sequenceId":"04617823-5811-4837-b047-1bcb2f2b58d8"}},{"kind":"street","id":"v:11:13677","name":"impasse Saint-Sébastien","arr":11,"lat":48.86111,"lng":2.3707,"themes":[],"shape":[[2.3708,48.8611],[2.37057,48.86104],[2.37046,48.86101],[2.37046,48.86101],[2.37043,48.86097],[2.37035,48.86103],[2.37044,48.86106],[2.37044,48.86106],[2.37054,48.86109],[2.37054,48.86108],[2.37057,48.86109],[2.37066,48.86111],[2.37081,48.86115],[2.37086,48.86117],[2.37091,48.86118],[2.37107,48.86122],[2.37132,48.86129],[2.37135,48.86124],[2.3708,48.8611]],"quartier":"Saint-Ambroise","lengthM":85,"story":"Voisinage de la rue Saint-Sébastien.","image":{"provider":"panoramax","id":"35c1c283-8c36-410d-a979-f1f6b2fb35c5","lat":48.86146,"lng":2.37041,"sequenceId":"fd6a8507-4dae-4900-85ab-001b99375b5d"}},{"kind":"street","id":"v:11:13903","name":"impasse Truillot","arr":11,"lat":48.86026,"lng":2.37431,"themes":[],"shape":[[2.37422,48.86021],[2.37386,48.86012],[2.37381,48.86011],[2.37381,48.8601],[2.3738,48.8601],[2.37374,48.86008],[2.37373,48.86009],[2.37372,48.86009],[2.3737,48.86008],[2.3737,48.86009],[2.37345,48.86003],[2.37344,48.86005],[2.37343,48.86008],[2.37379,48.86017],[2.37384,48.86018],[2.37384,48.86017],[2.37427,48.86028],[2.37428,48.86028],[2.37471,48.86039],[2.37483,48.86042],[2.37505,48.86047],[2.37521,48.86051],[2.37522,48.86051],[2.37522,48.86052],[2.37523,48.86052],[2.37523,48.86053],[2.37523,48.86053],[2.37527,48.86048],[2.37492,48.86039],[2.37473,48.86035],[2.37459,48.86031],[2.3744,48.86027],[2.3743,48.86024],[2.37421,48.86022],[2.37422,48.86021]],"quartier":"Saint-Ambroise","lengthM":143,"story":"M. Truillot, propriétaire."},{"kind":"street","id":"v:11:15117","name":"jardin Jane Avril","arr":11,"lat":48.86641,"lng":2.38343,"themes":[],"shape":[[2.38309,48.86665],[2.38343,48.86674],[2.38354,48.8665],[2.3836,48.8664],[2.3836,48.86639],[2.3836,48.86638],[2.3836,48.86636],[2.3836,48.86635],[2.3836,48.86634],[2.38359,48.86633],[2.38357,48.86632],[2.38355,48.86631],[2.38354,48.8663],[2.38352,48.8663],[2.3835,48.8663],[2.38348,48.8663],[2.38346,48.8663],[2.38344,48.86631],[2.38343,48.86631],[2.38341,48.86632],[2.38336,48.86637],[2.3833,48.86642],[2.38324,48.86647],[2.3832,48.86652],[2.38316,48.86657],[2.38312,48.86661],[2.38309,48.86665]],"quartier":"Père-Lachaise","story":"Jane Louise Beaudon (Paris, 1868-Paris, 1943) célèbre danseuse du Moulin Rouge de la Belle-Epoque qui fut immortalisée par le peintre Toulouse-Lautrec.","image":{"provider":"panoramax","id":"22d6e8f2-0400-4824-a162-96050b34128c","lat":48.86623,"lng":2.3835,"sequenceId":"a42106ae-8cff-484b-bb47-38a1a011c7d0"}},{"kind":"street","id":"v:11:8873","name":"passage Alexandrine","arr":11,"lat":48.85598,"lng":2.38735,"themes":["passages","pedestrian"],"shape":[[2.38676,48.85581],[2.38656,48.85576],[2.38651,48.85581],[2.38683,48.85589],[2.38696,48.85592],[2.38704,48.85594],[2.3871,48.85595],[2.38718,48.85597],[2.38732,48.85601],[2.38746,48.85605],[2.38759,48.85608],[2.3882,48.85623],[2.38822,48.85618],[2.38803,48.85613],[2.38799,48.85612],[2.38793,48.85611],[2.38783,48.85608],[2.38769,48.85605],[2.38765,48.85604],[2.38754,48.85601],[2.3874,48.85597],[2.38727,48.85594],[2.38701,48.85588],[2.38689,48.85584],[2.38676,48.85581]],"quartier":"Roquette","lengthM":132,"story":"Alexandrine, prénom de la fille de M. Lepeu, propriétaire des terrains sur lesquels cette voie a été ouverte.","image":{"provider":"panoramax","id":"fba0c13e-e79a-4368-88fc-e535656a8655","lat":48.85621,"lng":2.38822,"sequenceId":"05a8a27d-c3e1-4e35-b857-3b5c84ce2b7b"}},{"kind":"street","id":"v:11:9187","name":"passage Basfroi","arr":11,"lat":48.85549,"lng":2.37811,"themes":["passages"],"shape":[[2.37851,48.85566],[2.37844,48.85555],[2.37841,48.85557],[2.37831,48.85554],[2.37833,48.85552],[2.37828,48.85551],[2.37818,48.85548],[2.37817,48.85549],[2.37801,48.85544],[2.3779,48.8554],[2.3778,48.85537],[2.37764,48.85532],[2.37763,48.8553],[2.37758,48.85538],[2.3776,48.85537],[2.37818,48.85556],[2.37824,48.85557],[2.3784,48.85563],[2.37851,48.85566]],"quartier":"Roquette","lengthM":70,"story":"Voisinage de la rue Basfroi.","image":{"provider":"panoramax","id":"984219a3-d0c0-47e3-865e-82ce1d51ec42","lat":48.85544,"lng":2.37791,"sequenceId":"d78d30c0-6bbb-4695-9f46-2a587dee7650"}},{"kind":"street","id":"v:11:9322","name":"passage Beslay","arr":11,"lat":48.86349,"lng":2.37441,"themes":["passages"],"shape":[[2.37535,48.86394],[2.37545,48.86381],[2.37542,48.86382],[2.37541,48.86382],[2.37538,48.86383],[2.37534,48.86384],[2.37518,48.86377],[2.37481,48.86363],[2.37468,48.86359],[2.37442,48.86348],[2.37408,48.86334],[2.37407,48.86334],[2.37403,48.86332],[2.37358,48.86312],[2.37361,48.86308],[2.37348,48.86302],[2.37335,48.86296],[2.37325,48.86291],[2.37324,48.86291],[2.37318,48.86296],[2.37332,48.86303],[2.37398,48.86334],[2.3741,48.8634],[2.37415,48.86343],[2.37414,48.86343],[2.37426,48.86348],[2.3745,48.86359],[2.37453,48.86361],[2.37463,48.86366],[2.37474,48.86371],[2.37487,48.86376],[2.37494,48.86379],[2.37511,48.86385],[2.37535,48.86394]],"quartier":"Saint-Ambroise","lengthM":193,"story":"Nom de propriétaire.","image":{"provider":"panoramax","id":"01abe37b-7df5-4aaf-ae1e-012c0d0295e2","lat":48.86302,"lng":2.37316,"sequenceId":"012a629e-ac4b-4c80-99c3-c62453321189"}},{"kind":"street","id":"v:11:9531","name":"passage Bullourde","arr":11,"lat":48.85465,"lng":2.37679,"themes":["passages"],"shape":[[2.37643,48.8545],[2.37639,48.85448],[2.37638,48.85449],[2.37622,48.85443],[2.37619,48.85447],[2.37636,48.85452],[2.37634,48.85454],[2.37659,48.85462],[2.37657,48.85465],[2.37654,48.85467],[2.37697,48.85479],[2.37737,48.85491],[2.37761,48.85498],[2.37764,48.85505],[2.3778,48.85491],[2.37729,48.85476],[2.3773,48.85474],[2.3771,48.85468],[2.3765,48.85451],[2.37648,48.8545],[2.37643,48.8545]],"quartier":"Roquette","lengthM":124,"story":"M. Bullourde, propriétaire.","image":{"provider":"panoramax","id":"6f3550d8-582a-4495-987a-1db8727c4584","lat":48.85473,"lng":2.37709,"sequenceId":"f5434798-e04d-487d-8224-7a2200760b7b"}},{"kind":"street","id":"v:11:9757","name":"passage Charles Dallery","arr":11,"lat":48.85465,"lng":2.37792,"themes":["passages"],"shape":[[2.37803,48.85456],[2.37787,48.8547],[2.3778,48.85491],[2.37764,48.85506],[2.37763,48.85518],[2.37755,48.8553],[2.37723,48.85572],[2.37721,48.85575],[2.37718,48.85579],[2.37716,48.8558],[2.37711,48.85588],[2.37709,48.8559],[2.37679,48.85628],[2.37699,48.85614],[2.37723,48.85581],[2.37763,48.8553],[2.37798,48.85486],[2.37803,48.85456],[2.37802,48.85428],[2.37803,48.85456],[2.37819,48.85442],[2.37838,48.85406],[2.37846,48.85392],[2.37854,48.85377],[2.37862,48.85363],[2.37869,48.8535],[2.37875,48.85337],[2.37852,48.85344],[2.37859,48.85345],[2.37856,48.85349],[2.37841,48.85378],[2.37839,48.85381],[2.37837,48.85385],[2.37832,48.85394],[2.37809,48.85428],[2.37802,48.85428]],"quartier":"Roquette","lengthM":360,"story":"Charles Dallery (1754-1835), célèbre par ses travaux sur la navigation à vapeur.","image":{"provider":"panoramax","id":"6d26185d-d74f-4174-a3a5-b8366c348b98","lat":48.85441,"lng":2.37797,"sequenceId":"ecbbffec-8c14-413b-a389-8b40321cb858"}},{"kind":"street","id":"v:11:10072","name":"passage Courtois","arr":11,"lat":48.85698,"lng":2.38697,"themes":["passages"],"shape":[[2.38726,48.8571],[2.38732,48.85708],[2.38787,48.85721],[2.3879,48.85719],[2.38812,48.85724],[2.38813,48.85723],[2.3882,48.85725],[2.38822,48.8572],[2.38754,48.85704],[2.38739,48.85701],[2.38728,48.85699],[2.38723,48.85697],[2.38723,48.85697],[2.3872,48.85697],[2.38715,48.85695],[2.38709,48.85694],[2.38689,48.85689],[2.38668,48.85684],[2.38632,48.85676],[2.38621,48.85674],[2.38604,48.8567],[2.38589,48.85666],[2.38582,48.85665],[2.38569,48.85662],[2.38565,48.85667],[2.38583,48.85671],[2.38597,48.85674],[2.3861,48.85677],[2.38679,48.85693],[2.38695,48.85697],[2.38714,48.85701],[2.38716,48.85704],[2.3871,48.85714],[2.3871,48.8575],[2.38707,48.85746],[2.38726,48.8571]],"quartier":"Roquette","lengthM":260,"story":"M. Courtois, propriétaire.","image":{"provider":"panoramax","id":"b7633549-65d8-494a-bc37-0100e9e82f21","lat":48.8568,"lng":2.38631,"sequenceId":"05a8a27d-c3e1-4e35-b857-3b5c84ce2b7b"}},{"kind":"street","id":"v:11:9078","name":"passage de l'Asile","arr":11,"lat":48.85967,"lng":2.37523,"themes":["passages"],"shape":[[2.37478,48.85956],[2.37477,48.85954],[2.37474,48.85959],[2.37499,48.85965],[2.37521,48.8597],[2.37546,48.85975],[2.3755,48.85975],[2.37551,48.85975],[2.37551,48.85976],[2.37565,48.85978],[2.37566,48.85974],[2.37553,48.85972],[2.37551,48.85972],[2.37545,48.85971],[2.37533,48.85968],[2.37523,48.85967],[2.37509,48.85963],[2.37503,48.85962],[2.37495,48.8596],[2.37478,48.85956]],"quartier":"Saint-Ambroise","lengthM":70,"story":"En souvenir d'un des premiers établissements créés par la Ville de Paris avant les écoles maternelles.","image":{"provider":"panoramax","id":"ec2bab85-f6fc-4620-bbfc-ec695d341c5f","lat":48.85942,"lng":2.37576,"sequenceId":"f5434798-e04d-487d-8224-7a2200760b7b"}},{"kind":"street","id":"v:11:9387","name":"passage de la Bonne Graine","arr":11,"lat":48.85211,"lng":2.37691,"themes":["passages"],"shape":[[2.37685,48.85252],[2.37698,48.85247],[2.37708,48.85245],[2.37717,48.85245],[2.3772,48.85235],[2.37711,48.85207],[2.37706,48.85197],[2.37702,48.85176],[2.3769,48.85145],[2.37689,48.85138],[2.37682,48.85122],[2.37681,48.85131],[2.37682,48.85133],[2.3769,48.85158],[2.37694,48.85181],[2.377,48.85205],[2.37705,48.85223],[2.37685,48.85252],[2.37675,48.85264],[2.37685,48.85252],[2.37672,48.85257],[2.3766,48.8526],[2.37664,48.85267],[2.37675,48.85264]],"quartier":"Sainte-Marguerite","lengthM":145,"story":"On faisait autrefois le commerce des grains dans cette voie.","image":{"provider":"panoramax","id":"ad4953ee-f45f-404f-b1c8-0007b627c4d9","lat":48.85132,"lng":2.37683,"sequenceId":"f5434798-e04d-487d-8224-7a2200760b7b"}},{"kind":"street","id":"v:11:10746","name":"passage de la Folie-Regnault","arr":11,"lat":48.86073,"lng":2.38712,"themes":["passages","pedestrian"],"shape":[[2.38664,48.86061],[2.38655,48.86059],[2.38638,48.86056],[2.38631,48.86054],[2.38629,48.86052],[2.38624,48.86061],[2.38627,48.8606],[2.38638,48.86062],[2.38646,48.86064],[2.38698,48.86075],[2.38753,48.86086],[2.3877,48.8609],[2.38788,48.86093],[2.38808,48.86098],[2.38811,48.86092],[2.38795,48.86088],[2.38789,48.86087],[2.38782,48.86085],[2.38777,48.86084],[2.38769,48.86083],[2.38756,48.8608],[2.38743,48.86077],[2.3873,48.86075],[2.38719,48.86072],[2.38702,48.86069],[2.38691,48.86067],[2.38685,48.86065],[2.38672,48.86063],[2.38664,48.86061]],"quartier":"Roquette","lengthM":138,"story":"Voisinage de la rue de la Folie-Regnault.","image":{"provider":"panoramax","id":"b0c014f4-2926-4f99-a03e-c5b1b15bacd7","lat":48.86096,"lng":2.38811,"sequenceId":"05a8a27d-c3e1-4e35-b857-3b5c84ce2b7b"}},{"kind":"street","id":"v:11:10750","name":"passage de la Fonderie","arr":11,"lat":48.86636,"lng":2.37608,"themes":["passages"],"shape":[[2.37558,48.86696],[2.37597,48.86645],[2.376,48.8664],[2.37619,48.86644],[2.37628,48.86654],[2.37626,48.86649],[2.37625,48.86648],[2.37625,48.86647],[2.37625,48.86646],[2.37626,48.86645],[2.37628,48.86644],[2.37629,48.86644],[2.37632,48.86645],[2.37635,48.86646],[2.37638,48.86641],[2.37626,48.86636],[2.37629,48.86632],[2.37627,48.86628],[2.3762,48.86632],[2.37613,48.8662],[2.37616,48.86617],[2.37621,48.86606],[2.37622,48.86604],[2.3762,48.866],[2.3761,48.86602],[2.37596,48.866],[2.37591,48.86598],[2.3759,48.86603],[2.37583,48.86615],[2.37585,48.86621],[2.37594,48.86622],[2.37596,48.86629],[2.37592,48.86631],[2.37566,48.8667],[2.37539,48.8671],[2.37558,48.86696]],"quartier":"Folie-Méricourt","lengthM":145,"story":"Quartier industriel.","image":{"provider":"panoramax","id":"41d7907f-4876-4bcc-9134-ce2ff2fd3cf2","lat":48.86663,"lng":2.37644,"sequenceId":"4679a020-014b-479a-81cb-6b01a47b4416"}},{"kind":"street","id":"v:11:11995","name":"passage de la Main d'Or","arr":11,"lat":48.85197,"lng":2.37805,"themes":["passages"],"shape":[[2.37822,48.85233],[2.37821,48.8523],[2.3782,48.85228],[2.37821,48.85228],[2.37817,48.85226],[2.37806,48.85194],[2.37796,48.85169],[2.37795,48.85159],[2.37792,48.85149],[2.37787,48.85141],[2.37785,48.85136],[2.37782,48.85128],[2.37781,48.85128],[2.37777,48.85118],[2.37776,48.85115],[2.37775,48.85113],[2.37773,48.85108],[2.3777,48.85101],[2.37769,48.85108],[2.37769,48.85108],[2.37791,48.85166],[2.37784,48.85167],[2.37787,48.85176],[2.37792,48.85186],[2.37805,48.85223],[2.37821,48.85268],[2.37821,48.85269],[2.37841,48.85299],[2.37843,48.85321],[2.37854,48.85323],[2.37851,48.85282],[2.3785,48.85272],[2.37831,48.85264],[2.37831,48.85264],[2.3783,48.85255],[2.37822,48.85233]],"quartier":"Sainte-Marguerite","lengthM":250,"story":"Enseigne d'une auberge.","image":{"provider":"panoramax","id":"90f85e27-968f-4989-ad40-f13be3c63706","lat":48.85098,"lng":2.37764,"sequenceId":"4c96a549-9a27-494b-827a-075555462718"}},{"kind":"street","id":"v:11:12785","name":"passage de la Petite Voirie","arr":11,"lat":48.86433,"lng":2.37396,"themes":["passages"],"shape":[[2.37398,48.86432],[2.37397,48.86432],[2.37397,48.86432],[2.37379,48.86426],[2.37376,48.86429],[2.37384,48.86431],[2.37394,48.86435],[2.37405,48.86439],[2.37408,48.86436],[2.37407,48.86436],[2.37407,48.86436],[2.37398,48.86432]],"quartier":"Saint-Ambroise","lengthM":23,"story":"Il avait été provisoirement dénommé K/11."},{"kind":"street","id":"v:11:12209","name":"passage de Ménilmontant","arr":11,"lat":48.86518,"lng":2.38291,"themes":["passages"],"shape":[[2.38303,48.86517],[2.3829,48.86513],[2.38262,48.86502],[2.38217,48.86487],[2.38178,48.86473],[2.38168,48.8647],[2.38183,48.86481],[2.38193,48.86485],[2.38204,48.86488],[2.38201,48.86492],[2.38209,48.86496],[2.38213,48.86498],[2.38221,48.86501],[2.38225,48.86502],[2.38236,48.86506],[2.38238,48.86506],[2.38273,48.86513],[2.38273,48.86513],[2.38313,48.86526],[2.38326,48.86531],[2.38331,48.86533],[2.38335,48.86534],[2.38349,48.86539],[2.38369,48.86546],[2.38378,48.86549],[2.38383,48.86551],[2.38394,48.86555],[2.38405,48.86559],[2.38406,48.86561],[2.38412,48.86555],[2.38351,48.86534],[2.38344,48.86531],[2.3834,48.8653],[2.38327,48.86525],[2.38314,48.86521],[2.38303,48.86517]],"quartier":"Saint-Ambroise","lengthM":190,"story":"Voisinage du boulevard de Ménilmontant."},{"kind":"street","id":"v:11:10416","name":"passage des Eaux Vives","arr":11,"lat":48.86072,"lng":2.37143,"themes":["passages"],"shape":[[2.37206,48.86105],[2.37214,48.86099],[2.372,48.86098],[2.37182,48.8609],[2.37178,48.86092],[2.37165,48.86069],[2.37185,48.86072],[2.37188,48.86073],[2.37211,48.86079],[2.37187,48.86069],[2.37167,48.86065],[2.37165,48.86063],[2.37163,48.86064],[2.37139,48.8606],[2.37132,48.86055],[2.37129,48.86046],[2.37126,48.86033],[2.37116,48.86044],[2.37075,48.86039],[2.37108,48.86046],[2.37124,48.8606],[2.37118,48.86071],[2.37113,48.86078],[2.37075,48.86068],[2.37065,48.86063],[2.37064,48.86057],[2.3708,48.86073],[2.37104,48.86092],[2.37113,48.86082],[2.37116,48.86081],[2.37134,48.86068],[2.3715,48.86068],[2.37146,48.86089],[2.37142,48.86102],[2.37151,48.8609],[2.37206,48.86105]],"quartier":"Saint-Ambroise","story":"Existence d'une vasque au centre de ce passage. Les commerces desservis sont essentiellement consacrés au sanitaire."},{"kind":"street","id":"v:11:13735","name":"passage des Taillandiers","arr":11,"lat":48.85383,"lng":2.37478,"themes":["passages"],"shape":[[2.37455,48.8537],[2.37446,48.85364],[2.3744,48.85368],[2.37442,48.85369],[2.37463,48.85382],[2.37477,48.85391],[2.37478,48.85391],[2.37531,48.85402],[2.37534,48.85398],[2.37504,48.85391],[2.37498,48.8539],[2.37492,48.85388],[2.37489,48.85388],[2.37482,48.85385],[2.37471,48.85381],[2.37468,48.85379],[2.37455,48.8537]],"quartier":"Roquette","lengthM":77,"story":"Voisinage de la rue des Taillandiers.","image":{"provider":"panoramax","id":"29e786ce-2d82-4436-b1b8-233a059dbf3e","lat":48.85401,"lng":2.37532,"sequenceId":"476a707c-5e98-4843-bebe-60bba6bf309f"}},{"kind":"street","id":"v:11:9534","name":"passage du Bureau","arr":11,"lat":48.85436,"lng":2.39385,"themes":["passages"],"shape":[[2.39542,48.85357],[2.39431,48.85333],[2.39422,48.85325],[2.39406,48.85348],[2.39396,48.85379],[2.39421,48.85339],[2.39442,48.85342],[2.39463,48.8535],[2.39494,48.85356],[2.39546,48.85366],[2.39613,48.85388],[2.39542,48.85357],[2.3926,48.85563],[2.39289,48.8552],[2.39306,48.85497],[2.39309,48.85494],[2.39314,48.85493],[2.39321,48.85494],[2.39339,48.85493],[2.39267,48.85538],[2.39254,48.85559],[2.3924,48.85577],[2.39244,48.85585],[2.3926,48.85563],[2.39406,48.85447],[2.39404,48.85444],[2.39404,48.8544],[2.39412,48.85421],[2.39392,48.85397],[2.39396,48.85393],[2.39389,48.85389],[2.39362,48.8541],[2.39393,48.85422],[2.39395,48.85426],[2.39394,48.85462],[2.39406,48.85447]],"quartier":"Sainte-Marguerite","lengthM":511,"story":"Voisinage d'un ancien bureau d'octroi."},