{"arr":15,"streets":[{"kind":"street","id":"v:15:14923","name":"allée de la Bertelotte","arr":15,"lat":48.83017,"lng":2.27461,"themes":[],"shape":[[2.2744,48.83033],[2.27442,48.83032],[2.27442,48.83032],[2.27446,48.83031],[2.27445,48.8303],[2.2745,48.83028],[2.27449,48.83027],[2.27451,48.83026],[2.27454,48.83025],[2.27458,48.83024],[2.27459,48.83023],[2.27461,48.83024],[2.27462,48.83024],[2.27457,48.83018],[2.27473,48.83007],[2.27526,48.82969],[2.27523,48.82967],[2.2751,48.82977],[2.27486,48.82994],[2.27474,48.83003],[2.27453,48.83018],[2.27451,48.83019],[2.27452,48.8302],[2.27455,48.83022],[2.2744,48.83029],[2.27438,48.8303],[2.2744,48.83033]],"quartier":"Javel","lengthM":75,"story":"Référence au chantier agricole dit \"de la Bertelotte\", faisant partie des nombreux chantiers cultivés, anciennement développés dans le 15ème arrondissement."},{"kind":"street","id":"v:15:10120","name":"allée des Cygnes","arr":15,"lat":48.85265,"lng":2.28342,"themes":["pedestrian"],"shape":[[2.28744,48.85563],[2.28754,48.85547],[2.28743,48.8554],[2.28641,48.85469],[2.2855,48.85404],[2.28454,48.85336],[2.2836,48.8527],[2.28316,48.85237],[2.28304,48.85234],[2.28295,48.85223],[2.28272,48.85207],[2.28205,48.85162],[2.28118,48.851],[2.28114,48.85091],[2.2811,48.85086],[2.28102,48.85078],[2.28092,48.85069],[2.28046,48.85036],[2.28057,48.85083],[2.28079,48.85096],[2.28092,48.85102],[2.28099,48.85105],[2.28105,48.85106],[2.28142,48.85131],[2.2822,48.85186],[2.28273,48.85227],[2.28277,48.85226],[2.28294,48.85236],[2.2833,48.85263],[2.28365,48.85287],[2.28435,48.85337],[2.28512,48.85391],[2.2861,48.8546],[2.28715,48.85534],[2.28744,48.85554],[2.28744,48.85563]],"quartier":"Grenelle","lengthM":850,"story":"Voisinage de l'ancienne île des Cygnes, réunie au champ de Mars à la fin du XVIIIe siècle.","image":{"provider":"panoramax","id":"841f143e-5fba-4324-bf1b-07ad75c2e113","lat":48.85072,"lng":2.28067,"sequenceId":"77afbfb0-03e2-43c5-8690-d12c6b01d7cd"}},{"kind":"street","id":"v:15:10845","name":"allée des Frères Voisin","arr":15,"lat":48.8284,"lng":2.27286,"themes":[],"shape":[[2.2735,48.82865],[2.27347,48.82864],[2.27329,48.82858],[2.27273,48.8284],[2.27269,48.82839],[2.27267,48.82838],[2.27264,48.82836],[2.27262,48.82835],[2.27261,48.82833],[2.27245,48.82814],[2.27244,48.82813],[2.27243,48.8281],[2.27243,48.82808],[2.27244,48.82805],[2.27244,48.82803],[2.27244,48.82803],[2.27234,48.82812],[2.27236,48.82814],[2.27241,48.82817],[2.27242,48.82818],[2.27257,48.82837],[2.27258,48.82838],[2.27259,48.82839],[2.27263,48.82841],[2.27264,48.82842],[2.27268,48.82844],[2.27339,48.82867],[2.2734,48.82867],[2.27341,48.82867],[2.27341,48.82868],[2.27342,48.82868],[2.27342,48.82869],[2.27342,48.8287],[2.27342,48.8287],[2.27352,48.82867],[2.2735,48.82865]],"quartier":"Javel","lengthM":121,"story":"Voisinage du boulevard des Frères Voisin.","image":{"provider":"panoramax","id":"8e4ad314-a45a-41fe-8bf9-0488e5e61be8","lat":48.82796,"lng":2.27242,"sequenceId":"d78d30c0-6bbb-4695-9f46-2a587dee7650"}},{"kind":"street","id":"v:15:9594","name":"allée du Capitaine Dronne","arr":15,"lat":48.84019,"lng":2.31844,"themes":[],"shape":[[2.3191,48.84084],[2.31918,48.8408],[2.3192,48.84082],[2.31924,48.8408],[2.31926,48.84081],[2.31936,48.84075],[2.31935,48.84074],[2.31935,48.84074],[2.31939,48.84072],[2.31937,48.84071],[2.31959,48.84059],[2.31883,48.84082],[2.31747,48.83968],[2.31749,48.83967],[2.31729,48.8395],[2.31767,48.83931],[2.31773,48.83931],[2.31779,48.83931],[2.31791,48.83929],[2.31797,48.83927],[2.31786,48.83911],[2.31769,48.8392],[2.31763,48.83923],[2.31739,48.83935],[2.31708,48.83951],[2.31718,48.83956],[2.31724,48.83962],[2.3173,48.83959],[2.31889,48.84094],[2.3189,48.84095],[2.31901,48.84089],[2.31902,48.84088],[2.31904,48.84086],[2.31906,48.84085],[2.31908,48.84085],[2.3191,48.84084]],"quartier":"Necker","lengthM":268,"story":"Raymond Dronne (Mayet, 1908-1991), docteur en droit, administrateur en Chef de la France d'outre-mer en 1939. Il commandait le premier détachement de la 2e division blindée, qui est entré dans Paris occupé, par la Porte de Gentilly, le 24 août 1944.","image":{"provider":"panoramax","id":"b2f80f92-deee-492a-b408-e01eff4f7ee4","lat":48.83922,"lng":2.31794,"sequenceId":"1329833c-a6d2-48fb-a8d8-a8fa95b891a0"}},{"kind":"street","id":"v:15:14730","name":"allée du Commandant Raynal","arr":15,"lat":48.84228,"lng":2.27862,"themes":[],"shape":[[2.27855,48.84215],[2.2785,48.84217],[2.27851,48.84218],[2.2785,48.84218],[2.2785,48.84218],[2.27851,48.84218],[2.27856,48.84225],[2.27857,48.84226],[2.27864,48.84235],[2.27863,48.84236],[2.27874,48.84248],[2.27875,48.84249],[2.27876,48.84249],[2.27882,48.84246],[2.27879,48.84243],[2.27868,48.8423],[2.27869,48.8423],[2.27865,48.84226],[2.27863,48.84223],[2.27862,48.84222],[2.27858,48.84218],[2.27856,48.84216],[2.27855,48.84215]],"quartier":"Javel","lengthM":40,"story":"Le commandant Raynal est l'officier qui défendit héroïquement le Fort de Vaux durant la bataille de Verdun, ne se rendant aux troupes allemandes qu'après 6 jours de siège et de combats acharnés (2 au 7 Juin 1916).","image":{"provider":"panoramax","id":"cfe32e24-e0d5-4c6e-932c-0dc23dcadff2","lat":48.84209,"lng":2.27848,"sequenceId":"5eb53234-a678-40fc-8d95-222ab0826ba1"}},{"kind":"street","id":"v:15:11058","name":"allée du Général Denain","arr":15,"lat":48.85206,"lng":2.29415,"themes":[],"shape":[[2.2933,48.85267],[2.29331,48.85266],[2.29332,48.85265],[2.2934,48.85257],[2.29474,48.8517],[2.29492,48.85158],[2.29518,48.85142],[2.29518,48.85142],[2.29517,48.85141],[2.29516,48.85141],[2.29517,48.8514],[2.29517,48.8514],[2.29522,48.85129],[2.29476,48.85159],[2.2948,48.85162],[2.29466,48.85171],[2.29457,48.85177],[2.29454,48.85178],[2.2943,48.85194],[2.29421,48.852],[2.29419,48.85202],[2.29398,48.85215],[2.29397,48.85216],[2.29395,48.85217],[2.29383,48.85225],[2.29382,48.85225],[2.29375,48.8523],[2.2937,48.85234],[2.29361,48.85239],[2.2936,48.8524],[2.29349,48.85247],[2.29347,48.85248],[2.29337,48.85255],[2.29322,48.85265],[2.29316,48.85275],[2.2933,48.85267]],"quartier":"Grenelle","lengthM":225,"story":"Victor Denain (Dax, 1880-Nice, 1952), aviateur militaire et homme politique français, ministre de l'air en 1934."},{"kind":"street","id":"v:15:15081","name":"allée Eugénie","arr":15,"lat":48.83493,"lng":2.29774,"themes":[],"shape":[[2.29798,48.83521],[2.29799,48.83521],[2.29795,48.83517],[2.298,48.83515],[2.29807,48.83512],[2.29798,48.83501],[2.29792,48.83504],[2.29786,48.83506],[2.29762,48.83477],[2.29783,48.8347],[2.29763,48.83449],[2.29741,48.83455],[2.29751,48.83469],[2.29754,48.83468],[2.29759,48.83473],[2.29752,48.83475],[2.29748,48.83476],[2.29755,48.83485],[2.29755,48.83485],[2.29759,48.8349],[2.2977,48.83504],[2.29773,48.83509],[2.29787,48.83526],[2.29798,48.83521]],"quartier":"Saint-Lambert","lengthM":85,"story":"Proximité de l'avenue Sainte-Eugénie."},{"kind":"street","id":"v:15:15116","name":"allée Irène Némirovsky","arr":15,"lat":48.84165,"lng":2.28356,"themes":["pedestrian"],"shape":[[2.28315,48.84185],[2.28316,48.84184],[2.28317,48.84185],[2.28343,48.84174],[2.28387,48.84157],[2.28414,48.84146],[2.28423,48.84142],[2.28433,48.84138],[2.28444,48.84134],[2.28462,48.84126],[2.28454,48.84117],[2.2842,48.84131],[2.28422,48.84133],[2.28412,48.84137],[2.28408,48.84139],[2.28393,48.84145],[2.28333,48.84169],[2.28331,48.84167],[2.28322,48.84171],[2.28262,48.84195],[2.28258,48.84197],[2.28265,48.84205],[2.28266,48.84204],[2.28286,48.84197],[2.28296,48.84192],[2.28306,48.84188],[2.28315,48.84185]],"quartier":"Javel","lengthM":169,"story":"Irina Leonidovna Nemirovskaïa (Kiev, 1903-Auschwitz, 1942) romancière russe de langue française.","image":{"provider":"panoramax","id":"ffe596a6-659d-44c8-98f2-f53ddb2a72cd","lat":48.8414,"lng":2.28416,"sequenceId":"cb3b248f-8416-4941-b4cc-884975c1e61f"}},{"kind":"street","id":"v:15:15091","name":"allée Isadora Duncan","arr":15,"lat":48.84235,"lng":2.28352,"themes":[],"shape":[[2.28388,48.84262],[2.28384,48.84258],[2.28378,48.84251],[2.28375,48.84248],[2.28317,48.84185],[2.28316,48.84184],[2.28315,48.84185],[2.28306,48.84188],[2.28331,48.84216],[2.28335,48.84214],[2.28337,48.84216],[2.28324,48.84221],[2.28327,48.84225],[2.2834,48.8422],[2.28342,48.84222],[2.28338,48.84223],[2.28338,48.84223],[2.28337,48.84223],[2.28338,48.84225],[2.28339,48.84224],[2.28369,48.84256],[2.28359,48.8426],[2.28361,48.84262],[2.28363,48.84262],[2.28363,48.84262],[2.28364,48.84262],[2.28384,48.84284],[2.28402,48.84276],[2.28391,48.84266],[2.28388,48.84262]],"quartier":"Javel","lengthM":114,"story":"Isadora Duncan (San Francisco(Etats-Unis), 1877-Nice, 1927) danseuse américaine.","image":{"provider":"panoramax","id":"3ca8ee77-b876-4c67-b061-6c6c01825a2d","lat":48.84217,"lng":2.28341,"sequenceId":"2fa5e541-cb29-4596-883e-bb421e52e9fb"}},{"kind":"street","id":"v:15:15080","name":"allée Joseph Récamier","arr":15,"lat":48.83532,"lng":2.29716,"themes":[],"shape":[[2.29676,48.83553],[2.29686,48.83548],[2.29689,48.83547],[2.29707,48.83539],[2.29705,48.83538],[2.2973,48.83527],[2.29761,48.83514],[2.29773,48.83509],[2.2977,48.83504],[2.29756,48.83509],[2.29669,48.83545],[2.29676,48.83553]],"quartier":"Saint-Lambert","lengthM":87,"story":"Joseph, Claude, Anthelme Récamier (Cressin-Rochefort-Ain, 1774-Paris, 1852), chirurgien, professeur au Collège de France, créateur de la gynécologie médicale et chirurgicale moderne. Chevalier de la Légion d'honneur.","image":{"provider":"panoramax","id":"b0a02b62-62d0-49aa-9531-a0558d2ac4b5","lat":48.83537,"lng":2.29768,"sequenceId":"a1e94e75-e914-403f-8bb4-153019167838"}},{"kind":"street","id":"v:15:11762","name":"allée Le Gramat","arr":15,"lat":48.84258,"lng":2.27882,"themes":[],"shape":[[2.27942,48.84227],[2.27928,48.84228],[2.27927,48.84228],[2.27924,48.84229],[2.27924,48.84229],[2.27918,48.84232],[2.27915,48.84233],[2.27909,48.84235],[2.27902,48.84238],[2.27902,48.84238],[2.27899,48.84239],[2.27898,48.84239],[2.27884,48.84245],[2.27882,48.84246],[2.27876,48.84249],[2.2789,48.84264],[2.27876,48.84269],[2.27856,48.84277],[2.27852,48.84279],[2.27849,48.8428],[2.2784,48.84284],[2.27827,48.84289],[2.27818,48.84293],[2.27817,48.84293],[2.27826,48.84302],[2.27826,48.84301],[2.27828,48.84295],[2.2783,48.84294],[2.27836,48.84292],[2.27896,48.84261],[2.27892,48.84257],[2.27896,48.8425],[2.27901,48.84248],[2.27903,48.84242],[2.27914,48.84238],[2.27942,48.84227]],"quartier":"Javel","lengthM":147,"story":"Voie créée dans l'îlot `Le Gramat` de la Zac `Citroën-Cévennes`. Elle avait été provisoirement dénommée BP/15.","image":{"provider":"panoramax","id":"ffe909a5-2a55-46b7-8e70-32245b076867","lat":48.84307,"lng":2.27821,"sequenceId":"1bb3cc7b-1d10-4d1c-8cb2-beff89f1b73b"}},{"kind":"street","id":"v:15:12087","name":"allée Marguerite Yourcenar","arr":15,"lat":48.85251,"lng":2.29446,"themes":[],"shape":[[2.29525,48.85199],[2.29524,48.85198],[2.29521,48.852],[2.29519,48.85201],[2.29386,48.85288],[2.29374,48.85293],[2.29373,48.85294],[2.29373,48.85294],[2.29372,48.85295],[2.29358,48.85303],[2.29357,48.85311],[2.2937,48.85303],[2.29376,48.85299],[2.29377,48.85298],[2.29389,48.8529],[2.294,48.85284],[2.29406,48.85279],[2.29408,48.85278],[2.29414,48.85274],[2.29435,48.8526],[2.2945,48.85251],[2.29455,48.85247],[2.29466,48.85241],[2.29471,48.85237],[2.29485,48.85228],[2.29486,48.85227],[2.29488,48.85226],[2.29504,48.85216],[2.29506,48.85214],[2.29507,48.85213],[2.29521,48.85204],[2.29528,48.852],[2.29526,48.85199],[2.29525,48.85199]],"quartier":"Grenelle","lengthM":172,"story":"Marguerite de Crayencour dite Marguerite Yourcenar (Bruxelles, 1903-île des Monts Déserts, 1987), romancier et essayiste française ; première femme élue à l'Académie française (1980)."},{"kind":"street","id":"v:15:15092","name":"allée Marianne Breslauer","arr":15,"lat":48.84201,"lng":2.28473,"themes":[],"shape":[[2.28423,48.84142],[2.28414,48.84146],[2.28468,48.84205],[2.28472,48.84209],[2.28471,48.84209],[2.28477,48.84216],[2.28477,48.84215],[2.28485,48.84223],[2.28496,48.84233],[2.28512,48.84226],[2.28511,48.84225],[2.28495,48.84207],[2.28487,48.8421],[2.28478,48.84201],[2.28423,48.84142]],"quartier":"Javel","lengthM":114,"story":"Marianne Breslauer (Berlin, 1909-Zurich, 2001) photographe allemande.","image":{"provider":"panoramax","id":"fe893665-ba1d-40c2-ad45-b621b44ffbeb","lat":48.84217,"lng":2.28486,"sequenceId":"cb3b248f-8416-4941-b4cc-884975c1e61f"}},{"kind":"street","id":"v:15:8837","name":"avenue Albert Bartholomé","arr":15,"lat":48.8284,"lng":2.29621,"themes":[],"shape":[[2.29348,48.82913],[2.29558,48.82881],[2.2969,48.82846],[2.29825,48.8281],[2.29955,48.8279],[2.30083,48.8277],[2.30078,48.82731],[2.30078,48.82737],[2.30075,48.82743],[2.30069,48.82748],[2.3006,48.82751],[2.30024,48.82757],[2.29832,48.82786],[2.29814,48.82789],[2.29795,48.82792],[2.29772,48.82799],[2.29678,48.82826],[2.29651,48.82835],[2.29623,48.82844],[2.29608,48.82849],[2.29594,48.82852],[2.29582,48.82854],[2.29513,48.82865],[2.29464,48.82872],[2.29445,48.82875],[2.29351,48.82894],[2.29289,48.82904],[2.29284,48.82904],[2.29277,48.82903],[2.2927,48.82901],[2.29266,48.82898],[2.29262,48.82895],[2.29259,48.82891],[2.29259,48.82886],[2.29287,48.82939],[2.29348,48.82913]],"quartier":"Saint-Lambert","lengthM":665,"story":"Paul Albert Bartholomé (1848-1928), peintre et sculpteur français.","image":{"provider":"panoramax","id":"2b8fe5c0-e8ac-4f4c-9c76-17906deb787b","lat":48.82852,"lng":2.29627,"sequenceId":"aee1afa9-c0ff-4c56-a4fe-cb8829f69cd0"}},{"kind":"street","id":"v:15:9700","name":"avenue de Champaubert","arr":15,"lat":48.851,"lng":2.29939,"themes":[],"shape":[[2.29877,48.85048],[2.29877,48.85048],[2.29867,48.8506],[2.29885,48.85072],[2.29885,48.85072],[2.29903,48.85084],[2.29913,48.8509],[2.29963,48.85124],[2.29966,48.85126],[2.29967,48.85126],[2.29979,48.85134],[2.29988,48.8514],[2.30003,48.8515],[2.30004,48.85151],[2.30007,48.85153],[2.30026,48.85141],[2.30005,48.85133],[2.29945,48.85093],[2.29935,48.85086],[2.29934,48.85085],[2.29914,48.85072],[2.29885,48.85053],[2.29877,48.85048]],"quartier":"Grenelle","lengthM":146,"story":"Champaubert, commune du département de la Marne, où Napoléon 1er battit l'armée russe en 1814.","image":{"provider":"panoramax","id":"55ced532-4cfd-47e9-9ed0-86e7ca00aa7a","lat":48.85165,"lng":2.30007,"sequenceId":"107a8b01-d8c1-461a-a501-80741cde1959"}},{"kind":"street","id":"v:15:12966","name":"avenue de la Porte Brancion","arr":15,"lat":48.82684,"lng":2.3007,"themes":[],"shape":[[2.30121,48.82728],[2.3007,48.82634],[2.30058,48.82611],[2.30056,48.82606],[2.30056,48.82601],[2.30057,48.82597],[2.30058,48.82596],[2.3005,48.82572],[2.30062,48.8255],[2.3,48.82565],[2.30002,48.82565],[2.30006,48.82576],[2.30016,48.82614],[2.30047,48.8267],[2.30046,48.8267],[2.30045,48.82671],[2.30045,48.82671],[2.30045,48.82672],[2.3005,48.82683],[2.30051,48.82683],[2.30052,48.82684],[2.30053,48.82684],[2.30054,48.82684],[2.30057,48.82689],[2.30076,48.82726],[2.30078,48.82731],[2.30095,48.82775],[2.30099,48.82791],[2.30106,48.82811],[2.30111,48.8283],[2.30114,48.82838],[2.30165,48.82833],[2.30147,48.82811],[2.30126,48.82743],[2.30124,48.82738],[2.30121,48.82728]],"quartier":"Saint-Lambert","lengthM":320,"story":"Située en partie sur l'emplacement de l'ancienne porte Brancion.","image":{"provider":"panoramax","id":"f9bdae8a-8e71-448c-861a-a36b5f53478b","lat":48.82675,"lng":2.30052,"sequenceId":"aee1afa9-c0ff-4c56-a4fe-cb8829f69cd0"}},{"kind":"street","id":"v:15:12995","name":"avenue de la Porte de la Plaine","arr":15,"lat":48.8295,"lng":2.29222,"themes":[],"shape":[[2.29209,48.82789],[2.2921,48.82804],[2.29208,48.82804],[2.29208,48.82809],[2.2921,48.82809],[2.2921,48.82811],[2.2921,48.82838],[2.2921,48.82914],[2.2921,48.82971],[2.2921,48.83018],[2.2921,48.83075],[2.29209,48.83076],[2.29209,48.83078],[2.29208,48.8308],[2.29208,48.83081],[2.29207,48.83083],[2.29205,48.83084],[2.29204,48.83085],[2.29202,48.83086],[2.29201,48.83088],[2.29199,48.83089],[2.29197,48.8309],[2.29262,48.83063],[2.29251,48.83058],[2.29251,48.83037],[2.29251,48.83008],[2.29251,48.82967],[2.29256,48.82959],[2.29259,48.82888],[2.29259,48.82886],[2.29264,48.82804],[2.29252,48.82803],[2.29241,48.828],[2.2923,48.82797],[2.29219,48.82794],[2.29209,48.82789]],"quartier":"Saint-Lambert","lengthM":300,"story":"Située en partie sur l'emplacement de l'ancienne porte de la Plaine.","image":{"provider":"panoramax","id":"348c07cc-b0fe-4b62-aaf0-9a37397a2304","lat":48.8309,"lng":2.29204,"sequenceId":"86b7634f-5570-4ac5-ada5-5394a11a227e"}},{"kind":"street","id":"v:15:12996","name":"avenue de la Porte de Plaisance","arr":15,"lat":48.8292,"lng":2.29583,"themes":[],"shape":[[2.29596,48.82883],[2.29604,48.82876],[2.29558,48.82881],[2.29568,48.82886],[2.29558,48.8295],[2.29554,48.82969],[2.29595,48.82959],[2.29584,48.82954],[2.29585,48.82949],[2.29586,48.82944],[2.29587,48.8294],[2.2959,48.82918],[2.29595,48.82892],[2.29596,48.82883]],"quartier":"Saint-Lambert","lengthM":80,"story":"Située en partie sur l'emplacement de l'ancienne porte de Plaisance.","image":{"provider":"panoramax","id":"194146f6-53f0-406c-9fa9-fbdc018b4f40","lat":48.82964,"lng":2.2959,"sequenceId":"87a433b8-503c-4742-8f1d-e466b9063a66"}},{"kind":"street","id":"v:15:13003","name":"avenue de la Porte de Sèvres","arr":15,"lat":48.83523,"lng":2.27769,"themes":[],"shape":[[2.27813,48.83543],[2.27782,48.83483],[2.27756,48.83434],[2.27747,48.83394],[2.27729,48.83361],[2.27689,48.83406],[2.27725,48.83457],[2.27729,48.83464],[2.27732,48.8347],[2.27749,48.83502],[2.27751,48.83507],[2.27751,48.83507],[2.27752,48.83507],[2.27754,48.83512],[2.27756,48.83516],[2.27759,48.83521],[2.27761,48.83526],[2.27764,48.83531],[2.27766,48.83535],[2.27769,48.8354],[2.27771,48.83545],[2.27774,48.83549],[2.27776,48.83554],[2.27778,48.83559],[2.27781,48.83564],[2.27781,48.83564],[2.27784,48.83569],[2.27786,48.83574],[2.27789,48.83579],[2.27791,48.83584],[2.27796,48.83592],[2.27792,48.83597],[2.2779,48.836],[2.27834,48.83583],[2.27829,48.83573],[2.27813,48.83543]],"quartier":"Javel","lengthM":300,"story":"Située en partie sur l'emplacement de l'ancienne porte de Sèvres.","image":{"provider":"panoramax","id":"a75da352-432f-4e9c-b50a-6313cafef3ef","lat":48.83531,"lng":2.27773,"sequenceId":"d78d30c0-6bbb-4695-9f46-2a587dee7650"}},{"kind":"street","id":"v:15:10207","name":"avenue Delecourt","arr":15,"lat":48.84587,"lng":2.29197,"themes":[],"shape":[[2.29183,48.84596],[2.29203,48.84588],[2.29208,48.84586],[2.2922,48.84581],[2.29229,48.84578],[2.29233,48.84577],[2.29228,48.8457],[2.29216,48.84575],[2.29204,48.84579],[2.29176,48.84591],[2.29172,48.8459],[2.29165,48.84589],[2.29174,48.84599],[2.29175,48.84599],[2.29179,48.84597],[2.29183,48.84596]],"quartier":"Grenelle","lengthM":50,"story":"M. Delecourt, propriétaire.","image":{"provider":"panoramax","id":"119654b3-20ae-4b80-b9a7-09e94138c4e8","lat":48.84608,"lng":2.29173,"sequenceId":"107a8b01-d8c1-461a-a501-80741cde1959"}},{"kind":"street","id":"v:15:10517","name":"avenue Émile Zola","arr":15,"lat":48.84667,"lng":2.28828,"themes":[],"shape":[[2.28315,48.8464],[2.28665,48.84672],[2.28888,48.84668],[2.28669,48.84649],[2.28315,48.8464],[2.28033,48.84644],[2.27925,48.84611],[2.27853,48.84608],[2.27759,48.84603],[2.28033,48.84644],[2.28888,48.84668],[2.29108,48.8469],[2.29126,48.84668],[2.28958,48.84664],[2.28888,48.84668],[2.28129,48.84622],[2.28177,48.84652],[2.28277,48.84648],[2.28271,48.84629],[2.28129,48.84622],[2.29432,48.84688],[2.29452,48.84707],[2.29547,48.84712],[2.29516,48.84692],[2.29432,48.84688],[2.29327,48.84692],[2.29385,48.84704],[2.29434,48.84697],[2.29389,48.84686],[2.29327,48.84692],[2.29242,48.84688],[2.29257,48.84694],[2.29296,48.84695],[2.29297,48.84699],[2.29242,48.84688]],"quartier":"Grenelle","lengthM":1330,"story":"Emile Zola (1840-1902), littérateur français.","image":{"provider":"panoramax","id":"78da74f9-fefa-45ad-95f3-65a205fb40ad","lat":48.84638,"lng":2.28277,"sequenceId":"107a8b01-d8c1-461a-a501-80741cde1959"}},{"kind":"street","id":"v:15:10562","name":"avenue Ernest Renan","arr":15,"lat":48.83158,"lng":2.28659,"themes":[],"shape":[[2.28735,48.83233],[2.28786,48.83212],[2.28775,48.83205],[2.28777,48.83203],[2.28765,48.83195],[2.28763,48.83197],[2.28702,48.83156],[2.28693,48.83151],[2.28605,48.83093],[2.28596,48.83087],[2.28493,48.8302],[2.28458,48.83035],[2.28487,48.83071],[2.28553,48.83115],[2.28554,48.83115],[2.28563,48.83121],[2.28563,48.83121],[2.28672,48.83193],[2.28685,48.83201],[2.28722,48.83226],[2.28732,48.8323],[2.28732,48.8323],[2.28735,48.83233]],"quartier":"Saint-Lambert","lengthM":300,"story":"Joseph Ernest Renan (1823-1892), écrivain et philosophe.","image":{"provider":"panoramax","id":"ccd3ad1d-cf61-4605-9583-8fb40289c589","lat":48.83055,"lng":2.28465,"sequenceId":"d78d30c0-6bbb-4695-9f46-2a587dee7650"}},{"kind":"street","id":"v:15:10665","name":"avenue Félix Faure","arr":15,"lat":48.84038,"lng":2.28621,"themes":[],"shape":[[2.28216,48.83904],[2.28114,48.83804],[2.27985,48.8374],[2.27889,48.83711],[2.27983,48.83762],[2.28025,48.83785],[2.28216,48.83904],[2.28222,48.83875],[2.28376,48.83954],[2.28554,48.84025],[2.28508,48.83986],[2.28379,48.83934],[2.28282,48.83894],[2.28222,48.83875],[2.2879,48.8411],[2.28872,48.84153],[2.28967,48.84191],[2.29037,48.84209],[2.28986,48.84178],[2.28904,48.84145],[2.2879,48.8411],[2.28588,48.84029],[2.28631,48.84056],[2.28705,48.84086],[2.28787,48.84098],[2.28733,48.84076],[2.28687,48.84057],[2.28588,48.84029],[2.29037,48.84209],[2.29082,48.8424],[2.29111,48.84252],[2.29133,48.84262],[2.29193,48.84261],[2.29113,48.84229],[2.29037,48.84209]],"quartier":"Javel","lengthM":1135,"story":"Félix Faure (1841-1899), Président de la République française.","image":{"provider":"panoramax","id":"eb534578-476a-47dc-a910-94bc0324d89f","lat":48.84213,"lng":2.29041,"sequenceId":"779fb271-0ad3-4fe7-a392-7f42212eaa36"}},{"kind":"street","id":"v:15:12678","name":"avenue Paul Déroulède","arr":15,"lat":48.8505,"lng":2.29925,"themes":[],"shape":[[2.29934,48.85051],[2.29946,48.85044],[2.29957,48.85044],[2.29932,48.85027],[2.29932,48.85032],[2.29897,48.85053],[2.29885,48.85053],[2.29914,48.85072],[2.29914,48.85064],[2.29925,48.85057],[2.29934,48.85051]],"quartier":"Grenelle","lengthM":44,"story":"Paul Déroulède (1846-1914), poète et homme politique français."},{"kind":"street","id":"v:15:14822","name":"avenue Roger Cahen","arr":15,"lat":48.84833,"lng":2.3022,"themes":[],"shape":[[2.30246,48.84852],[2.30263,48.84834],[2.30257,48.84834],[2.30209,48.84802],[2.30211,48.84797],[2.30159,48.84821],[2.30165,48.8482],[2.30221,48.84858],[2.3022,48.84861],[2.30246,48.84852]],"quartier":"Grenelle","lengthM":66,"story":"Roger Cahen (Aurillac, 1896-Paris, 2003), un des derniers combattants de la guerre de 14/18, Officier de la Légion d'Honneur à titre militaire, médaillé de la Ville de Paris à titre de citoyen d'honneur du 15ème arrondissement.","image":{"provider":"panoramax","id":"94e22265-5d63-468b-8a09-be6a0dbb2a90","lat":48.8481,"lng":2.30154,"sequenceId":"6ae00fbf-4ae2-4c90-8455-eee6a8f868d1"}},{"kind":"street","id":"v:15:13708","name":"avenue Sainte-Eugénie","arr":15,"lat":48.8355,"lng":2.29809,"themes":[],"shape":[[2.29812,48.83538],[2.29803,48.83528],[2.29798,48.83521],[2.29799,48.83521],[2.29787,48.83526],[2.29775,48.83531],[2.29768,48.83534],[2.29755,48.83539],[2.29758,48.83543],[2.2979,48.8353],[2.29796,48.83531],[2.29808,48.83545],[2.29824,48.83565],[2.2983,48.83572],[2.29837,48.8358],[2.29838,48.83582],[2.29836,48.83586],[2.29849,48.83583],[2.2984,48.83573],[2.29839,48.83571],[2.29837,48.83568],[2.29824,48.83552],[2.29812,48.83538]],"quartier":"Saint-Lambert","lengthM":106,"story":"Anciennement avenue des Acacias.","image":{"provider":"panoramax","id":"2249f622-106a-43c7-8e64-184293ea787d","lat":48.83543,"lng":2.29811,"sequenceId":"a1e94e75-e914-403f-8bb4-153019167838"}},{"kind":"street","id":"v:15:11120","name":"boulevard de Grenelle","arr":15,"lat":48.85087,"lng":2.29402,"themes":[],"shape":[[2.29706,48.84955],[2.29867,48.84905],[2.29966,48.84874],[2.2998,48.8487],[2.29996,48.84865],[2.30102,48.8481],[2.30025,48.84814],[2.29974,48.84829],[2.29817,48.84878],[2.29761,48.84896],[2.29651,48.8493],[2.29536,48.84966],[2.29416,48.85004],[2.29287,48.85045],[2.29289,48.8507],[2.29445,48.85037],[2.29591,48.84991],[2.29706,48.84955],[2.29246,48.85114],[2.29215,48.85104],[2.29169,48.85121],[2.29156,48.85134],[2.29143,48.85147],[2.2911,48.8518],[2.29041,48.8525],[2.28956,48.85336],[2.28916,48.85376],[2.28879,48.85413],[2.28871,48.85421],[2.28922,48.85439],[2.28999,48.85361],[2.29049,48.85311],[2.29097,48.85263],[2.29157,48.85203],[2.292,48.85161],[2.29246,48.85114]],"quartier":"Grenelle","lengthM":1220,"story":"Longe l'ancienne commune de Grenelle.","image":{"provider":"panoramax","id":"6b8cdb4a-57c2-49f2-bdc2-bd4dfae15296","lat":48.85112,"lng":2.29244,"sequenceId":"1afbd7d9-3fbb-4450-9f61-0dbbcf987721"}},{"kind":"street","id":"v:15:13968","name":"boulevard de Vaugirard","arr":15,"lat":48.84106,"lng":2.31717,"themes":[],"shape":[[2.31543,48.8404],[2.31542,48.8404],[2.31523,48.84075],[2.31559,48.84086],[2.31579,48.84092],[2.31604,48.84099],[2.31624,48.84104],[2.3175,48.84141],[2.31785,48.84151],[2.31811,48.84158],[2.3184,48.84167],[2.31917,48.84189],[2.31944,48.84197],[2.32008,48.84215],[2.32026,48.8422],[2.32074,48.84234],[2.31971,48.84163],[2.31969,48.84163],[2.31867,48.84134],[2.31848,48.84128],[2.31827,48.84122],[2.31826,48.84122],[2.31693,48.84083],[2.31673,48.84077],[2.31655,48.84072],[2.31621,48.84062],[2.31616,48.84061],[2.31611,48.84059],[2.31608,48.84058],[2.3159,48.84053],[2.31571,48.84048],[2.31561,48.84045],[2.3155,48.84042],[2.31548,48.84041],[2.31543,48.8404],[2.31543,48.8404]],"quartier":"Necker","lengthM":460,"story":"Longe l'ancienne commune de Vaugirard.","image":{"provider":"panoramax","id":"5e6f92f3-6e73-4c0a-878c-53c6c4994bbb","lat":48.84143,"lng":2.31845,"sequenceId":"c5aa078b-d116-44af-8c4b-3a9354117f3b"}},{"kind":"street","id":"v:15:10842","name":"boulevard des Frères Voisin","arr":15,"lat":48.82789,"lng":2.27059,"themes":[],"shape":[[2.27352,48.82781],[2.27233,48.82778],[2.27203,48.82778],[2.27135,48.82776],[2.27099,48.82776],[2.27062,48.82775],[2.2701,48.82774],[2.26993,48.82774],[2.2694,48.82773],[2.26927,48.82773],[2.26863,48.82772],[2.26792,48.8277],[2.26784,48.8277],[2.26779,48.82794],[2.26793,48.82795],[2.2683,48.82795],[2.26837,48.82795],[2.26866,48.82796],[2.26936,48.82797],[2.27004,48.82798],[2.2704,48.82799],[2.27116,48.82801],[2.27126,48.82801],[2.27146,48.82801],[2.27156,48.82801],[2.27204,48.82802],[2.27206,48.82802],[2.27236,48.82803],[2.27244,48.82803],[2.27293,48.82804],[2.27345,48.82805],[2.27352,48.82781]],"quartier":"Javel","lengthM":365,"story":"Les frères Voisin, Gabriel (1880-1973) et Charles (1882-1912), ingénieurs et industriels français. Premiers constructeurs d'avions en France à une échelle industrielle.","image":{"provider":"panoramax","id":"a9d156d9-6908-4b30-8e6d-4d7a4c18f20a","lat":48.82791,"lng":2.26841,"sequenceId":"d78d30c0-6bbb-4695-9f46-2a587dee7650"}},{"kind":"street","id":"v:15:11035","name":"boulevard du Général Martial Valin","arr":15,"lat":48.83761,"lng":2.2728,"themes":[],"shape":[[2.27053,48.83853],[2.27087,48.83838],[2.27123,48.83823],[2.2715,48.83812],[2.27231,48.83782],[2.27262,48.83772],[2.27279,48.83766],[2.27295,48.83761],[2.27318,48.83753],[2.27339,48.83747],[2.27359,48.83741],[2.27369,48.83738],[2.27409,48.83727],[2.2743,48.83721],[2.2744,48.83718],[2.27441,48.83718],[2.27481,48.83708],[2.27527,48.83697],[2.27548,48.83692],[2.276,48.83681],[2.27657,48.83668],[2.27457,48.83676],[2.2739,48.83697],[2.27387,48.83699],[2.27377,48.83701],[2.27346,48.8371],[2.27263,48.83736],[2.27205,48.83757],[2.27134,48.83783],[2.2709,48.838],[2.27008,48.83838],[2.26997,48.83843],[2.26984,48.83849],[2.26971,48.83872],[2.27008,48.83873],[2.27053,48.83853]],"quartier":"Javel","lengthM":526,"story":"Martial Valin (1898-1980), général d'armée et inspecteur général de l'armée de l'air, après avoir été commandant des forces aériennes de la France libre.","image":{"provider":"panoramax","id":"dd5bb330-d29f-4ec1-857e-8bada43620b5","lat":48.83687,"lng":2.2754,"sequenceId":"561bd70d-cc82-4414-9522-4ef681263573"}},{"kind":"street","id":"v:15:10879","name":"boulevard Gallieni","arr":15,"lat":48.82961,"lng":2.26738,"themes":[],"shape":[[2.26756,48.82778],[2.26754,48.82778],[2.26749,48.82778],[2.26747,48.82779],[2.26745,48.8278],[2.26743,48.82781],[2.26741,48.82784],[2.2674,48.82785],[2.2674,48.82787],[2.26731,48.82891],[2.26707,48.83154],[2.26707,48.83155],[2.26708,48.83157],[2.26709,48.83158],[2.26711,48.83161],[2.26713,48.83162],[2.26715,48.83162],[2.26717,48.83163],[2.26721,48.83163],[2.26723,48.83163],[2.26726,48.83163],[2.26728,48.83162],[2.26731,48.8316],[2.26733,48.83159],[2.26734,48.83158],[2.26734,48.83156],[2.26751,48.82973],[2.26759,48.82892],[2.26767,48.82787],[2.26767,48.82786],[2.26766,48.82783],[2.26765,48.82782],[2.26763,48.82781],[2.26762,48.8278],[2.26758,48.82779],[2.26756,48.82778]],"quartier":"Javel","lengthM":400,"story":"Joseph Simon Gallieni (1849-1916), maréchal de France, défenseur de Paris en 1914.","image":{"provider":"panoramax","id":"f4a82a43-9eca-49db-a6be-d9aabf507df3","lat":48.83157,"lng":2.26727,"sequenceId":"d78d30c0-6bbb-4695-9f46-2a587dee7650"}},{"kind":"street","id":"v:15:10895","name":"boulevard Garibaldi","arr":15,"lat":48.84618,"lng":2.30781,"themes":[],"shape":[[2.30489,48.84715],[2.30681,48.84659],[2.30825,48.84619],[2.30864,48.84607],[2.30864,48.84607],[2.30865,48.84606],[2.30866,48.84605],[2.30867,48.84605],[2.30867,48.84604],[2.30868,48.84604],[2.30901,48.84594],[2.30902,48.84594],[2.30902,48.84594],[2.30903,48.84595],[2.30903,48.84595],[2.30904,48.84595],[2.30904,48.84595],[2.30904,48.84595],[2.30904,48.84596],[2.30904,48.84596],[2.30904,48.84596],[2.30903,48.84597],[2.31122,48.84507],[2.31049,48.84503],[2.31039,48.84517],[2.31024,48.84522],[2.30878,48.84563],[2.30657,48.84625],[2.30622,48.84635],[2.30554,48.84655],[2.30474,48.84683],[2.3036,48.84712],[2.3029,48.84731],[2.30294,48.84773],[2.30375,48.84749],[2.30489,48.84715]],"quartier":"Necker","lengthM":720,"story":"Joseph Garibaldi (1807-1882), général italien, a pris part à la défense de la France en 1870.","image":{"provider":"panoramax","id":"f546c886-be34-4d3a-9465-839aeb60b8dd","lat":48.84589,"lng":2.30902,"sequenceId":"6ae00fbf-4ae2-4c90-8455-eee6a8f868d1"}},{"kind":"street","id":"v:15:11754","name":"boulevard Lefebvre","arr":15,"lat":48.83055,"lng":2.29476,"themes":[],"shape":[[2.29194,48.83134],[2.29197,48.83136],[2.29212,48.83141],[2.29273,48.831],[2.29377,48.83066],[2.29551,48.8301],[2.29616,48.82993],[2.29765,48.8296],[2.29836,48.82944],[2.30036,48.829],[2.30092,48.82888],[2.30156,48.82873],[2.30202,48.82863],[2.30293,48.82843],[2.30421,48.82815],[2.30436,48.82773],[2.30343,48.82794],[2.30165,48.82833],[2.29911,48.82889],[2.29595,48.82959],[2.2939,48.83022],[2.2917,48.83101],[2.28883,48.83235],[2.28886,48.83237],[2.28887,48.83239],[2.28886,48.83242],[2.28884,48.83243],[2.28829,48.83267],[2.28941,48.83244],[2.29012,48.83213],[2.2904,48.83201],[2.29078,48.83184],[2.29096,48.83177],[2.29126,48.83164],[2.29154,48.83151],[2.29194,48.83134]],"quartier":"Saint-Lambert","lengthM":1265,"story":"François Joseph Lefebvre (Rouffach, 1755-Paris, 1820), duc de Dantzig, maréchal de France.","image":{"provider":"panoramax","id":"11b897ba-1300-497e-a47c-3877ac408dfb","lat":48.82894,"lng":2.29918,"sequenceId":"87a433b8-503c-4742-8f1d-e466b9063a66"}},{"kind":"street","id":"v:15:12646","name":"boulevard Pasteur","arr":15,"lat":48.84228,"lng":2.31331,"themes":[],"shape":[[2.31359,48.84117],[2.31433,48.84151],[2.31456,48.8412],[2.315,48.84079],[2.31567,48.84009],[2.31652,48.83927],[2.31672,48.83916],[2.31591,48.83931],[2.31521,48.83985],[2.31497,48.84012],[2.31438,48.8405],[2.31359,48.84117],[2.31258,48.84293],[2.31159,48.84364],[2.31126,48.84405],[2.31067,48.84483],[2.31156,48.84465],[2.31162,48.84464],[2.31166,48.84467],[2.31172,48.84521],[2.31186,48.84518],[2.31181,48.8447],[2.31208,48.84412],[2.31258,48.84293],[2.31258,48.84293],[2.31317,48.84273],[2.31332,48.84255],[2.3136,48.84219],[2.31386,48.84187],[2.31391,48.84145],[2.31343,48.84138],[2.31316,48.84166],[2.31301,48.84185],[2.31263,48.84234],[2.31236,48.84267],[2.31258,48.84293]],"quartier":"Necker","lengthM":731,"story":"Louis Pasteur (1822-1895), chimiste et biologiste français, inventeur de l'inoculation contre la rage et les maladies charbonneuses.","image":{"provider":"panoramax","id":"bda6a096-dbb4-4836-8c89-60d4bf0a0f24","lat":48.84468,"lng":2.31161,"sequenceId":"a271070b-4aab-49fb-9455-d80c02598f2a"}},{"kind":"street","id":"v:15:14030","name":"boulevard Victor","arr":15,"lat":48.83448,"lng":2.28354,"themes":[],"shape":[[2.27997,48.83587],[2.28001,48.83587],[2.28003,48.83585],[2.28154,48.83542],[2.28274,48.83505],[2.28329,48.83485],[2.28352,48.83476],[2.28475,48.83432],[2.28536,48.8341],[2.28572,48.83397],[2.28604,48.83385],[2.28629,48.83375],[2.28683,48.83352],[2.28713,48.8334],[2.28754,48.83323],[2.28781,48.83312],[2.28841,48.83274],[2.28772,48.83292],[2.28748,48.83302],[2.28741,48.83302],[2.28737,48.833],[2.28734,48.83297],[2.28732,48.83294],[2.28701,48.83284],[2.28563,48.83337],[2.28285,48.8346],[2.28251,48.83472],[2.28003,48.83547],[2.27944,48.83564],[2.27846,48.83587],[2.27664,48.83629],[2.27688,48.83661],[2.27735,48.8365],[2.27919,48.83609],[2.27972,48.83595],[2.27997,48.83587]],"quartier":"Javel","lengthM":894,"story":"Claude Perrin, dit Victor (1764-1841), duc de Bellune, maréchal de France.","image":{"provider":"panoramax","id":"24b6d3b2-293e-4dfc-97ad-390d0775ef30","lat":48.83304,"lng":2.28745,"sequenceId":"d78d30c0-6bbb-4695-9f46-2a587dee7650"}},{"kind":"street","id":"v:15:9108","name":"cité Auguste Chabrières","arr":15,"lat":48.83476,"lng":2.28914,"themes":[],"shape":[[2.2892,48.83488],[2.28933,48.83477],[2.28929,48.83477],[2.28912,48.83467],[2.28907,48.83465],[2.28902,48.83469],[2.28897,48.83472],[2.28903,48.83475],[2.2892,48.83485],[2.2892,48.83488]],"quartier":"Saint-Lambert","lengthM":23,"story":"Auguste Chabrières (1854-1904), industriel ; voisinage de la rue Auguste Chabrières.","image":{"provider":"panoramax","id":"392b84f4-5aa7-4a4a-b900-1fac3bee1349","lat":48.83492,"lng":2.2888,"sequenceId":"d78d30c0-6bbb-4695-9f46-2a587dee7650"}},{"kind":"street","id":"v:15:10638","name":"cité Falguière","arr":15,"lat":48.84068,"lng":2.31215,"themes":[],"shape":[[2.31265,48.8403],[2.3126,48.84025],[2.31253,48.8403],[2.31232,48.84048],[2.31202,48.84073],[2.312,48.84073],[2.31199,48.84073],[2.31198,48.84074],[2.31195,48.84075],[2.31194,48.84076],[2.31193,48.84077],[2.31193,48.84078],[2.31193,48.84079],[2.31193,48.8408],[2.31194,48.84081],[2.31196,48.84083],[2.31197,48.84083],[2.31199,48.84084],[2.31201,48.84084],[2.31203,48.84084],[2.31204,48.84084],[2.31206,48.84083],[2.31208,48.84082],[2.31208,48.84082],[2.31209,48.8408],[2.3121,48.84079],[2.3121,48.84078],[2.31209,48.84078],[2.31209,48.84077],[2.3122,48.84068],[2.31225,48.84064],[2.31234,48.84056],[2.31243,48.84048],[2.31252,48.84041],[2.31253,48.8404],[2.31265,48.8403]],"quartier":"Necker","lengthM":67,"story":"Voisinage de la rue Falguière. Jean Joseph Alexandre Falguière (1831-1900), sculpteur français.","image":{"provider":"panoramax","id":"dd34ed8d-3c8f-444c-b711-2f52f10fd80a","lat":48.84082,"lng":2.31201,"sequenceId":"cf60b498-51cd-41ff-a974-5bae4347be83"}},{"kind":"street","id":"v:15:12372","name":"cité Morieux","arr":15,"lat":48.85319,"lng":2.29526,"themes":[],"shape":[[2.2958,48.85275],[2.2958,48.85274],[2.29574,48.85278],[2.2954,48.85301],[2.29517,48.85317],[2.29512,48.85321],[2.2951,48.85322],[2.29509,48.85323],[2.29509,48.85324],[2.29508,48.85326],[2.29508,48.85327],[2.29508,48.85329],[2.29508,48.8533],[2.29509,48.85334],[2.2951,48.85339],[2.29511,48.85341],[2.29512,48.85343],[2.29511,48.85343],[2.29515,48.85347],[2.29519,48.85346],[2.29514,48.85338],[2.29513,48.85337],[2.29512,48.8533],[2.29512,48.85329],[2.29512,48.85327],[2.29512,48.85326],[2.29512,48.85325],[2.29512,48.85325],[2.29513,48.85324],[2.29514,48.85323],[2.29514,48.85323],[2.2952,48.85318],[2.29574,48.85282],[2.29577,48.8528],[2.29582,48.85276],[2.2958,48.85275]],"quartier":"Grenelle","lengthM":95,"story":"M. Morieux, propriétaire.","image":{"provider":"panoramax","id":"d0ba97af-7588-4c8c-b56f-fe8101fe30b2","lat":48.85353,"lng":2.29514,"sequenceId":"21609ebf-fcec-4c45-8c53-3b88fc20f9b0"}},{"kind":"street","id":"v:15:13815","name":"cité Thuré","arr":15,"lat":48.84549,"lng":2.29589,"themes":[],"shape":[[2.29577,48.8453],[2.29571,48.84523],[2.29564,48.84526],[2.29564,48.84526],[2.29576,48.8454],[2.29589,48.84555],[2.29592,48.84559],[2.29597,48.84564],[2.29601,48.84568],[2.29602,48.84569],[2.29609,48.84578],[2.29616,48.84575],[2.29609,48.84567],[2.29599,48.84556],[2.29592,48.84548],[2.29585,48.8454],[2.2958,48.84534],[2.29577,48.8453]],"quartier":"Grenelle","lengthM":67,"story":"M. Thuré, propriétaire."},{"kind":"street","id":"v:15:14806","name":"esplanade André Chamson","arr":15,"lat":48.84057,"lng":2.27766,"themes":[],"shape":[[2.2776,48.84079],[2.27768,48.84088],[2.27769,48.84089],[2.27775,48.84096],[2.27776,48.84097],[2.2778,48.8408],[2.27787,48.84044],[2.27789,48.84029],[2.27785,48.84031],[2.27781,48.84032],[2.27777,48.84034],[2.27762,48.84038],[2.27761,48.84039],[2.27758,48.84035],[2.27749,48.84039],[2.27731,48.84046],[2.27736,48.84052],[2.27748,48.84065],[2.2776,48.84079]],"quartier":"Javel","lengthM":42,"story":"André Chamson (Nîmes 1900 - Paris 1983), écrivain, directeur des Archives de France, membre de l'Académie Française (1956) ; ancien résistant.","image":{"provider":"panoramax","id":"85d1e01d-f713-46b9-94ac-bfd691593666","lat":48.84041,"lng":2.27783,"sequenceId":"1bb3cc7b-1d10-4d1c-8cb2-beff89f1b73b"}},{"kind":"street","id":"v:15:14963","name":"esplanade du 9 Novembre 1989","arr":15,"lat":48.83263,"lng":2.28805,"themes":[],"shape":[[2.2888,48.83234],[2.28855,48.83233],[2.2882,48.83233],[2.28789,48.83233],[2.2878,48.83235],[2.28772,48.83237],[2.28768,48.8324],[2.28763,48.83244],[2.28755,48.83256],[2.28734,48.83289],[2.28733,48.83291],[2.28732,48.83293],[2.28733,48.83295],[2.28733,48.83297],[2.28734,48.83298],[2.28736,48.83299],[2.28738,48.833],[2.2874,48.83301],[2.28743,48.83302],[2.28747,48.83302],[2.28749,48.83302],[2.28752,48.83301],[2.28794,48.83282],[2.28821,48.83271],[2.28842,48.83262],[2.28884,48.83244],[2.28885,48.83243],[2.28886,48.83242],[2.28887,48.83241],[2.28887,48.83239],[2.28887,48.83239],[2.28886,48.83237],[2.28885,48.83236],[2.28884,48.83235],[2.28882,48.83234],[2.2888,48.83234]],"quartier":"Saint-Lambert","story":"Commémoration de la décision d'ouverture du mur de Berlin le 9 novembre 1989.","image":{"provider":"panoramax","id":"ddcbc9bc-1889-4c16-a02f-62727a054776","lat":48.83303,"lng":2.28742,"sequenceId":"d78d30c0-6bbb-4695-9f46-2a587dee7650"}},{"kind":"street","id":"v:15:15121","name":"esplanade du Capitaine Henri Pierret","arr":15,"lat":48.8445,"lng":2.29048,"themes":[],"shape":[[2.29054,48.8444],[2.29027,48.84451],[2.29038,48.84464],[2.29065,48.84453],[2.29054,48.8444]],"quartier":"Javel","lengthM":23,"story":"Armand Joseph Henri Pierret (1899-1990), en hommage à son assistance aux personnes enfermées au Vel'd'Hiv le 16 juillet 1942.","image":{"provider":"panoramax","id":"481d9439-c37f-496c-b8a3-ddfa70384a64","lat":48.84466,"lng":2.29041,"sequenceId":"107a8b01-d8c1-461a-a501-80741cde1959"}},{"kind":"street","id":"v:15:14156","name":"esplanade Henri de France","arr":15,"lat":48.83907,"lng":2.27061,"themes":[],"shape":[[2.27066,48.83896],[2.27055,48.83884],[2.27045,48.83873],[2.27036,48.83863],[2.27008,48.83874],[2.27006,48.83879],[2.27016,48.83895],[2.27016,48.83895],[2.27071,48.83955],[2.27099,48.83944],[2.27099,48.83944],[2.27106,48.83941],[2.27104,48.83938],[2.27093,48.83925],[2.27083,48.83914],[2.27074,48.83905],[2.27066,48.83896]],"quartier":"Javel","story":"Henri de France (Paris, 1911-Paris 1986), inventeur du système de couleur SECAM, après avoir participé entre 1930 et 1947 aux recherches qui ont mené à l'invention de la télévision et du radar. Titulaire de la médaille de la Résistance, et officier de la Légion d'Honneur.","image":{"provider":"panoramax","id":"71523a59-242a-41ca-b1bf-822d1aaed19e","lat":48.83956,"lng":2.27073,"sequenceId":"b0eb4997-acfb-46b6-b89c-4bdc72d49868"}},{"kind":"street","id":"v:15:14845","name":"esplanade Max Guedj","arr":15,"lat":48.84064,"lng":2.27827,"themes":["pedestrian"],"shape":[[2.27829,48.84041],[2.27822,48.84035],[2.27817,48.84029],[2.27814,48.84043],[2.27813,48.84049],[2.27804,48.84097],[2.27822,48.8409],[2.27831,48.84088],[2.2784,48.84085],[2.27841,48.84085],[2.27833,48.84075],[2.27852,48.84068],[2.27829,48.84041]],"quartier":"Javel","story":"Max Guedj (Sousse, Tunisie, 1913-Norvège, 1945) figure de l'aviation Française Libre, nommé “Wing Commander” par la Royale Air Force en décembre 1944.","image":{"provider":"panoramax","id":"6cb14d23-2115-4c96-a370-95ad0b9f6d67","lat":48.8409,"lng":2.2782,"sequenceId":"959f918f-30cd-4860-88ea-19a9cc6ff670"}},{"kind":"street","id":"v:15:8896","name":"hameau d'Alleray","arr":15,"lat":48.83767,"lng":2.30226,"themes":[],"shape":[[2.30209,48.83756],[2.30207,48.83755],[2.30204,48.83757],[2.30208,48.83759],[2.30257,48.83788],[2.3026,48.83785],[2.3025,48.83779],[2.30239,48.83773],[2.30228,48.83767],[2.30218,48.83761],[2.30209,48.83756]],"quartier":"Saint-Lambert","lengthM":51,"story":"Denis François Angrand d'Alleray (1716-1794), dernier seigneur de Vaugirard.","image":{"provider":"panoramax","id":"2dbef3b8-53f4-4a2e-88ae-8bda7a365c2e","lat":48.83751,"lng":2.30203,"sequenceId":"cf60b498-51cd-41ff-a974-5bae4347be83"}},{"kind":"street","id":"v:15:9715","name":"impasse Chandon","arr":15,"lat":48.83855,"lng":2.28809,"themes":[],"shape":[[2.28838,48.83838],[2.28833,48.83837],[2.28832,48.83838],[2.28806,48.83853],[2.28782,48.83868],[2.28778,48.8387],[2.28781,48.83872],[2.28785,48.8387],[2.28789,48.83868],[2.28791,48.83867],[2.28792,48.83866],[2.288,48.83861],[2.28809,48.83856],[2.28816,48.83851],[2.28818,48.8385],[2.28831,48.83843],[2.28838,48.83839],[2.28838,48.83838]],"quartier":"Javel","lengthM":60,"image":{"provider":"panoramax","id":"a957271d-0146-44ff-b8a4-4f5e7e81cc63","lat":48.83898,"lng":2.28811,"sequenceId":"d78d30c0-6bbb-4695-9f46-2a587dee7650"}},{"kind":"street","id":"v:15:10467","name":"impasse de l'Église","arr":15,"lat":48.84332,"lng":2.29135,"themes":[],"shape":[[2.29149,48.84347],[2.29148,48.84346],[2.29147,48.84346],[2.29142,48.84339],[2.29139,48.84334],[2.29134,48.84329],[2.29121,48.84311],[2.29116,48.84304],[2.29111,48.84306],[2.29116,48.84313],[2.29122,48.8432],[2.29126,48.84325],[2.29143,48.84347],[2.29144,48.84349],[2.29145,48.84349],[2.29149,48.84347]],"quartier":"Javel","lengthM":54,"story":"Voisinage de la rue de l'église."},{"kind":"street","id":"v:15:10524","name":"impasse de l'Enfant Jésus","arr":15,"lat":48.84402,"lng":2.31511,"themes":[],"shape":[[2.31531,48.84384],[2.31519,48.8438],[2.3152,48.84382],[2.31512,48.84394],[2.31503,48.84407],[2.31503,48.84407],[2.31501,48.8441],[2.31491,48.84426],[2.3149,48.84426],[2.315,48.84429],[2.31521,48.84399],[2.31525,48.84392],[2.31531,48.84384]],"quartier":"Necker","lengthM":55,"story":"Voisinage de l'hôpital des Enfants malades, autrefois de l'Enfant Jésus.","image":{"provider":"panoramax","id":"b8488d20-fe59-4c8b-b3c4-36f0374486f2","lat":48.84371,"lng":2.31505,"sequenceId":"4d71f9a3-c294-4017-bb2a-325f6b597cbe"}},{"kind":"street","id":"v:15:13052","name":"impasse de Presles","arr":15,"lat":48.85239,"lng":2.29613,"themes":[],"shape":[[2.29602,48.8525],[2.29603,48.8525],[2.29603,48.8525],[2.29623,48.85236],[2.29624,48.85236],[2.29625,48.85235],[2.29631,48.85231],[2.29632,48.8523],[2.29633,48.85229],[2.29635,48.85228],[2.29643,48.85222],[2.29641,48.85218],[2.29631,48.85225],[2.29631,48.85225],[2.29629,48.85226],[2.29628,48.85227],[2.29627,48.85227],[2.29623,48.8523],[2.29621,48.85231],[2.2962,48.85232],[2.29618,48.85233],[2.29616,48.85235],[2.29613,48.85237],[2.29608,48.8524],[2.29606,48.85242],[2.29601,48.85245],[2.29598,48.85247],[2.29567,48.85263],[2.2957,48.85266],[2.29572,48.85267],[2.29585,48.8526],[2.29584,48.85259],[2.29602,48.8525]],"quartier":"Grenelle","lengthM":74,"story":"Raoul de Presles, secrétaire de Philippe le Bel, fondateur du collège de Presles, en 1313."},{"kind":"street","id":"v:15:10324","name":"impasse Dombasle","arr":15,"lat":48.83511,"lng":2.30177,"themes":[],"shape":[[2.30192,48.83523],[2.30155,48.83482],[2.30151,48.83484],[2.30152,48.83484],[2.30162,48.83495],[2.30163,48.83496],[2.30165,48.83499],[2.30169,48.83503],[2.30172,48.83507],[2.30175,48.8351],[2.30177,48.83512],[2.30181,48.83516],[2.30184,48.8352],[2.30187,48.83523],[2.3019,48.83526],[2.30197,48.83535],[2.30196,48.83536],[2.30203,48.83536],[2.30192,48.83523]],"quartier":"Saint-Lambert","lengthM":68,"story":"Christophe Joseph Alexandre Mathieu de Dombasle (1777-1843), agronome français ; quartier où ont été groupés des noms d'agronomes. Voisinage de la rue Dombasle.","image":{"provider":"panoramax","id":"c98cb1b9-6403-4044-92dd-cbd98626086b","lat":48.83509,"lng":2.30175,"sequenceId":"a1e94e75-e914-403f-8bb4-153019167838"}},{"kind":"street","id":"v:15:9993","name":"impasse du Commerce","arr":15,"lat":48.84554,"lng":2.29432,"themes":[],"shape":[[2.29448,48.8455],[2.29446,48.84548],[2.29445,48.84548],[2.29445,48.84548],[2.29428,48.84554],[2.29416,48.84559],[2.29412,48.8456],[2.29405,48.84563],[2.29407,48.84565],[2.29418,48.84561],[2.2942,48.84561],[2.29447,48.8455],[2.29447,48.8455],[2.29448,48.8455],[2.29448,48.8455]],"quartier":"Grenelle","lengthM":34,"story":"Voisinage de la rue du Commerce. Principale rue commerçante de l'ancienne commune de Grenelle.","image":{"provider":"panoramax","id":"acfcce33-a927-4026-b8e9-a0b9c540bbc7","lat":48.84529,"lng":2.29439,"sequenceId":"779fb271-0ad3-4fe7-a392-7f42212eaa36"}},{"kind":"street","id":"v:15:11622","name":"impasse du Labrador","arr":15,"lat":48.82913,"lng":2.30323,"themes":[],"shape":[[2.30287,48.82931],[2.30292,48.82934],[2.30295,48.82932],[2.30301,48.82929],[2.30323,48.82915],[2.30335,48.82909],[2.30345,48.82902],[2.30348,48.82901],[2.3035,48.82899],[2.30348,48.82898],[2.30346,48.82897],[2.30342,48.829],[2.30339,48.82901],[2.30335,48.82903],[2.30331,48.82906],[2.30321,48.82912],[2.30317,48.82914],[2.30313,48.82916],[2.30313,48.82916],[2.30308,48.82919],[2.30287,48.82931]],"quartier":"Saint-Lambert","lengthM":60,"story":"Contrée de l'Amérique du Nord. Nom donné avant 1860 par le créateur du quartier, M. Chauvelot, qui avait formé un groupement d'habitations appelé la Nouvelle Californie.","image":{"provider":"panoramax","id":"b9f7fc2b-9b34-4f3b-b4e3-7f34a56cfcc6","lat":48.82899,"lng":2.30344,"sequenceId":"fdfc1d92-b15f-425b-92fd-33a02621d2f0"}},{"kind":"street","id":"v:15:11137","name":"impasse Grisel","arr":15,"lat":48.84801,"lng":2.30347,"themes":[],"shape":[[2.304,48.84825],[2.30339,48.8479],[2.3032,48.8478],[2.30319,48.8478],[2.30313,48.84777],[2.30308,48.84769],[2.30294,48.84773],[2.30301,48.84783],[2.30312,48.84789],[2.30324,48.84797],[2.30324,48.84797],[2.30375,48.84825],[2.30378,48.84823],[2.30378,48.84823],[2.30363,48.84814],[2.30369,48.8481],[2.30384,48.84818],[2.30398,48.84826],[2.304,48.84825]],"quartier":"Necker","lengthM":82,"story":"M. Grisel propriétaire.","image":{"provider":"panoramax","id":"a2100368-e628-450f-83f5-2dae23be1223","lat":48.8476,"lng":2.30312,"sequenceId":"6ae00fbf-4ae2-4c90-8455-eee6a8f868d1"}},{"kind":"street","id":"v:15:12147","name":"impasse Mathieu","arr":15,"lat":48.84109,"lng":2.31321,"themes":[],"shape":[[2.31331,48.84108],[2.31334,48.84107],[2.31333,48.84106],[2.3133,48.84107],[2.31325,48.84102],[2.31325,48.84102],[2.31325,48.84102],[2.31325,48.84103],[2.31325,48.84103],[2.31325,48.84104],[2.31324,48.84104],[2.31324,48.84104],[2.31323,48.84105],[2.31317,48.84108],[2.313,48.84118],[2.31289,48.84124],[2.31296,48.84128],[2.31317,48.84117],[2.31319,48.84115],[2.31331,48.84108]],"quartier":"Necker","lengthM":37,"story":"M. Mathieu, propriétaire.","image":{"provider":"panoramax","id":"359d34bf-af70-411f-9076-0a7d3424a117","lat":48.841,"lng":2.31333,"sequenceId":"cebb91cc-6a88-453f-9e64-2bc1e4d27181"}},{"kind":"street","id":"v:15:13224","name":"impasse Richard","arr":15,"lat":48.83402,"lng":2.30676,"themes":[],"shape":[[2.30672,48.8339],[2.30671,48.83389],[2.30667,48.8339],[2.3067,48.83395],[2.30674,48.83401],[2.30674,48.83402],[2.30675,48.83404],[2.30676,48.83405],[2.30677,48.83407],[2.30679,48.8341],[2.30679,48.83411],[2.30682,48.83415],[2.30685,48.83414],[2.3068,48.83405],[2.30679,48.83403],[2.30678,48.83401],[2.30674,48.83395],[2.30672,48.8339]],"quartier":"Saint-Lambert","lengthM":30,"story":"M. Richard, propriétaire.","image":{"provider":"panoramax","id":"9a8e0d43-a606-4e85-b1b6-e7c42cf5d963","lat":48.8341,"lng":2.30678,"sequenceId":"a1e94e75-e914-403f-8bb4-153019167838"}},{"kind":"street","id":"v:15:13307","name":"impasse Ronsin","arr":15,"lat":48.84372,"lng":2.31456,"themes":[],"shape":[[2.31465,48.84366],[2.31456,48.84363],[2.31448,48.84375],[2.31447,48.84376],[2.31457,48.84379],[2.31457,48.84379],[2.31465,48.84366]],"quartier":"Necker","lengthM":125,"story":"M. Ronsin, propriétaire.","image":{"provider":"panoramax","id":"1d941a0b-c4d2-464d-b38a-69abf3e378a4","lat":48.84357,"lng":2.31457,"sequenceId":"4d71f9a3-c294-4017-bb2a-325f6b597cbe"}},{"kind":"street","id":"v:15:8863","name":"passage Alexandre","arr":15,"lat":48.84028,"lng":2.31552,"themes":["passages"],"shape":[[2.31572,48.84007],[2.31572,48.84007],[2.31567,48.84009],[2.31534,48.84037],[2.31542,48.8404],[2.31542,48.84039],[2.31542,48.84039],[2.31542,48.84039],[2.31543,48.84038],[2.31543,48.84038],[2.31543,48.84037],[2.31544,48.84037],[2.31545,48.84036],[2.31545,48.84036],[2.31546,48.84035],[2.31548,48.84033],[2.31551,48.84031],[2.31552,48.8403],[2.31554,48.84028],[2.31562,48.84021],[2.31575,48.84011],[2.3157,48.84009],[2.31572,48.84007]],"quartier":"Necker","lengthM":39,"story":"M. Alexandre, l'un des propriétaires des terrains sur lesquels le passage a été ouvert.","image":{"provider":"panoramax","id":"1f8648bb-9139-4a0f-9b57-54b0390a61a7","lat":48.84027,"lng":2.31535,"sequenceId":"d3f3fc36-6138-4ad3-938e-f7e0043516e4"}},{"kind":"street","id":"v:15:10147","name":"passage de Dantzig","arr":15,"lat":48.83205,"lng":2.29684,"themes":["passages"],"shape":[[2.29733,48.83233],[2.2971,48.83218],[2.29707,48.83216],[2.297,48.83211],[2.29697,48.83209],[2.29694,48.83208],[2.29692,48.83206],[2.29683,48.83201],[2.29675,48.83195],[2.29673,48.83194],[2.29668,48.83192],[2.29663,48.83188],[2.2966,48.83187],[2.29659,48.83186],[2.29657,48.83185],[2.29647,48.83179],[2.29645,48.83178],[2.29644,48.83178],[2.2964,48.83175],[2.2964,48.83174],[2.29629,48.83177],[2.29654,48.83191],[2.2966,48.83195],[2.29668,48.83199],[2.29675,48.83204],[2.29694,48.83216],[2.29703,48.83222],[2.29706,48.83223],[2.29711,48.83227],[2.29713,48.83228],[2.29714,48.83228],[2.29714,48.83228],[2.29714,48.83229],[2.29719,48.83232],[2.29725,48.83236],[2.29733,48.83233]],"quartier":"Saint-Lambert","lengthM":106,"story":"Voisinage de la rue de Dantzig.","image":{"provider":"panoramax","id":"e14b6d36-f975-4895-8939-abd14dd4a4b9","lat":48.83173,"lng":2.29636,"sequenceId":"a1e94e75-e914-403f-8bb4-153019167838"}},{"kind":"street","id":"v:15:9741","name":"passage des Charbonniers","arr":15,"lat":48.84515,"lng":2.30974,"themes":["passages","pedestrian"],"shape":[[2.31,48.84487],[2.30992,48.84484],[2.30992,48.84485],[2.30984,48.84495],[2.30982,48.84499],[2.30976,48.84507],[2.30975,48.84509],[2.30972,48.84512],[2.30971,48.84514],[2.30962,48.84526],[2.30956,48.84535],[2.30951,48.84541],[2.3095,48.84542],[2.30949,48.84543],[2.30949,48.84543],[2.30948,48.84543],[2.30948,48.84543],[2.30947,48.84544],[2.30961,48.8454],[2.30963,48.84537],[2.30971,48.84526],[2.30975,48.8452],[2.30981,48.84513],[2.30988,48.84503],[2.30988,48.84502],[2.30989,48.84501],[2.30991,48.84499],[2.30991,48.84498],[2.30992,48.84498],[2.30993,48.84496],[2.31,48.84487]],"quartier":"Necker","lengthM":67,"story":"Voisinage de chantiers de bois et de charbon.","image":{"provider":"panoramax","id":"ab7b9ab3-6b4f-4a0a-b589-4ac51bcb3b94","lat":48.84546,"lng":2.30954,"sequenceId":"4d71f9a3-c294-4017-bb2a-325f6b597cbe"}},{"kind":"street","id":"v:15:10430","name":"passage des Écoliers","arr":15,"lat":48.84487,"lng":2.2918,"themes":["passages"],"shape":[[2.29189,48.84489],[2.29237,48.8447],[2.29277,48.84455],[2.2927,48.84446],[2.29267,48.84453],[2.29219,48.84472],[2.29218,48.8447],[2.29209,48.84473],[2.29196,48.84479],[2.29188,48.84482],[2.29186,48.8448],[2.29182,48.84481],[2.29172,48.84485],[2.29169,48.84487],[2.29157,48.84492],[2.29154,48.84493],[2.29139,48.84499],[2.29135,48.845],[2.29138,48.84503],[2.29103,48.84517],[2.29107,48.84522],[2.29116,48.84518],[2.29129,48.84513],[2.29138,48.8451],[2.29185,48.84491],[2.29189,48.84489]],"quartier":"Grenelle","lengthM":140,"story":"Conduit à des écoles."},{"kind":"street","id":"v:15:10527","name":"passage des Entrepreneurs","arr":15,"lat":48.84437,"lng":2.29268,"themes":["passages"],"shape":[[2.2925,48.84403],[2.29231,48.84402],[2.29246,48.84418],[2.29248,48.8442],[2.29251,48.84424],[2.29253,48.84427],[2.29259,48.84434],[2.29263,48.84438],[2.29265,48.84441],[2.2927,48.84446],[2.29277,48.84455],[2.29289,48.84468],[2.2929,48.84469],[2.29295,48.84475],[2.29294,48.84477],[2.29304,48.84474],[2.29299,48.84468],[2.29294,48.84463],[2.29289,48.84457],[2.29281,48.84448],[2.29273,48.84439],[2.2927,48.84435],[2.29265,48.84429],[2.29256,48.84418],[2.29255,48.84417],[2.29252,48.84414],[2.29248,48.84409],[2.2925,48.84403],[2.2925,48.84403]],"quartier":"Grenelle","lengthM":96,"story":"Voisinage de la rue des Entrepreneurs.","image":{"provider":"panoramax","id":"36347766-271c-49d8-9dd7-c2e8c547fe69","lat":48.84493,"lng":2.29301,"sequenceId":"208b4b5c-b93e-4d92-890e-ed937c4a367a"}},{"kind":"street","id":"v:15:10325","name":"passage Dombasle","arr":15,"lat":48.83625,"lng":2.30094,"themes":["passages","pedestrian"],"shape":[[2.30099,48.83605],[2.30105,48.83599],[2.30074,48.83608],[2.30077,48.83609],[2.30081,48.83618],[2.30085,48.83627],[2.30089,48.83637],[2.30096,48.83655],[2.30095,48.83657],[2.3011,48.83647],[2.30104,48.83646],[2.30102,48.83643],[2.30099,48.83636],[2.30095,48.83627],[2.30092,48.83618],[2.30089,48.83611],[2.3009,48.83611],[2.30099,48.83609],[2.30099,48.83605]],"quartier":"Saint-Lambert","lengthM":54,"story":"Christophe Joseph Alexandre Mathieu de Dombasle (1777-1843), agronome français ; quartier où ont été groupés des noms d'agronomes. Voisinage de la rue Dombasle.","image":{"provider":"panoramax","id":"25af2360-a498-4b4f-923c-b77a7fd85b07","lat":48.8365,"lng":2.30114,"sequenceId":"36ec6b4d-213a-49a6-b794-1ecea83ffc65"}},{"kind":"street","id":"v:15:10367","name":"passage Du Guesclin","arr":15,"lat":48.85206,"lng":2.29706,"themes":["passages"],"shape":[[2.29676,48.85236],[2.29697,48.85223],[2.29742,48.85186],[2.29755,48.85177],[2.29766,48.85175],[2.29739,48.85167],[2.2974,48.85174],[2.29724,48.85186],[2.29711,48.85196],[2.29699,48.85206],[2.29702,48.85207],[2.29689,48.85216],[2.29688,48.85215],[2.29668,48.85229],[2.29663,48.85228],[2.29674,48.85243],[2.29676,48.85236]],"quartier":"Grenelle","lengthM":90,"story":"Bertrand Du Guesclin (1320-1380), connétable de France ; voisinage de la rue Du Guesclin."},{"kind":"street","id":"v:15:12536","name":"passage Olivier de Serres","arr":15,"lat":48.83611,"lng":2.29586,"themes":["passages"],"shape":[[2.29566,48.83631],[2.29574,48.8362],[2.29574,48.83613],[2.29573,48.83613],[2.29572,48.83613],[2.2957,48.83613],[2.2957,48.83612],[2.29569,48.83611],[2.29569,48.8361],[2.2957,48.83609],[2.29598,48.83593],[2.296,48.83593],[2.29601,48.83594],[2.29613,48.83599],[2.29613,48.836],[2.29613,48.83601],[2.2961,48.83603],[2.29633,48.83602],[2.29661,48.83584],[2.29657,48.8358],[2.29628,48.83599],[2.29627,48.83599],[2.29625,48.83599],[2.29602,48.83589],[2.29598,48.83589],[2.29567,48.83605],[2.29561,48.83611],[2.2956,48.83616],[2.29555,48.83632],[2.29555,48.83632],[2.29554,48.83633],[2.29554,48.83632],[2.29545,48.83638],[2.2953,48.83651],[2.29551,48.83645],[2.29566,48.83631]],"quartier":"Saint-Lambert","lengthM":134,"story":"Voisinage de la rue Olivier de Serres ; Olivier de Serres (1539-1619), agronome français ; quartier où ont été groupés des noms d'agronomes.","image":{"provider":"panoramax","id":"be04c950-fdc7-43f0-b673-2f10c32e95e0","lat":48.83568,"lng":2.29676,"sequenceId":"d78d30c0-6bbb-4695-9f46-2a587dee7650"}},{"kind":"street","id":"v:15:13220","name":"passage Ribet","arr":15,"lat":48.84617,"lng":2.29986,"themes":["passages"],"shape":[[2.29985,48.84623],[2.30011,48.84603],[2.30015,48.84604],[2.30017,48.84601],[2.30002,48.84597],[2.29992,48.84595],[2.29989,48.84598],[2.30002,48.84601],[2.30004,48.84601],[2.30006,48.84602],[2.3,48.84607],[2.29992,48.84613],[2.29984,48.84619],[2.2998,48.84622],[2.29974,48.84626],[2.29967,48.84632],[2.29962,48.84636],[2.29957,48.8464],[2.29952,48.84643],[2.29955,48.84645],[2.29965,48.84638],[2.29985,48.84623]],"quartier":"Necker","lengthM":80,"story":"M. Ribet, propriétaire.","image":{"provider":"panoramax","id":"5d706f0e-0a7e-44f8-9887-7700e1a286fb","lat":48.84648,"lng":2.29949,"sequenceId":"779fb271-0ad3-4fe7-a392-7f42212eaa36"}},{"kind":"street","id":"v:15:13415","name":"passage Sécurité","arr":15,"lat":48.84911,"lng":2.29639,"themes":["passages"],"shape":[[2.29639,48.84908],[2.29637,48.84905],[2.29635,48.84903],[2.29632,48.84899],[2.29626,48.84892],[2.29622,48.84894],[2.29628,48.849],[2.29631,48.84904],[2.29632,48.84906],[2.29633,48.84906],[2.29637,48.84911],[2.29641,48.84917],[2.29645,48.84922],[2.29646,48.84923],[2.29648,48.84925],[2.29651,48.8493],[2.29655,48.84929],[2.29649,48.84922],[2.29645,48.84916],[2.29644,48.84915],[2.29641,48.8491],[2.29641,48.8491],[2.29639,48.84908]],"quartier":"Grenelle","lengthM":45,"image":{"provider":"panoramax","id":"ec23bce2-d821-4903-83e4-9cf9453de164","lat":48.84936,"lng":2.29649,"sequenceId":"1afbd7d9-3fbb-4450-9f61-0dbbcf987721"}},{"kind":"street","id":"v:15:8802","name":"place Adolphe Chérioux","arr":15,"lat":48.84027,"lng":2.30045,"themes":["places"],"shape":[[2.30069,48.84065],[2.3008,48.84048],[2.30089,48.84035],[2.30101,48.84015],[2.30109,48.84003],[2.30116,48.83992],[2.30128,48.83973],[2.30138,48.83971],[2.30065,48.83945],[2.30069,48.83952],[2.30064,48.83959],[2.30052,48.83979],[2.30046,48.83987],[2.30041,48.83995],[2.30031,48.8401],[2.30022,48.84024],[2.30017,48.84031],[2.30012,48.8404],[2.30007,48.84048],[2.30005,48.8405],[2.30005,48.8405],[2.30005,48.84051],[2.30005,48.84051],[2.30003,48.84053],[2.30004,48.84053],[2.30003,48.84053],[2.30003,48.84053],[2.29996,48.84064],[2.2999,48.84065],[2.30055,48.84087],[2.30056,48.84085],[2.30069,48.84065]],"quartier":"Saint-Lambert","lengthM":154,"story":"Adolphe Chérioux (1857-1934), conseiller municipal du quartier.","image":{"provider":"panoramax","id":"2a2fb1eb-225f-4a2b-9118-62ac540a4cef","lat":48.84071,"lng":2.29991,"sequenceId":"4986fcc3-5ed2-4338-8b90-e99c803ae717"}},{"kind":"street","id":"v:15:8857","name":"place Albert Cohen","arr":15,"lat":48.83952,"lng":2.27224,"themes":["places"],"shape":[[2.27238,48.83941],[2.27235,48.83941],[2.27232,48.83941],[2.2723,48.83941],[2.27227,48.83942],[2.27222,48.83943],[2.2722,48.83944],[2.27217,48.83945],[2.27216,48.83946],[2.27214,48.83947],[2.27212,48.83948],[2.27211,48.83949],[2.2721,48.83951],[2.27209,48.83952],[2.27208,48.83954],[2.27207,48.83955],[2.27207,48.83956],[2.27206,48.83958],[2.27206,48.8396],[2.27206,48.83961],[2.27207,48.83962],[2.27207,48.83964],[2.27209,48.83967],[2.2721,48.83968],[2.27211,48.8397],[2.27213,48.83972],[2.27221,48.83981],[2.2727,48.83962],[2.27259,48.8395],[2.27256,48.83948],[2.27254,48.83946],[2.27249,48.83944],[2.27247,48.83943],[2.27244,48.83942],[2.27242,48.83942],[2.27238,48.83941]],"quartier":"Javel","story":"Albert Cohen (Corfou, 1895-Genève, 1981), diplomate et écrivain suisse d'expression française, grand prix de l'Académie française pour son roman \"Belle du Seigneur\" en 1968.","image":{"provider":"panoramax","id":"dd98d563-bb8e-45a1-a4a0-d84c3e5e8b9d","lat":48.83968,"lng":2.27202,"sequenceId":"aee1afa9-c0ff-4c56-a4fe-cb8829f69cd0"}},{"kind":"street","id":"v:15:14841","name":"place Alfred Dreyfus","arr":15,"lat":48.847,"lng":2.29276,"themes":["places"],"shape":[[2.29265,48.84708],[2.29265,48.84708],[2.29266,48.84709],[2.29267,48.84709],[2.29267,48.84709],[2.29268,48.84709],[2.29269,48.84709],[2.2927,48.84709],[2.29271,48.84709],[2.29295,48.84701],[2.29295,48.847],[2.29296,48.847],[2.29297,48.84699],[2.29297,48.84699],[2.29297,48.84698],[2.29297,48.84698],[2.29297,48.84697],[2.29297,48.84697],[2.29297,48.84696],[2.29296,48.84696],[2.29296,48.84695],[2.29295,48.84695],[2.29294,48.84694],[2.29293,48.84694],[2.2926,48.84693],[2.2926,48.84693],[2.29259,48.84693],[2.29258,48.84693],[2.29257,48.84694],[2.29256,48.84694],[2.29256,48.84695],[2.29256,48.84695],[2.29256,48.84696],[2.29256,48.84697],[2.29256,48.84697],[2.29265,48.84708]],"quartier":"Grenelle","lengthM":30,"story":"Alfred Dreyfus (Mulhouse, 1859- Paris, 1935) officier français. De  confession  israélite,   accusé et  condamné  à  tort  pour  espionnage (1894), il fut gracié (1899) et réhabilité (1906) après une longue campagne de révision.","image":{"provider":"panoramax","id":"dae72ee0-f721-4fed-9df9-94e85f34eb94","lat":48.84692,"lng":2.29301,"sequenceId":"779fb271-0ad3-4fe7-a392-7f42212eaa36"}},{"kind":"street","id":"v:15:8882","name":"place Alfred Sauvy","arr":15,"lat":48.85281,"lng":2.2935,"themes":["places"],"shape":[[2.29357,48.85285],[2.29359,48.85284],[2.29359,48.85284],[2.2936,48.85284],[2.29374,48.85293],[2.29386,48.85288],[2.2934,48.85257],[2.29332,48.85265],[2.29346,48.85275],[2.29345,48.85275],[2.29345,48.85275],[2.29344,48.85276],[2.2934,48.85279],[2.29336,48.85282],[2.29331,48.85285],[2.29344,48.85294],[2.29349,48.85291],[2.29353,48.85288],[2.29357,48.85285]],"quartier":"Grenelle","lengthM":68,"story":"Alfred Sauvy (Villeneuve de la Raho, 1898-1990), sociologue et démographe français de renommée internationale."},{"kind":"street","id":"v:15:8913","name":"place Alphonse Humbert","arr":15,"lat":48.8461,"lng":2.28134,"themes":["places"],"shape":[[2.28139,48.84599],[2.28134,48.84598],[2.28119,48.84602],[2.28117,48.84609],[2.28112,48.84612],[2.28096,48.8462],[2.28129,48.84622],[2.28162,48.84624],[2.28153,48.84616],[2.28152,48.84615],[2.28152,48.84607],[2.28139,48.84599]],"quartier":"Javel","story":"Alphonse Jean Joseph Humbert (1844-1922), président du Conseil municipal et député de Paris.","image":{"provider":"panoramax","id":"129987f3-6af7-49b0-a242-4933eac44913","lat":48.8463,"lng":2.28126,"sequenceId":"107a8b01-d8c1-461a-a501-80741cde1959"}},{"kind":"street","id":"v:15:14747","name":"place Amédée Gordini","arr":15,"lat":48.83065,"lng":2.29192,"themes":["places"],"shape":[[2.2921,48.83075],[2.2921,48.83019],[2.29209,48.8302],[2.29206,48.83023],[2.29205,48.83024],[2.29203,48.83026],[2.29201,48.83027],[2.29198,48.83028],[2.29199,48.83028],[2.29194,48.8303],[2.29176,48.83053],[2.29176,48.83056],[2.29177,48.83058],[2.29178,48.83059],[2.29179,48.83061],[2.29181,48.83063],[2.29183,48.83067],[2.29184,48.8307],[2.29185,48.83073],[2.29185,48.83075],[2.29185,48.8308],[2.29184,48.83083],[2.29183,48.83086],[2.29182,48.83088],[2.29179,48.83093],[2.29176,48.83097],[2.29174,48.83098],[2.2917,48.83101],[2.29197,48.8309],[2.29201,48.83088],[2.29202,48.83086],[2.29205,48.83084],[2.29207,48.83083],[2.29208,48.8308],[2.29209,48.83078],[2.2921,48.83075]],"quartier":"Saint-Lambert","lengthM":68,"story":"Amédée-Jean Gordini (Bazzano (Italie), 1899-Paris, 1979) constructeur de voitures monoplaces de sport.","image":{"provider":"panoramax","id":"60eb7ac5-3b44-40aa-950c-954ee588d43d","lat":48.83095,"lng":2.29195,"sequenceId":"86b7634f-5570-4ac5-ada5-5394a11a227e"}},{"kind":"street","id":"v:15:15365","name":"place Athanase Bassinet","arr":15,"lat":48.84285,"lng":2.30239,"themes":["places"],"shape":[[2.30218,48.84294],[2.30227,48.84298],[2.30249,48.84299],[2.30252,48.84283],[2.30252,48.84281],[2.30251,48.8428],[2.3025,48.84279],[2.30248,48.84279],[2.30246,48.84278],[2.30243,48.84279],[2.30241,48.84279],[2.3024,48.84279],[2.3024,48.84281],[2.30214,48.84287],[2.30218,48.84294]],"quartier":"Necker","story":"Athanase Bassinet (Chantôme (Indre), 1850- Paris, 1914), entrepreneur, ancien maire du 15e arrondissement et sénateur de la Seine.","image":{"provider":"panoramax","id":"db6fcaf5-1b2b-4c52-a6cb-6187be9994d9","lat":48.84275,"lng":2.30244,"sequenceId":"11d7163b-4485-4c20-8a7a-94afa7fac2b6"}},{"kind":"street","id":"v:15:9154","name":"place Balard","arr":15,"lat":48.83657,"lng":2.27845,"themes":["places"],"shape":[[2.27898,48.83667],[2.2789,48.83664],[2.2788,48.83666],[2.27873,48.83664],[2.27871,48.83661],[2.27859,48.83639],[2.27861,48.83631],[2.27863,48.83629],[2.27864,48.83627],[2.2787,48.8362],[2.27802,48.83635],[2.27803,48.83636],[2.27804,48.83637],[2.27808,48.83637],[2.27809,48.83637],[2.2781,48.83638],[2.27813,48.83639],[2.27815,48.83639],[2.27816,48.8364],[2.27817,48.83641],[2.27815,48.83645],[2.27817,48.83646],[2.27819,48.83647],[2.27822,48.83647],[2.27822,48.83648],[2.27834,48.8367],[2.27834,48.8367],[2.27833,48.83671],[2.27823,48.83684],[2.27829,48.83697],[2.27876,48.83715],[2.27883,48.83713],[2.27889,48.83711],[2.27904,48.83696],[2.27909,48.83679],[2.27898,48.83667]],"quartier":"Javel","lengthM":100,"story":"Antoine Jérôme Balard (1802-1876), chimiste français ; Voisinage de la rue Balard.","image":{"provider":"panoramax","id":"4afd4d6e-cdf6-48be-9c33-e3719ab44e0c","lat":48.8364,"lng":2.27818,"sequenceId":"4eec1f23-93df-4f3f-b392-28c367549119"}},{"kind":"street","id":"v:15:9333","name":"place Bienvenüe","arr":15,"lat":48.84237,"lng":2.3204,"themes":["places"],"shape":[[2.32074,48.84234],[2.32026,48.8422],[2.32026,48.84221],[2.32029,48.84225],[2.32027,48.84232],[2.32021,48.84245],[2.3202,48.84249],[2.32034,48.84251],[2.32065,48.84256],[2.32074,48.84234]],"quartier":"Necker","story":"Fulgence Marie Auguste Bienvenüe (1852-1936), inspecteur général de la Ville de Paris, surnommé le \"Père du Métro\".","image":{"provider":"panoramax","id":"04735977-59d5-43fe-b488-bcd71d31d619","lat":48.84246,"lng":2.32053,"sequenceId":"cf60b498-51cd-41ff-a974-5bae4347be83"}},{"kind":"street","id":"v:15:9568","name":"place Cambronne","arr":15,"lat":48.84767,"lng":2.30159,"themes":["places"],"shape":[[2.30177,48.84748],[2.30173,48.84748],[2.30154,48.84749],[2.30149,48.84749],[2.30147,48.8475],[2.30142,48.84751],[2.30139,48.84752],[2.30136,48.84752],[2.30134,48.84753],[2.30131,48.84754],[2.30127,48.84755],[2.30125,48.84756],[2.30122,48.84758],[2.30107,48.84766],[2.30088,48.84789],[2.30089,48.8479],[2.30089,48.84793],[2.30089,48.84794],[2.30102,48.8481],[2.30115,48.84828],[2.30119,48.84828],[2.30159,48.84821],[2.30244,48.84788],[2.30261,48.84783],[2.30238,48.84769],[2.30212,48.84756],[2.3021,48.84755],[2.30207,48.84754],[2.30204,48.84753],[2.30201,48.84752],[2.30198,48.84751],[2.3019,48.8475],[2.30187,48.84749],[2.30184,48.84749],[2.3018,48.84748],[2.30177,48.84748]],"quartier":"Grenelle","story":"Le vicomte Pierre Jacques Etienne Cambronne (1770-1842), lieutenant-général français ; voisinage de l'Ecole Militaire.","image":{"provider":"panoramax","id":"9b8f8fb5-63ba-454d-8b22-34aa966145d0","lat":48.84805,"lng":2.30103,"sequenceId":"4d71f9a3-c294-4017-bb2a-325f6b597cbe"}},{"kind":"street","id":"v:15:9573","name":"place Camille Claudel","arr":15,"lat":48.84456,"lng":2.31773,"themes":["places"],"shape":[[2.31799,48.84469],[2.31809,48.84459],[2.31775,48.8445],[2.31757,48.84447],[2.31744,48.84444],[2.31726,48.84442],[2.31772,48.84471],[2.31799,48.84469]],"quartier":"Necker","story":"Camille Claudel (Fère-en-Tardenois, 1864-Montdevergues, 1943), sculpteur français, collaboratrice et amie de Rodin.","image":{"provider":"panoramax","id":"c7aefcbf-6f2b-4d98-b686-aeeba4910f62","lat":48.84441,"lng":2.31747,"sequenceId":"4d71f9a3-c294-4017-bb2a-325f6b597cbe"}},{"kind":"street","id":"v:15:15628","name":"place Chantal Mauduit","arr":15,"lat":48.83072,"lng":2.30391,"themes":["places"],"shape":[[2.30406,48.83079],[2.30408,48.83059],[2.30408,48.83052],[2.3038,48.83066],[2.30372,48.8307],[2.30356,48.83079],[2.30391,48.83089],[2.30406,48.83079]],"quartier":"Saint-Lambert","story":"Chantal Mauduit (Paris, 1964 - Népal, 1998), Alpiniste française. Engagée dans la cause tibétaine.","image":{"provider":"panoramax","id":"077e7130-e077-4952-bb0d-b56afb280143","lat":48.83069,"lng":2.3037,"sequenceId":"fdfc1d92-b15f-425b-92fd-33a02621d2f0"}},{"kind":"street","id":"v:15:9783","name":"place Charles Michels","arr":15,"lat":48.84688,"lng":2.28579,"themes":["places"],"shape":[[2.28616,48.84668],[2.28621,48.84665],[2.28501,48.84668],[2.28509,48.84677],[2.28517,48.84686],[2.2854,48.84707],[2.28553,48.8471],[2.28566,48.84714],[2.28583,48.84708],[2.28604,48.847],[2.28613,48.84696],[2.28613,48.84695],[2.28614,48.84682],[2.28615,48.84674],[2.28616,48.84668]],"quartier":"Grenelle","lengthM":70,"story":"Charles Michels (1903-1941), député du XVe arrondissement, fusillé comme otage par les Allemands le 22 octobre 1941.","image":{"provider":"panoramax","id":"6e6ad272-4ff6-46e4-9df5-ddf461fd3c72","lat":48.84696,"lng":2.28585,"sequenceId":"21609ebf-fcec-4c45-8c53-3b88fc20f9b0"}},{"kind":"street","id":"v:15:9794","name":"place Charles Vallin","arr":15,"lat":48.83543,"lng":2.30255,"themes":["places"],"shape":[[2.30286,48.8352],[2.30278,48.83518],[2.30254,48.83527],[2.30251,48.83532],[2.30209,48.83544],[2.30212,48.83549],[2.30206,48.8357],[2.30214,48.83578],[2.30262,48.83577],[2.30282,48.83551],[2.30283,48.83548],[2.30288,48.83521],[2.30286,48.8352]],"quartier":"Saint-Lambert","story":"Charles Vallin (1903-1948) député, officier de l'armée française ; a participé aux campagnes du Tchad, de France et d'Allemagne.","image":{"provider":"panoramax","id":"38391fc0-1aff-485b-84ed-ac2d6bd71c4a","lat":48.83571,"lng":2.30203,"sequenceId":"5a76905b-2d98-43ab-acd2-b8e6d39ccb2b"}},{"kind":"street","id":"v:15:8897","name":"place d'Alleray","arr":15,"lat":48.83633,"lng":2.30661,"themes":["places"],"shape":[[2.30706,48.83619],[2.30666,48.83615],[2.30662,48.83615],[2.30658,48.83614],[2.30656,48.83614],[2.30653,48.83614],[2.30647,48.83615],[2.30639,48.83617],[2.30631,48.83621],[2.30627,48.83623],[2.30624,48.83627],[2.30623,48.83629],[2.30622,48.83632],[2.30621,48.83635],[2.30605,48.83647],[2.30607,48.83651],[2.30609,48.83653],[2.30611,48.83655],[2.30657,48.83659],[2.30663,48.83658],[2.30668,48.83657],[2.30674,48.83655],[2.30679,48.83653],[2.30683,48.83649],[2.30686,48.83647],[2.30687,48.83645],[2.30688,48.83641],[2.30689,48.83636],[2.30688,48.83631],[2.30688,48.8363],[2.30687,48.83628],[2.30686,48.83627],[2.30695,48.83623],[2.30701,48.83622],[2.30705,48.83619],[2.30706,48.83619]],"quartier":"Saint-Lambert","story":"Denis François Angrand d'Alleray (1716-1794), dernier seigneur de Vaugirard.","image":{"provider":"panoramax","id":"04f12d33-39c2-4dbe-a38a-490b0df9a36b","lat":48.83649,"lng":2.30664,"sequenceId":"a1e94e75-e914-403f-8bb4-153019167838"}},{"kind":"street","id":"v:15:9475","name":"place de Brazzaville","arr":15,"lat":48.85097,"lng":2.28572,"themes":["places"],"shape":[[2.28656,48.85098],[2.287,48.85083],[2.2871,48.85081],[2.28719,48.85081],[2.28728,48.85083],[2.28735,48.85086],[2.28677,48.85033],[2.28666,48.8504],[2.28637,48.85047],[2.28622,48.85051],[2.28608,48.85055],[2.28593,48.85059],[2.28568,48.85067],[2.28517,48.85085],[2.28506,48.85088],[2.28503,48.85089],[2.28496,48.85091],[2.28486,48.85092],[2.28479,48.85092],[2.28473,48.85092],[2.28465,48.85091],[2.28457,48.8509],[2.28445,48.85086],[2.28438,48.85083],[2.28431,48.85079],[2.28526,48.85155],[2.28547,48.8517],[2.28544,48.85165],[2.28543,48.85162],[2.28544,48.85158],[2.28546,48.85152],[2.2855,48.85149],[2.28555,48.85145],[2.28606,48.85119],[2.28642,48.85103],[2.28656,48.85098]],"quartier":"Grenelle","lengthM":70,"story":"Brazzaville, capitale de la République du Congo.","image":{"provider":"panoramax","id":"95aac79c-1db9-48d5-96b1-0fad50b7aa4a","lat":48.85132,"lng":2.28442,"sequenceId":"6ae00fbf-4ae2-4c90-8455-eee6a8f868d1"}},{"kind":"street","id":"v:15:14748","name":"place de Kyoto","arr":15,"lat":48.85496,"lng":2.28962,"themes":["places"],"shape":[[2.28983,48.85491],[2.28987,48.85487],[2.28985,48.85488],[2.28982,48.85488],[2.28978,48.85488],[2.2897,48.85489],[2.28967,48.85489],[2.28962,48.85488],[2.28957,48.85488],[2.28952,48.85487],[2.28951,48.85487],[2.28949,48.85486],[2.28943,48.85484],[2.2894,48.85483],[2.28938,48.85482],[2.28932,48.85479],[2.28931,48.85479],[2.28955,48.85501],[2.28962,48.85507],[2.28962,48.85507],[2.28962,48.85507],[2.28962,48.85507],[2.28963,48.85507],[2.28963,48.85507],[2.28963,48.85507],[2.28963,48.85507],[2.28963,48.85507],[2.28964,48.85507],[2.28964,48.85507],[2.28964,48.85507],[2.28964,48.85507],[2.28965,48.85507],[2.28965,48.85507],[2.28965,48.85507],[2.28981,48.85493],[2.28983,48.85491]],"quartier":"Grenelle","story":"Kyôto, ancienne capitale du Japon.","image":{"provider":"panoramax","id":"b025ceef-1958-4f65-9626-7d5a6cdb84c9","lat":48.85513,"lng":2.2895,"sequenceId":"131d48f7-16d7-4a94-bc5d-53a1dd87aa11"}},{"kind":"street","id":"v:15:15060","name":"place de la Laïcité","arr":15,"lat":48.84359,"lng":2.27478,"themes":["places"],"shape":[[2.27513,48.84412],[2.27536,48.84402],[2.27488,48.8435],[2.27488,48.8435],[2.27488,48.8435],[2.27488,48.8435],[2.27487,48.8435],[2.27487,48.8435],[2.27487,48.8435],[2.27487,48.8435],[2.27486,48.8435],[2.27486,48.84349],[2.27486,48.84349],[2.27486,48.8435],[2.27485,48.8435],[2.27485,48.8435],[2.27466,48.84357],[2.27466,48.84357],[2.27465,48.84357],[2.27465,48.84357],[2.27465,48.84357],[2.27465,48.84357],[2.27465,48.84357],[2.27464,48.84357],[2.27464,48.84358],[2.27464,48.84358],[2.27464,48.84358],[2.27464,48.84358],[2.27464,48.84358],[2.27464,48.84358],[2.27464,48.84358],[2.27464,48.84359],[2.27464,48.84359],[2.27464,48.84359],[2.27465,48.84359],[2.27513,48.84412]],"quartier":"Javel","lengthM":70,"story":"Cette dénomination s'inscrit dans le cadre de la volonté du maire de Paris de rendre vivante la laïcité, principe fondateur de notre République et pilier de notre Constitution.","image":{"provider":"panoramax","id":"90d16056-07e4-4526-8a15-7201c5315d81","lat":48.84357,"lng":2.27461,"sequenceId":"9af53398-9071-43ba-b946-d8c698ea392a"}},{"kind":"street","id":"v:15:12307","name":"place de la Montagne du Goulet","arr":15,"lat":48.84434,"lng":2.27754,"themes":["places","pedestrian"],"shape":[[2.27746,48.84413],[2.27744,48.84412],[2.27737,48.84453],[2.27738,48.84453],[2.27738,48.84453],[2.27742,48.84452],[2.27743,48.84452],[2.27744,48.84452],[2.27747,48.84451],[2.27748,48.8445],[2.2775,48.8445],[2.27751,48.84449],[2.27754,48.84448],[2.27756,48.84447],[2.27757,48.84446],[2.27759,48.84444],[2.2776,48.84443],[2.27761,48.84442],[2.27763,48.84439],[2.27763,48.84438],[2.27764,48.84436],[2.27765,48.84432],[2.27765,48.84431],[2.27764,48.84429],[2.27763,48.84426],[2.27763,48.84425],[2.27762,48.84423],[2.27761,48.84422],[2.27759,48.8442],[2.27758,48.84419],[2.27757,48.84418],[2.27754,48.84416],[2.27753,48.84415],[2.27751,48.84414],[2.27747,48.84413],[2.27746,48.84413]],"quartier":"Javel","story":"Sommet de la région des Cévennes.","image":{"provider":"panoramax","id":"7f07cf60-1dc3-432c-b339-0f27abbfa647","lat":48.84436,"lng":2.27725,"sequenceId":"d4bb3ce3-6dc0-499b-88c9-866ae34141a6"}},{"kind":"street","id":"v:15:13008","name":"place de la Porte de Versailles","arr":15,"lat":48.83225,"lng":2.28786,"themes":["places"],"shape":[[2.28765,48.83242],[2.28772,48.83237],[2.28787,48.83233],[2.2882,48.83233],[2.2888,48.83234],[2.28888,48.8321],[2.28881,48.8321],[2.28878,48.83208],[2.28871,48.83205],[2.28868,48.83203],[2.28863,48.83201],[2.28858,48.83199],[2.28854,48.83197],[2.28853,48.83197],[2.28822,48.83197],[2.2882,48.83197],[2.28815,48.83199],[2.28811,48.83201],[2.28804,48.83203],[2.288,48.83205],[2.28796,48.83207],[2.28789,48.8321],[2.28729,48.83234],[2.28705,48.83244],[2.28705,48.83244],[2.28704,48.83244],[2.28704,48.83244],[2.28704,48.83244],[2.28704,48.83244],[2.28704,48.83244],[2.28703,48.83244],[2.28703,48.83244],[2.28692,48.83261],[2.28733,48.83291],[2.28755,48.83256],[2.28765,48.83242]],"quartier":"Saint-Lambert","story":"Située en partie sur l'emplacement de l'ancienne porte de Versailles.","image":{"provider":"panoramax","id":"a25de30d-9c62-457d-a046-389f14ce168b","lat":48.83224,"lng":2.28798,"sequenceId":"87a433b8-503c-4742-8f1d-e466b9063a66"}},{"kind":"street","id":"v:15:14750","name":"place de la République de Panama","arr":15,"lat":48.84606,"lng":2.30879,"themes":["places"],"shape":[[2.3087,48.84614],[2.30872,48.84614],[2.30873,48.84614],[2.30874,48.84614],[2.30875,48.84614],[2.30876,48.84614],[2.30877,48.84613],[2.30904,48.84597],[2.30904,48.84596],[2.30904,48.84596],[2.30904,48.84596],[2.30904,48.84595],[2.30904,48.84595],[2.30903,48.84595],[2.30903,48.84595],[2.30903,48.84594],[2.30902,48.84594],[2.30901,48.84594],[2.30869,48.84604],[2.30868,48.84604],[2.30867,48.84605],[2.30866,48.84605],[2.30865,48.84606],[2.30864,48.84607],[2.30864,48.84607],[2.30864,48.84608],[2.30864,48.84609],[2.30864,48.8461],[2.30864,48.84611],[2.30865,48.84611],[2.30865,48.84612],[2.30866,48.84613],[2.30867,48.84613],[2.30868,48.84614],[2.30869,48.84614],[2.3087,48.84614]],"quartier":"Necker","story":"Panamá : république de l'Amérique centrale.","image":{"provider":"panoramax","id":"2b188a98-aa5d-45ec-958d-96bbf60c58f3","lat":48.84599,"lng":2.30867,"sequenceId":"6ae00fbf-4ae2-4c90-8455-eee6a8f868d1"}},{"kind":"street","id":"v:15:11352","name":"place des Insurgés de Varsovie","arr":15,"lat":48.82759,"lng":2.29274,"themes":["places"],"shape":[[2.29264,48.82804],[2.29266,48.82804],[2.29274,48.82802],[2.29274,48.82802],[2.29286,48.82798],[2.29294,48.82794],[2.2931,48.82785],[2.29317,48.8278],[2.29319,48.82777],[2.2932,48.82775],[2.29323,48.8277],[2.29323,48.82768],[2.29324,48.82766],[2.29325,48.82763],[2.29325,48.82761],[2.29325,48.82757],[2.29312,48.82742],[2.29297,48.82718],[2.29295,48.82716],[2.29289,48.82713],[2.29286,48.82711],[2.29279,48.82709],[2.29276,48.82708],[2.29268,48.82706],[2.29264,48.82706],[2.2926,48.82706],[2.29222,48.82714],[2.292,48.82723],[2.29172,48.82735],[2.29185,48.82751],[2.29207,48.82783],[2.29208,48.82789],[2.29219,48.82794],[2.2923,48.82797],[2.29252,48.82803],[2.29264,48.82804]],"quartier":"Saint-Lambert","story":"Hommage aux habitants de la capitale polonaise qui se révoltèrent contre l'occupant au cours de la seconde guerre mondiale.","image":{"provider":"panoramax","id":"609865e1-a0ce-4f13-a1fa-502411dd4b0e","lat":48.82707,"lng":2.29292,"sequenceId":"e5cc7998-d64c-4eee-9150-b73973f5aa8d"}},{"kind":"street","id":"v:15:14840","name":"place des Martyrs de la Résistance de la Porte de Sèvres","arr":15,"lat":48.83359,"lng":2.27684,"themes":["places"],"shape":[[2.27745,48.83335],[2.2766,48.83307],[2.27647,48.83313],[2.27637,48.8332],[2.27629,48.83322],[2.27634,48.83359],[2.27656,48.83368],[2.27659,48.8337],[2.27663,48.83371],[2.27667,48.83372],[2.27668,48.83372],[2.27669,48.83373],[2.27669,48.83373],[2.2767,48.83373],[2.27671,48.83374],[2.27671,48.83374],[2.27672,48.83375],[2.27672,48.83375],[2.27673,48.83376],[2.27673,48.83376],[2.27676,48.83382],[2.27729,48.83361],[2.27729,48.8336],[2.27729,48.83359],[2.27729,48.83358],[2.27729,48.83357],[2.27729,48.83357],[2.27734,48.8335],[2.27745,48.83335]],"quartier":"Javel","story":"Hommage à tous les résistants et patriotes qui furent torturés et massacrés par les nazis dans les stands de tir du Champ de Manœuvres d'Issy-les-Moulineaux.","image":{"provider":"panoramax","id":"6bfadbbc-d15c-4117-b13f-cca54f27d299","lat":48.83383,"lng":2.27673,"sequenceId":"5ba1db46-e105-454f-9218-24587c3be980"}},{"kind":"street","id":"v:15:12139","name":"place des Martyrs Juifs du Vélodrome d'Hiver","arr":15,"lat":48.85446,"lng":2.28883,"themes":["places"],"shape":[[2.28908,48.85454],[2.28914,48.85447],[2.28908,48.85448],[2.28916,48.8544],[2.28871,48.85421],[2.28858,48.85422],[2.28847,48.85441],[2.28851,48.85447],[2.28852,48.8545],[2.28884,48.85481],[2.28908,48.85454]],"quartier":"Grenelle","story":"Nom donné en mémoire des 12 884 Juifs étrangers et français (3031 hommes, 5802 femmes et 4051 enfants) arrêtés par la police française sur ordre des autorités nazies, lors de la grande rafle des 16-17 juillet 1942.","image":{"provider":"panoramax","id":"ba2133e4-327e-4d2c-b2e2-44b86d54ee35","lat":48.85426,"lng":2.28854,"sequenceId":"6ae00fbf-4ae2-4c90-8455-eee6a8f868d1"}},{"kind":"street","id":"v:15:9612","name":"place du Cardinal Amette","arr":15,"lat":48.85073,"lng":2.29682,"themes":["places"],"shape":[[2.29661,48.85124],[2.29713,48.85089],[2.297,48.8506],[2.29697,48.85062],[2.29693,48.85061],[2.2969,48.8506],[2.29687,48.85059],[2.29684,48.85058],[2.29682,48.85058],[2.29678,48.85058],[2.29675,48.85058],[2.29671,48.85058],[2.29667,48.85058],[2.29664,48.85059],[2.29661,48.85061],[2.29658,48.85062],[2.29628,48.85095],[2.29668,48.85069],[2.29671,48.85068],[2.29674,48.85067],[2.29677,48.85067],[2.2968,48.85068],[2.29683,48.85068],[2.29686,48.85069],[2.29689,48.85071],[2.29691,48.85072],[2.29693,48.85074],[2.29695,48.85075],[2.29697,48.85077],[2.29698,48.85079],[2.29699,48.85082],[2.29699,48.85084],[2.29699,48.85086],[2.29697,48.85087],[2.29695,48.85089],[2.29661,48.85124]],"quartier":"Grenelle","story":"Léon Adolphe Amette (1850-1920), cardinal archevêque de Paris.","image":{"provider":"panoramax","id":"769e7b0a-8055-479d-b334-6c414b03af3c","lat":48.85028,"lng":2.2963,"sequenceId":"779fb271-0ad3-4fe7-a392-7f42212eaa36"}},{"kind":"street","id":"v:15:9994","name":"place du Commerce","arr":15,"lat":48.84533,"lng":2.29213,"themes":["places"],"shape":[[2.29153,48.84568],[2.29184,48.84556],[2.29199,48.8455],[2.29208,48.84548],[2.29236,48.8455],[2.29244,48.84547],[2.29277,48.84535],[2.29307,48.84523],[2.29361,48.84503],[2.29385,48.84494],[2.29349,48.84456],[2.29321,48.84467],[2.29257,48.84492],[2.29247,48.84496],[2.29239,48.84499],[2.29233,48.84501],[2.29227,48.84504],[2.29222,48.84506],[2.29208,48.84511],[2.29126,48.84543],[2.29139,48.84558],[2.29139,48.84557],[2.29139,48.84556],[2.29174,48.84543],[2.29188,48.84538],[2.29189,48.84538],[2.29191,48.84539],[2.29195,48.84544],[2.29196,48.84545],[2.29195,48.84546],[2.29182,48.84552],[2.29147,48.84565],[2.29146,48.84565],[2.29145,48.84565],[2.29151,48.84572],[2.29153,48.84568]],"quartier":"Grenelle","lengthM":200,"story":"Voisinage de la rue du Commerce. Principale rue commerçante de l'ancienne commune de Grenelle.","image":{"provider":"panoramax","id":"99174e31-5ce2-41ad-ae72-07842a5051a8","lat":48.8451,"lng":2.29259,"sequenceId":"208b4b5c-b93e-4d92-890e-ed937c4a367a"}},{"kind":"street","id":"v:15:14727","name":"place du Comtat Venaissin","arr":15,"lat":48.84141,"lng":2.29132,"themes":["places"],"shape":[[2.29132,48.84134],[2.29129,48.84134],[2.29127,48.84134],[2.29124,48.84134],[2.29124,48.84134],[2.29122,48.84135],[2.29119,48.84135],[2.29118,48.84136],[2.29116,48.84138],[2.29115,48.84139],[2.29111,48.84143],[2.29114,48.84144],[2.29163,48.84173],[2.29159,48.84167],[2.29146,48.84149],[2.29147,48.84147],[2.29143,48.84142],[2.29141,48.84139],[2.2914,48.84138],[2.29138,48.84137],[2.29136,48.84136],[2.29134,48.84135],[2.29132,48.84134]],"quartier":"Javel","story":"Ancien pays du midi de la France qui était limité par le Rhône, la Durance et le Mont Ventoux. Le comtat Venaissin doit son nom à Venasque, commune du Vaucluse, qui en fut longtemps la capitale.","image":{"provider":"panoramax","id":"828716a7-bde7-4a6a-89c7-4608d362312b","lat":48.84104,"lng":2.29156,"sequenceId":"779fb271-0ad3-4fe7-a392-7f42212eaa36"}},{"kind":"street","id":"v:15:10940","name":"place du Général Beuret","arr":15,"lat":48.84187,"lng":2.30306,"themes":["places"],"shape":[[2.30291,48.84163],[2.3029,48.84163],[2.30282,48.84174],[2.30286,48.84182],[2.30293,48.84199],[2.30296,48.84207],[2.30316,48.84214],[2.30317,48.84212],[2.30322,48.84205],[2.30331,48.84192],[2.30338,48.84182],[2.3032,48.84173],[2.30291,48.84163]],"quartier":"Necker","story":"Précédemment, partie des rues du Général Beuret, Blomet et Cambronne.","image":{"provider":"panoramax","id":"59930c68-8852-44c5-9492-4133cfa38fda","lat":48.84213,"lng":2.3031,"sequenceId":"ba050e56-cb4d-4a13-90a3-aa369b35b18e"}},{"kind":"street","id":"v:15:10916","name":"place du Général Monclar","arr":15,"lat":48.83378,"lng":2.30926,"themes":["places"],"shape":[[2.30937,48.83366],[2.30939,48.83361],[2.30895,48.83374],[2.30899,48.83377],[2.30916,48.83384],[2.30924,48.83385],[2.30941,48.83395],[2.30948,48.83393],[2.30937,48.83366]],"quartier":"Saint-Lambert","story":"Magrin Verneret dit le Général Monclar, (1892-1964), a participé aux deux guerres mondiales ; s'est rallié dès 1940 au général de Gaulle ; commandant des forces françaises, mises à la disposition de l'ONU qui participèrent aux combats de Corée.","image":{"provider":"panoramax","id":"06f806ac-9414-47a1-8431-81710a146285","lat":48.83377,"lng":2.30917,"sequenceId":"e5cc7998-d64c-4eee-9150-b73973f5aa8d"}},{"kind":"street","id":"v:15:14898","name":"place du Moulin de Javel","arr":15,"lat":48.84032,"lng":2.27172,"themes":["places"],"shape":[[2.27203,48.84013],[2.27171,48.84003],[2.27155,48.84007],[2.27138,48.84012],[2.27138,48.84012],[2.27107,48.84007],[2.27131,48.84049],[2.27163,48.84054],[2.27172,48.84055],[2.27179,48.84057],[2.27185,48.84059],[2.27192,48.84061],[2.27215,48.84044],[2.27226,48.8404],[2.27203,48.84013]],"quartier":"Javel","story":"Ce nom fait référence à la présence, sur le site, du moulin à vent de Javel, attesté en 1629, et de la fabrique où fut mise au point et élaborée en 1777, l'eau de Javel.","image":{"provider":"panoramax","id":"36ad581a-156b-48dd-9901-b1cc530ca55b","lat":48.84051,"lng":2.27161,"sequenceId":"bea6874e-5c7a-455f-96bd-c599e1737d7c"}},{"kind":"street","id":"v:15:10387","name":"place Dupleix","arr":15,"lat":48.85118,"lng":2.29562,"themes":["places"],"shape":[[2.29642,48.85131],[2.29604,48.85105],[2.29603,48.85106],[2.29601,48.85105],[2.29602,48.85104],[2.29565,48.85079],[2.29554,48.85063],[2.29554,48.85066],[2.29531,48.85078],[2.29526,48.85081],[2.29519,48.85084],[2.29515,48.85086],[2.29498,48.85095],[2.29481,48.85101],[2.29481,48.85104],[2.29503,48.85117],[2.29521,48.85128],[2.29521,48.85128],[2.29522,48.85129],[2.29528,48.85133],[2.29546,48.85146],[2.29558,48.85153],[2.29577,48.85166],[2.29588,48.85173],[2.29596,48.85179],[2.29613,48.85168],[2.29646,48.85146],[2.29657,48.85145],[2.29642,48.85131]],"quartier":"Grenelle","lengthM":113,"story":"Guillaume Joseph Dupleix (1697-1763), gouverneur de l'Inde.","image":{"provider":"panoramax","id":"1965fdad-3f86-450a-9261-38d2d41afb24","lat":48.85113,"lng":2.29482,"sequenceId":"779fb271-0ad3-4fe7-a392-7f42212eaa36"}},{"kind":"street","id":"v:15:10589","name":"place Étienne Pernet","arr":15,"lat":48.84319,"lng":2.29253,"themes":["places"],"shape":[[2.29255,48.8438],[2.29336,48.84348],[2.29331,48.84346],[2.29318,48.84343],[2.29312,48.84341],[2.29305,48.84334],[2.29291,48.84318],[2.29287,48.84312],[2.29282,48.84307],[2.29274,48.84298],[2.29281,48.84295],[2.29259,48.84269],[2.29254,48.84274],[2.29247,48.84266],[2.29241,48.84257],[2.29231,48.84244],[2.29213,48.84254],[2.29195,48.84261],[2.29175,48.84281],[2.29194,48.8429],[2.292,48.84293],[2.29207,48.843],[2.292,48.84303],[2.29206,48.8431],[2.29231,48.84339],[2.29237,48.84346],[2.29244,48.84343],[2.29246,48.84345],[2.29248,48.84347],[2.29252,48.84352],[2.29255,48.84356],[2.29256,48.84358],[2.29259,48.84361],[2.29259,48.84361],[2.29258,48.84368],[2.29255,48.8438]],"quartier":"Javel","lengthM":135,"story":"Le Père Etienne Pernet (1824-1899), fondateur de la congrégation des petites soeurs de l'Assomption ; voisinage de leur maison principale.","image":{"provider":"panoramax","id":"a6926a59-124f-4583-b79e-9019cd068c80","lat":48.84268,"lng":2.29177,"sequenceId":"779fb271-0ad3-4fe7-a392-7f42212eaa36"}},{"kind":"street","id":"v:15:10639","name":"place Falguière","arr":15,"lat":48.8363,"lng":2.31024,"themes":["places"],"shape":[[2.31025,48.83607],[2.31023,48.83607],[2.31019,48.83607],[2.31004,48.8361],[2.31003,48.8361],[2.30999,48.83612],[2.30997,48.83613],[2.30987,48.83626],[2.30969,48.83644],[2.31,48.83648],[2.31003,48.83649],[2.31004,48.83649],[2.31008,48.83651],[2.3101,48.83651],[2.31014,48.83652],[2.31012,48.83658],[2.31011,48.83658],[2.31014,48.83659],[2.31016,48.83659],[2.31046,48.83644],[2.31048,48.83643],[2.3105,48.83641],[2.31051,48.83639],[2.31052,48.83638],[2.31053,48.83635],[2.31054,48.83633],[2.31054,48.83629],[2.31054,48.83627],[2.31053,48.83624],[2.31041,48.83612],[2.31039,48.83611],[2.31038,48.8361],[2.31036,48.8361],[2.31031,48.83608],[2.31029,48.83608],[2.31025,48.83607]],"quartier":"Necker","story":"Jean Joseph Alexandre Falguière (1831-1900), sculpteur français.","image":{"provider":"panoramax","id":"231b6c64-c3c5-4971-895e-79c4bf00b06a","lat":48.8365,"lng":2.31025,"sequenceId":"cebb91cc-6a88-453f-9e64-2bc1e4d27181"}},{"kind":"street","id":"v:15:15072","name":"place Geneviève de Gaulle Anthonioz","arr":15,"lat":48.83738,"lng":2.29634,"themes":["places"],"shape":[[2.2964,48.83729],[2.29638,48.83729],[2.29637,48.83729],[2.29636,48.83729],[2.29635,48.8373],[2.29634,48.8373],[2.2962,48.83736],[2.29617,48.83738],[2.2961,48.83741],[2.29603,48.83744],[2.29599,48.83746],[2.29608,48.83752],[2.29617,48.83757],[2.29626,48.83763],[2.2963,48.83765],[2.29666,48.83742],[2.29666,48.83742],[2.2966,48.83739],[2.29655,48.83736],[2.29644,48.8373],[2.29643,48.8373],[2.29642,48.83729],[2.29641,48.83729],[2.2964,48.83729]],"quartier":"Saint-Lambert","lengthM":35,"story":"Geneviève de Gaulle Anthonioz (Saint-Jean-de-Valeriscle(Gard), 1920-Paris, 2002), Présidente d'ATD-Quart Monde. Elle était médaillée de la Résistance, Croix de Guerre 1939-1945, et Grand Croix de la Légion d'honneur.","image":{"provider":"panoramax","id":"e8197258-f9c2-45f2-bb1d-b746ae03c716","lat":48.83741,"lng":2.2961,"sequenceId":"eec426a7-63c5-45be-a4ae-e1b3e06f9956"}},{"kind":"street","id":"v:15:11014","name":"place Georges Mulot","arr":15,"lat":48.8469,"lng":2.31002,"themes":["places"],"shape":[[2.31017,48.8468],[2.31014,48.84678],[2.3101,48.84677],[2.31005,48.84676],[2.31,48.84676],[2.30997,48.84676],[2.30993,48.84677],[2.30991,48.84678],[2.30989,48.84679],[2.30986,48.84681],[2.30984,48.84683],[2.30982,48.84686],[2.30982,48.84689],[2.30982,48.84691],[2.30983,48.84693],[2.30984,48.84695],[2.30985,48.84697],[2.30987,48.84698],[2.30991,48.84701],[2.30994,48.84702],[2.30997,48.84702],[2.31,48.84703],[2.31003,48.84703],[2.31007,48.84702],[2.3101,48.84702],[2.31012,48.84701],[2.31015,48.847],[2.31017,48.84698],[2.31019,48.84696],[2.31021,48.84694],[2.31022,48.8469],[2.31022,48.84688],[2.31021,48.84686],[2.3102,48.84684],[2.31019,48.84682],[2.31017,48.8468]],"quartier":"Necker","story":"Georges Mulot, ingénieur, dirigea le forage du puits artésien de Grenelle situé sur cette place.","image":{"provider":"panoramax","id":"3139b286-411b-4c44-968e-d05ca31155fa","lat":48.84691,"lng":2.30996,"sequenceId":"ed6abbf5-e707-4b9a-b8db-a398ebf189e0"}},{"kind":"street","id":"v:15:11269","name":"place Henri Queuille","arr":15,"lat":48.84495,"lng":2.31152,"themes":["places"],"shape":[[2.31122,48.84511],[2.31163,48.84524],[2.31164,48.84524],[2.31166,48.84524],[2.31167,48.84524],[2.31168,48.84524],[2.31169,48.84523],[2.3117,48.84523],[2.31171,48.84522],[2.31172,48.84521],[2.31172,48.8452],[2.31172,48.8452],[2.31166,48.84469],[2.31166,48.84468],[2.31166,48.84467],[2.31165,48.84466],[2.31165,48.84466],[2.31164,48.84465],[2.31163,48.84465],[2.31162,48.84464],[2.31161,48.84464],[2.31159,48.84464],[2.31158,48.84464],[2.31157,48.84465],[2.31156,48.84465],[2.31155,48.84465],[2.31154,48.84466],[2.31121,48.84509],[2.31121,48.84509],[2.31121,48.84509],[2.31121,48.8451],[2.31121,48.8451],[2.31121,48.8451],[2.31121,48.84511],[2.31122,48.84511],[2.31122,48.84511]],"quartier":"Necker","story":"Henri Queuille (Neuvic-d'Ussel, 1881-Paris, 1970), médecin et homme politique français.","image":{"provider":"panoramax","id":"bda6a096-dbb4-4836-8c89-60d4bf0a0f24","lat":48.84468,"lng":2.31161,"sequenceId":"a271070b-4aab-49fb-9455-d80c02598f2a"}},{"kind":"street","id":"v:15:11276","name":"place Henri Rollet","arr":15,"lat":48.83596,"lng":2.29331,"themes":["places"],"shape":[[2.29359,48.836],[2.29319,48.83579],[2.29321,48.83584],[2.29316,48.83593],[2.29311,48.83602],[2.29306,48.83605],[2.29355,48.83606],[2.29359,48.836]],"quartier":"Saint-Lambert","story":"Henri Rollet (1860-1934), avocat ; s'est particulièrement intéressé à l'enfance malheureuse.","image":{"provider":"panoramax","id":"b2196ddd-dd3d-4641-8bca-144bdc5a6f4a","lat":48.83608,"lng":2.29314,"sequenceId":"d78d30c0-6bbb-4695-9f46-2a587dee7650"}},{"kind":"street","id":"v:15:11323","name":"place Hubert Monmarché","arr":15,"lat":48.84149,"lng":2.29938,"themes":["places"],"shape":[[2.2993,48.84132],[2.29927,48.84131],[2.29925,48.84136],[2.29922,48.84144],[2.29921,48.84149],[2.29921,48.8415],[2.29921,48.84151],[2.29921,48.84152],[2.29921,48.84152],[2.29922,48.84153],[2.29923,48.84154],[2.29924,48.84154],[2.29925,48.84155],[2.29926,48.84155],[2.29931,48.84157],[2.29951,48.84163],[2.29964,48.84167],[2.29975,48.8417],[2.2998,48.84162],[2.29986,48.84153],[2.29968,48.84141],[2.29953,48.84136],[2.29945,48.84135],[2.2993,48.84132]],"quartier":"Saint-Lambert","lengthM":30,"story":"Hubert Monmarché (1913-1975), maire du XVe arrondissement de 1946 à 1975.","image":{"provider":"panoramax","id":"a406fb33-642e-45fd-bfe1-2fcfbb072fed","lat":48.84163,"lng":2.29927,"sequenceId":"779fb271-0ad3-4fe7-a392-7f42212eaa36"}},{"kind":"street","id":"v:15:11377","name":"place Jacques et Thérèse Tréfouel","arr":15,"lat":48.84256,"lng":2.31287,"themes":["places"],"shape":[[2.31304,48.84217],[2.31303,48.84217],[2.31302,48.84217],[2.31301,48.84218],[2.313,48.84218],[2.31299,48.84218],[2.31275,48.84249],[2.31248,48.84283],[2.31248,48.84283],[2.31248,48.84284],[2.31248,48.84284],[2.31248,48.84285],[2.31248,48.84285],[2.31249,48.84286],[2.31249,48.84286],[2.3125,48.84286],[2.31274,48.84293],[2.31274,48.84294],[2.31275,48.84294],[2.31276,48.84293],[2.31276,48.84293],[2.31277,48.84293],[2.31277,48.84293],[2.31278,48.84292],[2.31284,48.84284],[2.31327,48.8423],[2.31327,48.8423],[2.31327,48.84229],[2.31327,48.84229],[2.31327,48.84228],[2.31327,48.84228],[2.31326,48.84227],[2.31326,48.84227],[2.31306,48.84217],[2.31305,48.84217],[2.31304,48.84217]],"quartier":"Necker","lengthM":84,"story":"Jacques (Le Raincy, 1897-Paris, 1977) et Thérèse (1892-1978) Tréfouël, chimistes et bactériologistes français, éminents chercheurs de l'Institut Pasteur (1920-1965). Jacques Tréfouel fut directeur de l'Institut Pasteur de 1940 à 1964 et membre de l'Académie des sciences (1964).","image":{"provider":"panoramax","id":"3add562e-c54e-4f08-a2c9-41bbf13c7f71","lat":48.84294,"lng":2.31277,"sequenceId":"457f2647-e421-4554-883e-b700a5447340"}},{"kind":"street","id":"v:15:11407","name":"place Jacques Marette","arr":15,"lat":48.83269,"lng":2.30072,"themes":["places"],"shape":[[2.30112,48.83276],[2.30115,48.83266],[2.30107,48.83254],[2.30105,48.83254],[2.30104,48.83254],[2.30104,48.83254],[2.30103,48.83254],[2.30103,48.83254],[2.30102,48.83253],[2.3009,48.83256],[2.30083,48.83258],[2.30083,48.83258],[2.30083,48.83259],[2.30079,48.8326],[2.30079,48.83259],[2.30078,48.83259],[2.30059,48.83265],[2.30059,48.83266],[2.30059,48.83266],[2.3006,48.83266],[2.30056,48.83267],[2.30055,48.83267],[2.30055,48.83267],[2.30037,48.83274],[2.30037,48.83275],[2.30037,48.83276],[2.30037,48.83276],[2.30037,48.83276],[2.30037,48.83277],[2.30032,48.83278],[2.30028,48.8328],[2.30039,48.83292],[2.30049,48.83295],[2.30082,48.83304],[2.30106,48.83296],[2.30112,48.83276]],"quartier":"Saint-Lambert","story":"Jacques, Henri Marette (1922-1984), ancien ministre. Député du XVe arrondissement de 1962 à 1984 et adjoint au maire de Paris.","image":{"provider":"panoramax","id":"3cb41dee-edc9-4c61-ba48-e83d1b54d9d8","lat":48.83275,"lng":2.30059,"sequenceId":"a1e94e75-e914-403f-8bb4-153019167838"}},{"kind":"street","id":"v:15:15074","name":"place Jenny Alpha","arr":15,"lat":48.83828,"lng":2.28075,"themes":["places"],"shape":[[2.28089,48.83831],[2.28097,48.83824],[2.28083,48.83817],[2.28072,48.83811],[2.28051,48.83828],[2.28055,48.83831],[2.28061,48.83829],[2.28077,48.83837],[2.28075,48.83843],[2.28089,48.83831]],"quartier":"Javel","lengthM":23,"story":"Jenny Alpha (Fort de France (Martinique), 1910-Paris, 2010), chanteuse, comédienne et figure emblématique de la culture créole.","image":{"provider":"panoramax","id":"fbdfb851-b15c-4004-bf79-9b26179716a1","lat":48.83841,"lng":2.28059,"sequenceId":"9de0f4dc-f99a-4821-988e-e52291f86bbc"}},{"kind":"street","id":"v:15:15017","name":"place Madeleine Renaud et Jean-Louis Barrault","arr":15,"lat":48.83843,"lng":2.3146,"themes":["places"],"shape":[[2.31463,48.83828],[2.31456,48.83822],[2.31434,48.83834],[2.31431,48.83836],[2.31431,48.83836],[2.31434,48.83838],[2.3144,48.83844],[2.31441,48.83849],[2.3143,48.83855],[2.31435,48.83859],[2.31468,48.83862],[2.31499,48.83866],[2.315,48.83858],[2.31494,48.83853],[2.31488,48.83848],[2.31475,48.83838],[2.31473,48.83836],[2.31469,48.83832],[2.31467,48.83831],[2.31463,48.83828]],"quartier":"Necker","lengthM":42,"story":"Madeleine Renaud (Paris, 1900-Neuilly-sur-Seine, 1994), comédienne et artiste,  Jean-Louis Barrault (Le Vésinet, 1910-Paris, 1994) acteur et metteur en scène.","image":{"provider":"panoramax","id":"ae4b130f-ea74-4346-a889-c165bbe28484","lat":48.83865,"lng":2.31474,"sequenceId":"914bd6ec-5012-45cf-a8f2-f93f031d80f7"}},{"kind":"street","id":"v:15:14732","name":"place Marcel Cerdan","arr":15,"lat":48.85084,"lng":2.29236,"themes":["places"],"shape":[[2.29225,48.85108],[2.29255,48.85105],[2.29262,48.85105],[2.29274,48.85097],[2.29276,48.85095],[2.29279,48.8509],[2.29289,48.8507],[2.29289,48.8507],[2.29284,48.85062],[2.29283,48.85062],[2.29243,48.85059],[2.29239,48.85058],[2.29221,48.85059],[2.29218,48.85062],[2.29205,48.85075],[2.29204,48.85076],[2.29197,48.85083],[2.29195,48.85085],[2.29193,48.85088],[2.29192,48.85089],[2.29191,48.85089],[2.29214,48.85103],[2.29215,48.85104],[2.29224,48.85108],[2.29225,48.85108]],"quartier":"Grenelle","lengthM":70,"story":"Marcel Cerdan (Sidi-Bel-Abbès, 1916- Les Açores,1949) ; il commence à 17 ans une fulgurante carrière de boxeur ; il remporte une trentaine de victoires en Afrique du Nord ; en 1938 à Casablanca il devient champion de France des welters, puis l'année suivante champion d'Europe.","image":{"provider":"panoramax","id":"90614e11-3d0b-4800-bbb1-4bbaf2e2b766","lat":48.85053,"lng":2.29225,"sequenceId":"f87f2d2b-1a8d-40ad-b896-dbc8b6b310da"}},{"kind":"street","id":"v:15:12095","name":"place Marie-Madeleine Fourcade","arr":15,"lat":48.85158,"lng":2.29537,"themes":["places"],"shape":[[2.29558,48.85153],[2.29546,48.85146],[2.29535,48.85153],[2.29536,48.85153],[2.29535,48.85153],[2.29534,48.85153],[2.29534,48.85153],[2.29518,48.85142],[2.29492,48.85158],[2.29526,48.85181],[2.29529,48.85183],[2.29552,48.85168],[2.29554,48.85167],[2.29546,48.85161],[2.29558,48.85153]],"quartier":"Grenelle","lengthM":42,"story":"Marie-Madeleine Fourcade (1909-1989) fut la seule femme chef de réseau de la Résistance.","image":{"provider":"panoramax","id":"b36d6e23-8170-48b3-90d8-b87e02675c28","lat":48.85126,"lng":2.29528,"sequenceId":"779fb271-0ad3-4fe7-a392-7f42212eaa36"}},