{"arr":14,"streets":[{"kind":"street","id":"v:14:10263","name":"allée de la Deuxième D. B.","arr":14,"lat":48.83965,"lng":2.31866,"themes":[],"shape":[[2.31982,48.84048],[2.31972,48.84043],[2.31966,48.84043],[2.31963,48.84042],[2.31959,48.8404],[2.3191,48.83998],[2.31829,48.83929],[2.31827,48.83927],[2.31826,48.83924],[2.31826,48.83921],[2.31828,48.83918],[2.31831,48.83916],[2.31807,48.83901],[2.31779,48.83877],[2.31764,48.8386],[2.31753,48.83862],[2.31746,48.83866],[2.31735,48.8387],[2.31749,48.83883],[2.31771,48.83899],[2.31797,48.83927],[2.31805,48.8393],[2.31809,48.83929],[2.31814,48.83929],[2.31818,48.8393],[2.31821,48.83931],[2.31874,48.83989],[2.31921,48.84016],[2.31954,48.84045],[2.31955,48.84047],[2.31955,48.8405],[2.31954,48.84053],[2.31961,48.84056],[2.31966,48.84052],[2.31975,48.84048],[2.31982,48.84048]],"quartier":"Necker","lengthM":190,"story":"La deuxième DB, commandée par le général Philippe Marie de Hauteclocque, dit Leclerc, est la seule grande unité française qui participa au débarquement.","image":{"provider":"panoramax","id":"10af6f49-9d44-4af8-b4ab-be419c9cc3bd","lat":48.83883,"lng":2.31751,"sequenceId":"914bd6ec-5012-45cf-a8f2-f93f031d80f7"}},{"kind":"street","id":"v:14:11309","name":"allée des Hortensias","arr":14,"lat":48.82805,"lng":2.31453,"themes":[],"shape":[[2.31428,48.82821],[2.31429,48.82821],[2.3143,48.82821],[2.31441,48.82814],[2.3144,48.82813],[2.3144,48.82813],[2.31441,48.82812],[2.31442,48.82811],[2.31443,48.82811],[2.31456,48.82804],[2.31455,48.82804],[2.31455,48.82803],[2.31455,48.82802],[2.31456,48.82802],[2.31457,48.82802],[2.31458,48.82802],[2.31459,48.82802],[2.31476,48.82791],[2.31476,48.8279],[2.31476,48.82789],[2.31476,48.82789],[2.31477,48.82788],[2.31478,48.82788],[2.31479,48.82788],[2.31485,48.82785],[2.31485,48.82783],[2.31505,48.8278],[2.31498,48.82775],[2.31418,48.82821],[2.31423,48.82827],[2.31426,48.82824],[2.31426,48.82823],[2.31426,48.82823],[2.31426,48.82822],[2.31427,48.82821],[2.31428,48.82821]],"quartier":"Plaisance","lengthM":80,"image":{"provider":"panoramax","id":"db9ac627-44fa-4dfb-a3a5-5571f50008dc","lat":48.82764,"lng":2.31493,"sequenceId":"e5cc7998-d64c-4eee-9150-b73973f5aa8d"}},{"kind":"street","id":"v:14:14976","name":"allée du Château Ouvrier","arr":14,"lat":48.83404,"lng":2.31894,"themes":["pedestrian"],"shape":[[2.31923,48.83393],[2.31918,48.83389],[2.3191,48.83393],[2.31908,48.83394],[2.31901,48.83398],[2.31893,48.83402],[2.31891,48.83404],[2.31886,48.83406],[2.31882,48.83408],[2.3188,48.83409],[2.31879,48.8341],[2.31874,48.83413],[2.31873,48.83413],[2.31867,48.83417],[2.31873,48.8342],[2.31888,48.83412],[2.31895,48.83408],[2.319,48.83406],[2.31902,48.83405],[2.31911,48.83399],[2.31923,48.83393]],"quartier":"Plaisance","lengthM":46,"story":"Allée desservant le \"château ouvrier\", habitation édifiée au 19ème siècle ayant pour vocation d'offrir un logement de meilleure qualité à des familles de condition modeste.","image":{"provider":"panoramax","id":"d8b0462d-4ab7-436b-bdc5-88a4480dcfbe","lat":48.83424,"lng":2.31872,"sequenceId":"3da87ab7-f578-455d-8214-83232f2f833c"}},{"kind":"street","id":"v:14:9836","name":"allée du Chef d'Escadron de Guillebon","arr":14,"lat":48.83956,"lng":2.31939,"themes":[],"shape":[[2.31986,48.84046],[2.32006,48.84035],[2.32011,48.84035],[2.32012,48.84035],[2.32024,48.84031],[2.32022,48.8403],[2.32026,48.84027],[2.32024,48.84026],[2.32034,48.8402],[2.32035,48.84019],[2.32039,48.84017],[2.32041,48.84017],[2.32043,48.84016],[2.32054,48.84011],[2.32045,48.84004],[2.31894,48.83874],[2.31894,48.83874],[2.31896,48.83866],[2.31893,48.83866],[2.31887,48.83864],[2.31884,48.83862],[2.31838,48.83884],[2.3183,48.83889],[2.31823,48.83892],[2.31808,48.839],[2.31807,48.83901],[2.3183,48.83909],[2.31832,48.83907],[2.31836,48.83902],[2.31838,48.83899],[2.31839,48.83894],[2.31882,48.83872],[2.31902,48.83888],[2.32037,48.84003],[2.31982,48.84048],[2.31986,48.84046]],"quartier":"Necker","lengthM":274,"story":"Jacques de Guillebon (1909-1985), général français, chef d'état major du général Leclerc. Il participa à la libération de Paris et de Strasbourg.","image":{"provider":"panoramax","id":"ff8b024f-f562-4749-99b3-89c0c50387ed","lat":48.83869,"lng":2.31886,"sequenceId":"1329833c-a6d2-48fb-a8d8-a8fa95b891a0"}},{"kind":"street","id":"v:14:15662","name":"allée Françoise d'Eaubonne","arr":14,"lat":48.83227,"lng":2.32645,"themes":["pedestrian"],"shape":[[2.32687,48.83208],[2.32687,48.83208],[2.32687,48.83209],[2.32686,48.8321],[2.32686,48.8321],[2.32684,48.83211],[2.3267,48.83215],[2.32656,48.83218],[2.32613,48.83229],[2.32603,48.83232],[2.32602,48.83232],[2.32595,48.83234],[2.32594,48.83234],[2.32593,48.83234],[2.32592,48.83234],[2.3259,48.83233],[2.3259,48.83233],[2.326,48.83248],[2.326,48.83247],[2.326,48.83246],[2.326,48.83246],[2.32602,48.83245],[2.32602,48.83245],[2.32616,48.83241],[2.32638,48.83236],[2.32648,48.83233],[2.32669,48.83228],[2.32677,48.83226],[2.3269,48.83222],[2.32691,48.83222],[2.32692,48.83222],[2.32693,48.83223],[2.32694,48.83223],[2.32694,48.83223],[2.32699,48.83213],[2.32687,48.83208]],"quartier":"Petit-Montrouge","story":"Françoise d'Eaubonne (Paris, 1920 – Paris, 2005), femme de lettres et miltante féministe.","image":{"provider":"panoramax","id":"81100219-59c0-4256-919c-968a5059e982","lat":48.83247,"lng":2.32601,"sequenceId":"0158f243-b74b-4ac9-9407-696c78d29b71"}},{"kind":"street","id":"v:14:10903","name":"allée Gaston Bachelard","arr":14,"lat":48.82635,"lng":2.31466,"themes":[],"shape":[[2.31467,48.82659],[2.31487,48.82654],[2.31487,48.82653],[2.31488,48.82653],[2.31489,48.82653],[2.3153,48.82643],[2.31533,48.82642],[2.31533,48.8264],[2.31501,48.82575],[2.31529,48.82639],[2.31528,48.8264],[2.31527,48.82641],[2.31494,48.82648],[2.31493,48.82648],[2.31492,48.82648],[2.31491,48.82647],[2.31453,48.82586],[2.31485,48.82649],[2.31485,48.8265],[2.31484,48.8265],[2.31465,48.82655],[2.31447,48.82658],[2.31445,48.82658],[2.31444,48.82657],[2.31425,48.82624],[2.31418,48.82611],[2.31417,48.8261],[2.31415,48.8261],[2.31414,48.82609],[2.31414,48.82608],[2.31398,48.82598],[2.31406,48.82613],[2.3141,48.82616],[2.31414,48.82618],[2.31417,48.82621],[2.31467,48.82659]],"quartier":"Plaisance","lengthM":305,"story":"Gaston Bachelard (Bar-sur-Aube, 1884-Paris, 1962), philosophe français."},{"kind":"street","id":"v:14:11060","name":"allée Georges Besse","arr":14,"lat":48.84044,"lng":2.3271,"themes":[],"shape":[[2.32678,48.8406],[2.32739,48.8404],[2.32909,48.83983],[2.33009,48.83949],[2.3301,48.83949],[2.33011,48.83947],[2.33011,48.83946],[2.33011,48.83945],[2.33011,48.83944],[2.33009,48.83941],[2.33007,48.8394],[2.33005,48.8394],[2.33003,48.83939],[2.33001,48.8394],[2.33,48.8394],[2.32867,48.83984],[2.32718,48.84034],[2.32503,48.84106],[2.32491,48.8411],[2.3249,48.84112],[2.32489,48.84113],[2.32488,48.84114],[2.32488,48.84115],[2.32489,48.84116],[2.32491,48.84119],[2.32492,48.8412],[2.32493,48.8412],[2.32494,48.8412],[2.32495,48.8412],[2.32496,48.84121],[2.32497,48.84121],[2.32497,48.84121],[2.32498,48.84121],[2.32499,48.8412],[2.32499,48.8412],[2.32678,48.8406]],"quartier":"Montparnasse","lengthM":440,"story":"Georges, Noël Besse (Clermont-Ferrant, 1927-Paris, 1986), industriel, homme du nucléaire, président de CIT-Alcatel, d'Eurodif, de la Cogéma. Redresse des entreprises en difficultés (Péchiney-Ugine-Kuhlmann, Renault).","image":{"provider":"panoramax","id":"241bbff7-6ff3-4cbf-a0df-af27c0b680bf","lat":48.84116,"lng":2.32478,"sequenceId":"0534ac09-ee10-41e4-9dd5-602377dd8777"}},{"kind":"street","id":"v:14:14978","name":"allée Henry Dunant","arr":14,"lat":48.82784,"lng":2.31413,"themes":[],"shape":[[2.31428,48.82803],[2.31396,48.82739],[2.31385,48.82742],[2.31419,48.82808],[2.31423,48.82807],[2.31428,48.82803]],"quartier":"Plaisance","lengthM":77,"story":"Henry Dunant (Genève, 1828-Heiden, 1910), philanthrope suisse ; fit adopter la convention de Genève (1864) ; principal fondateur de la Croix-Rouge ; prix Nobel de la Paix (1901)."},{"kind":"street","id":"v:14:15551","name":"allée Mary Reynolds","arr":14,"lat":48.82997,"lng":2.33402,"themes":[],"shape":[[2.33378,48.83037],[2.33395,48.8304],[2.3341,48.83001],[2.33412,48.82995],[2.33412,48.82995],[2.33412,48.82994],[2.33412,48.82993],[2.33412,48.82993],[2.33411,48.82992],[2.33411,48.82991],[2.3341,48.82991],[2.33409,48.8299],[2.33405,48.82989],[2.33405,48.82989],[2.33404,48.82988],[2.33402,48.82988],[2.33401,48.82988],[2.334,48.82988],[2.33399,48.82988],[2.33398,48.82989],[2.33397,48.82989],[2.33397,48.82989],[2.33396,48.8299],[2.33396,48.8299],[2.33395,48.82991],[2.33391,48.83002],[2.33378,48.83037]],"quartier":"Parc de Montsouris","story":"Mary Reynolds, née Mary Louise Hubachek (1891-1950), artiste relieuse d'art, résistante.","image":{"provider":"panoramax","id":"101238f4-abe8-4fd4-938a-0d0ea2931180","lat":48.82988,"lng":2.33404,"sequenceId":"c858d5bb-2150-4167-83b5-cf278c1a59b3"}},{"kind":"street","id":"v:14:15128","name":"allée Nina Simone","arr":14,"lat":48.8342,"lng":2.33635,"themes":[],"shape":[[2.33647,48.83411],[2.33626,48.83406],[2.33628,48.8341],[2.33613,48.83436],[2.33607,48.83438],[2.33629,48.83439],[2.3363,48.83438],[2.33637,48.83427],[2.33644,48.83415],[2.33645,48.83413],[2.33646,48.83412],[2.33646,48.83412],[2.33647,48.83411],[2.33647,48.83411]],"quartier":"Montparnasse","lengthM":35,"story":"Eunice Kathleen Waymon, de son nom de scène \"Nina Simone\", (Tryon(Caroline du Nord), 1933-Carry-le-Rouet(Bouches du Rhône), 2003) chanteuse, pianiste et compositrice américaine.","image":{"provider":"panoramax","id":"85417fa2-d1ce-4192-bbde-8daeaf769275","lat":48.83427,"lng":2.33638,"sequenceId":"8bf237ba-feb8-435c-8da2-f7dc29a8f3e7"}},{"kind":"street","id":"v:14:13278","name":"allée Rodenbach","arr":14,"lat":48.83369,"lng":2.33785,"themes":[],"shape":[[2.33786,48.83376],[2.3379,48.83375],[2.3379,48.83375],[2.3379,48.83375],[2.33784,48.83362],[2.33783,48.83361],[2.33785,48.83359],[2.33776,48.83361],[2.33779,48.83362],[2.3378,48.83363],[2.33786,48.83376],[2.33786,48.83376],[2.33786,48.83376]],"quartier":"Montparnasse","lengthM":18,"story":"Georges Rodenbach (1855-1898), poète et littérateur belge.","image":{"provider":"panoramax","id":"358d30f6-182c-46b1-a85a-83bdd839847d","lat":48.83383,"lng":2.33788,"sequenceId":"86c050d1-367d-4730-85bd-4babecbe31e8"}},{"kind":"street","id":"v:14:14784","name":"allée Samuel Beckett","arr":14,"lat":48.82868,"lng":2.33451,"themes":[],"shape":[[2.33454,48.82884],[2.33499,48.82762],[2.335,48.82761],[2.33499,48.8276],[2.33499,48.82759],[2.33498,48.82758],[2.33497,48.82757],[2.33495,48.82756],[2.33494,48.82756],[2.33493,48.82756],[2.33491,48.82755],[2.33489,48.82755],[2.33488,48.82756],[2.33486,48.82756],[2.33485,48.82757],[2.33484,48.82758],[2.33483,48.82759],[2.33482,48.8276],[2.33409,48.82954],[2.33402,48.82973],[2.33402,48.82975],[2.33402,48.82976],[2.33402,48.82977],[2.33403,48.82977],[2.33404,48.82978],[2.33411,48.82981],[2.33412,48.82981],[2.33412,48.82981],[2.33413,48.82982],[2.33414,48.82981],[2.33415,48.82981],[2.33416,48.82981],[2.33417,48.8298],[2.33418,48.8298],[2.33418,48.82979],[2.33454,48.82884]],"quartier":"Parc de Montsouris","lengthM":250,"story":"Samuel Beckett (Dublin, 1906-Paris, 1989) écrivain irlandais. Il a vécu en France à partir de 1938.","image":{"provider":"panoramax","id":"ed04e2c9-639b-4cb8-9093-644a9ed56bc6","lat":48.82953,"lng":2.3341,"sequenceId":"ed6abbf5-e707-4b9a-b8db-a398ebf189e0"}},{"kind":"street","id":"v:14:15667","name":"allée Shamaï Haber","arr":14,"lat":48.83696,"lng":2.31848,"themes":[],"shape":[[2.31858,48.83686],[2.31852,48.83684],[2.31834,48.8371],[2.3184,48.83712],[2.31858,48.83686]],"quartier":"Plaisance","lengthM":31,"story":"Shamaï Haber (Lodz (Pologne), 1922 – Paris, 1995), sculpteur polonais, créateur du Creuset du temps, fontaine monumentale installée place de Catalogne en 1988.","image":{"provider":"panoramax","id":"9911aa46-94ad-4630-9724-31ca06117f3d","lat":48.83709,"lng":2.31834,"sequenceId":"0534ac09-ee10-41e4-9dd5-602377dd8777"}},{"kind":"street","id":"v:14:13999","name":"allée Verhaeren","arr":14,"lat":48.83358,"lng":2.33774,"themes":[],"shape":[[2.33721,48.83374],[2.33776,48.83361],[2.33814,48.83352],[2.33835,48.83351],[2.33844,48.83359],[2.33833,48.83342],[2.3383,48.83343],[2.33824,48.83344],[2.33818,48.83346],[2.33817,48.83346],[2.33815,48.83347],[2.33811,48.83348],[2.33806,48.83349],[2.33805,48.83349],[2.33804,48.83349],[2.33798,48.83351],[2.33788,48.83353],[2.3378,48.83355],[2.33771,48.83358],[2.33764,48.83359],[2.33762,48.8336],[2.33757,48.83361],[2.33757,48.83361],[2.33752,48.83362],[2.33751,48.83362],[2.3375,48.83362],[2.33744,48.83364],[2.33737,48.83366],[2.33736,48.83366],[2.33735,48.83366],[2.33731,48.83367],[2.3373,48.83367],[2.33725,48.83369],[2.33717,48.8337],[2.33717,48.8337],[2.33721,48.83374]],"quartier":"Montparnasse","lengthM":120,"story":"Emile Verhaeren (1855-1916), poète belge.","image":{"provider":"panoramax","id":"b44eb948-0b12-406e-9ba9-cc23d08504a5","lat":48.83386,"lng":2.33775,"sequenceId":"86c050d1-367d-4730-85bd-4babecbe31e8"}},{"kind":"street","id":"v:14:8971","name":"avenue André Rivoire","arr":14,"lat":48.81959,"lng":2.33339,"themes":[],"shape":[[2.33314,48.81865],[2.33323,48.81852],[2.33309,48.81857],[2.33286,48.81865],[2.33262,48.81872],[2.3324,48.81877],[2.33254,48.81905],[2.33276,48.81948],[2.33282,48.81958],[2.33287,48.81968],[2.33312,48.82017],[2.33313,48.82019],[2.33316,48.82025],[2.33338,48.8202],[2.33365,48.82014],[2.33387,48.82009],[2.33387,48.82008],[2.33385,48.82006],[2.33384,48.82004],[2.33384,48.82003],[2.33383,48.82001],[2.33381,48.81998],[2.3338,48.81995],[2.33378,48.81992],[2.33377,48.8199],[2.33375,48.81987],[2.33374,48.81983],[2.33372,48.81979],[2.3337,48.81977],[2.3337,48.81976],[2.33365,48.81967],[2.33363,48.81962],[2.33356,48.81948],[2.33313,48.81866],[2.33314,48.81865]],"quartier":"Parc de Montsouris","lengthM":220,"story":"André Rivoire (1872-1930), poète et auteur dramatique.","image":{"provider":"panoramax","id":"1f6543f4-06b9-4e3c-81be-113cacef3c92","lat":48.82004,"lng":2.33385,"sequenceId":"e3aa9f28-d069-4b57-bc40-65cdea2e8ac3"}},{"kind":"street","id":"v:14:10178","name":"avenue David Weill","arr":14,"lat":48.8207,"lng":2.33363,"themes":[],"shape":[[2.33434,48.82103],[2.33423,48.82081],[2.33423,48.8208],[2.33407,48.82049],[2.33407,48.82049],[2.33396,48.82026],[2.33391,48.82017],[2.33388,48.82011],[2.33387,48.82009],[2.33338,48.8202],[2.33316,48.82025],[2.33337,48.82068],[2.33338,48.82068],[2.33338,48.82068],[2.33339,48.82071],[2.33339,48.82071],[2.33339,48.82071],[2.33339,48.82071],[2.3334,48.82074],[2.33341,48.82074],[2.33341,48.82074],[2.33341,48.82074],[2.33342,48.82077],[2.33342,48.82077],[2.33342,48.82077],[2.33343,48.8208],[2.33344,48.8208],[2.33344,48.8208],[2.33344,48.8208],[2.33345,48.82083],[2.33345,48.82083],[2.33345,48.82083],[2.33363,48.82118],[2.33356,48.82126],[2.33446,48.82107],[2.33434,48.82103]],"quartier":"Parc de Montsouris","lengthM":98,"story":"David Weill (1871-1952), ami des arts et grand bienfaiteur français.","image":{"provider":"panoramax","id":"b5ac5736-3635-4779-96fb-d7d4fd6687f7","lat":48.82073,"lng":2.33342,"sequenceId":"fb9034df-68a8-4f30-abf7-f9696651e75c"}},{"kind":"street","id":"v:14:12991","name":"avenue de la Porte d'Orléans","arr":14,"lat":48.8209,"lng":2.32563,"themes":[],"shape":[[2.32574,48.82152],[2.32581,48.82113],[2.32581,48.82112],[2.32581,48.82112],[2.32582,48.82112],[2.32582,48.82112],[2.32584,48.82112],[2.32586,48.82101],[2.32585,48.82101],[2.32584,48.82101],[2.32584,48.82101],[2.32583,48.82101],[2.32583,48.82101],[2.32594,48.82041],[2.32588,48.82013],[2.32591,48.81987],[2.32586,48.81966],[2.32537,48.81977],[2.32534,48.82],[2.3253,48.82036],[2.32522,48.82047],[2.32523,48.8205],[2.3252,48.82083],[2.32516,48.82143],[2.32525,48.82143],[2.32533,48.82143],[2.32542,48.82144],[2.3255,48.82145],[2.32559,48.82147],[2.32566,48.82149],[2.32574,48.82152]],"quartier":"Petit-Montrouge","lengthM":180,"story":"Voisinage de l'ancienne porte d'Orléans.","image":{"provider":"panoramax","id":"f2e99276-f4d7-4ea4-82ac-3db7c8db9e1c","lat":48.81987,"lng":2.3259,"sequenceId":"c11656ef-bc1b-4d2a-b8ee-ae9f27e3c340"}},{"kind":"street","id":"v:14:12972","name":"avenue de la Porte de Châtillon","arr":14,"lat":48.82354,"lng":2.31668,"themes":[],"shape":[[2.31877,48.82417],[2.31814,48.8239],[2.31729,48.82357],[2.31707,48.82347],[2.31665,48.82328],[2.31651,48.82322],[2.31593,48.82297],[2.31535,48.82271],[2.31526,48.82267],[2.31431,48.82223],[2.31384,48.82233],[2.314,48.82243],[2.31413,48.8225],[2.31458,48.82275],[2.31479,48.82284],[2.31481,48.82285],[2.31487,48.82288],[2.31488,48.82288],[2.31621,48.82347],[2.3162,48.82349],[2.31714,48.82388],[2.31752,48.82404],[2.31761,48.82408],[2.31765,48.8241],[2.31775,48.82414],[2.31775,48.82414],[2.31777,48.82415],[2.31781,48.82417],[2.31781,48.82417],[2.31783,48.82418],[2.318,48.82426],[2.31801,48.82426],[2.31834,48.8244],[2.31843,48.82434],[2.31865,48.82422],[2.31877,48.82417]],"quartier":"Petit-Montrouge","lengthM":350,"story":"Située en partie sur l'emplacement de l'ancienne porte de Châtillon.","image":{"provider":"panoramax","id":"171b5c46-29f6-48a2-ad0d-0766cbb92b35","lat":48.82342,"lng":2.31629,"sequenceId":"cdd01b95-d19a-4a12-9fac-ae6e57079665"}},{"kind":"street","id":"v:14:12990","name":"avenue de la Porte de Montrouge","arr":14,"lat":48.82236,"lng":2.32221,"themes":[],"shape":[[2.32237,48.82269],[2.3229,48.8225],[2.32235,48.82193],[2.32225,48.82181],[2.32152,48.82106],[2.32057,48.82096],[2.32069,48.82121],[2.32091,48.8213],[2.32106,48.82133],[2.32113,48.82134],[2.32122,48.82134],[2.32131,48.82137],[2.32171,48.8219],[2.32193,48.82209],[2.32197,48.82212],[2.32198,48.82213],[2.32236,48.82247],[2.32237,48.82269],[2.32259,48.82269],[2.32241,48.8228],[2.32254,48.82284],[2.32269,48.82314],[2.32275,48.82325],[2.32289,48.82353],[2.3228,48.82364],[2.32341,48.82351],[2.32329,48.82347],[2.32314,48.82317],[2.32308,48.82305],[2.32293,48.82275],[2.32299,48.82267],[2.32259,48.82269]],"quartier":"Petit-Montrouge","lengthM":300,"story":"Située en partie sur l'emplacement de l'ancienne porte de Montrouge.","image":{"provider":"panoramax","id":"eeb8962a-5054-4bb7-bdfb-dbc97c173fec","lat":48.8224,"lng":2.32224,"sequenceId":"ec774610-f765-431d-bcaa-92b0654c84e0"}},{"kind":"street","id":"v:14:13005","name":"avenue de la Porte de Vanves","arr":14,"lat":48.8262,"lng":2.30446,"themes":[],"shape":[[2.30429,48.82673],[2.30489,48.82652],[2.30488,48.82652],[2.30485,48.82652],[2.30483,48.82652],[2.30479,48.8265],[2.30478,48.8265],[2.30476,48.82648],[2.30475,48.82647],[2.30474,48.82645],[2.30474,48.82643],[2.30466,48.82617],[2.30466,48.82617],[2.30463,48.82604],[2.30462,48.826],[2.30457,48.82585],[2.30436,48.8251],[2.30435,48.82506],[2.30434,48.82499],[2.30384,48.82474],[2.30394,48.82511],[2.30396,48.82513],[2.30399,48.82525],[2.30427,48.82622],[2.30435,48.82652],[2.30436,48.82656],[2.30437,48.8266],[2.30437,48.82662],[2.30437,48.82663],[2.30436,48.82665],[2.30435,48.82667],[2.30433,48.8267],[2.30432,48.82671],[2.3043,48.82672],[2.3043,48.82673],[2.30429,48.82673]],"quartier":"Plaisance","lengthM":220,"story":"Voisinage de l'ancienne porte de Vanves.","image":{"provider":"panoramax","id":"bbdc9d32-bb43-4c8f-a5c7-9c7d9df18117","lat":48.82488,"lng":2.30435,"sequenceId":"6cc34a60-4282-44f4-9504-f8fd038fb8ca"}},{"kind":"street","id":"v:14:12978","name":"avenue de la Porte Didot","arr":14,"lat":48.82591,"lng":2.31047,"themes":[],"shape":[[2.31038,48.82553],[2.31043,48.82545],[2.31001,48.82558],[2.31013,48.82561],[2.31027,48.82588],[2.31039,48.82611],[2.31049,48.82631],[2.31043,48.82639],[2.31087,48.82629],[2.31074,48.82625],[2.31071,48.82618],[2.31062,48.82601],[2.31062,48.82601],[2.31055,48.82588],[2.31055,48.82587],[2.3104,48.82558],[2.31038,48.82553]],"quartier":"Plaisance","lengthM":95,"story":"Située en partie sur l'emplacement de l'ancienne porte Didot.","image":{"provider":"panoramax","id":"80e95896-d3e4-4441-99f3-4da363995633","lat":48.82637,"lng":2.31091,"sequenceId":"87a433b8-503c-4742-8f1d-e466b9063a66"}},{"kind":"street","id":"v:14:14848","name":"avenue de la Sibelle","arr":14,"lat":48.82526,"lng":2.33812,"themes":[],"shape":[[2.33839,48.82572],[2.33837,48.82566],[2.33836,48.82561],[2.33835,48.82552],[2.33835,48.82544],[2.33834,48.82526],[2.33834,48.8251],[2.33835,48.82497],[2.33837,48.82483],[2.33823,48.82456],[2.33801,48.82516],[2.33766,48.8245],[2.33767,48.82452],[2.33769,48.82454],[2.33771,48.82457],[2.33772,48.8246],[2.33774,48.82462],[2.33775,48.82465],[2.33777,48.82467],[2.33778,48.8247],[2.3378,48.82472],[2.33781,48.82475],[2.33786,48.82487],[2.3379,48.82501],[2.338,48.8253],[2.33808,48.82553],[2.33815,48.82572],[2.33821,48.82589],[2.33839,48.82643],[2.33848,48.82668],[2.33848,48.82607],[2.33844,48.82597],[2.33843,48.82591],[2.33841,48.82585],[2.3384,48.82579],[2.33839,48.82572]],"quartier":"Parc de Montsouris","lengthM":260,"story":"Selon la croyance, une sybille confondue avec la déesse Cybèle, habitait à proximité, un ancien lieu-dit appelé: \"La Fosse de la Sibelle\".","image":{"provider":"panoramax","id":"13912eb2-c6b8-4d98-acd6-e87893b8d390","lat":48.82444,"lng":2.33777,"sequenceId":"fc5b3d88-cb05-4765-b010-9218c5470610"}},{"kind":"street","id":"v:14:13908","name":"avenue de la Tunisie","arr":14,"lat":48.82123,"lng":2.33622,"themes":[],"shape":[[2.33452,48.82149],[2.33488,48.82153],[2.33489,48.82152],[2.3349,48.82151],[2.33492,48.82151],[2.33539,48.82145],[2.33593,48.82136],[2.33604,48.82134],[2.33605,48.82134],[2.33606,48.82135],[2.33634,48.82134],[2.33638,48.8213],[2.33664,48.82119],[2.33691,48.82111],[2.33736,48.821],[2.33737,48.82099],[2.33737,48.82099],[2.33738,48.82098],[2.33756,48.82094],[2.33808,48.82087],[2.33837,48.82087],[2.3388,48.82087],[2.33886,48.8208],[2.33842,48.82079],[2.3377,48.82084],[2.33708,48.82098],[2.33648,48.82116],[2.33598,48.82128],[2.33505,48.82142],[2.33472,48.82144],[2.33458,48.82143],[2.33458,48.82143],[2.33458,48.82143],[2.33458,48.82143],[2.33458,48.82143],[2.33452,48.82149]],"quartier":"Parc de Montsouris","lengthM":340,"story":"Etat d'Afrique du Nord, le plus oriental du Maghreb, dont la capitale est Tunis.","image":{"provider":"panoramax","id":"0f124293-4ba5-4da0-a998-14bd676e3bf1","lat":48.82072,"lng":2.33755,"sequenceId":"a4534c22-c4aa-4c79-b24a-3909bdc3279c"}},{"kind":"street","id":"v:14:12191","name":"avenue de Mazagran","arr":14,"lat":48.81578,"lng":2.34431,"themes":[],"shape":[[2.3442,48.81568],[2.34422,48.81599],[2.34445,48.81597],[2.3445,48.81558],[2.3442,48.81568]],"quartier":"Parc de Montsouris","lengthM":55,"story":"En l'honneur de la défense de Mazagran (Algérie), en 1840.","image":{"provider":"panoramax","id":"b6ea7112-026b-4a80-acf0-c9d1d0a45789","lat":48.81598,"lng":2.34444,"sequenceId":"2c7066a5-fae8-4ed0-8a3a-3c8b7dbc4546"}},{"kind":"street","id":"v:14:10220","name":"avenue Denfert-Rochereau","arr":14,"lat":48.83701,"lng":2.33484,"themes":[],"shape":[[2.33636,48.83865],[2.33589,48.83774],[2.33552,48.83728],[2.33503,48.83678],[2.33447,48.83621],[2.33402,48.83573],[2.33343,48.8351],[2.33255,48.83481],[2.33319,48.83542],[2.33341,48.83565],[2.3337,48.83595],[2.33399,48.83624],[2.33404,48.83629],[2.33412,48.83638],[2.33421,48.83646],[2.3345,48.83676],[2.33454,48.8368],[2.33458,48.83684],[2.3346,48.83687],[2.33464,48.8369],[2.33467,48.83693],[2.33469,48.83696],[2.33481,48.83707],[2.33489,48.83716],[2.33492,48.83719],[2.33503,48.8373],[2.33512,48.83738],[2.33515,48.83742],[2.33563,48.83791],[2.33578,48.83806],[2.33583,48.83811],[2.33602,48.8383],[2.33606,48.83834],[2.33611,48.8384],[2.33622,48.8385],[2.33636,48.83865]],"quartier":"Montparnasse","lengthM":490,"story":"Pierre Marie Philippe Aristide Denfert-Rochereau (1823-1878), colonel du génie, défenseur de Belfort.","image":{"provider":"panoramax","id":"a1b8a9aa-ff96-4dc0-8863-c2faabd7af16","lat":48.83681,"lng":2.33462,"sequenceId":"e76e8297-0349-4754-af09-3624ac21d043"}},{"kind":"street","id":"v:14:14924","name":"avenue du Colonel Henri Rol-Tanguy","arr":14,"lat":48.83409,"lng":2.33225,"themes":[],"shape":[[2.33201,48.83437],[2.3327,48.83408],[2.33268,48.83408],[2.33264,48.83408],[2.33261,48.83408],[2.33257,48.83407],[2.33255,48.83407],[2.33251,48.83404],[2.33249,48.83402],[2.33248,48.83401],[2.33248,48.834],[2.33248,48.834],[2.33248,48.834],[2.33247,48.83399],[2.33243,48.83394],[2.33243,48.83395],[2.3324,48.83392],[2.33227,48.83379],[2.33228,48.83378],[2.3318,48.83389],[2.33185,48.83394],[2.3319,48.83398],[2.33195,48.83403],[2.33195,48.83403],[2.33197,48.83408],[2.33202,48.83414],[2.33205,48.83419],[2.33206,48.8342],[2.33207,48.83421],[2.33208,48.83424],[2.33208,48.83426],[2.33208,48.83429],[2.33207,48.8343],[2.33205,48.83433],[2.33204,48.83434],[2.33201,48.83437]],"quartier":"Montparnasse","lengthM":75,"story":"Henri Tanguy, dit “Rol-tanguy”, (Morlaix, 1908-Paris, 2002), résistant. En 1944, il est nommé colonel et chef régional des FFI de la région parisienne.","image":{"provider":"panoramax","id":"80a8e621-7665-4c50-a478-7b4574788e8f","lat":48.83391,"lng":2.33219,"sequenceId":"6100a6f3-140c-48ea-8ec2-5115fe3a4043"}},{"kind":"street","id":"v:14:10304","name":"avenue du Docteur Lannelongue","arr":14,"lat":48.81842,"lng":2.3318,"themes":[],"shape":[[2.32927,48.8189],[2.32931,48.81902],[2.33029,48.81881],[2.33095,48.81866],[2.33156,48.81852],[2.33199,48.81843],[2.33226,48.81837],[2.33236,48.81835],[2.33248,48.81832],[2.33255,48.8183],[2.3326,48.81828],[2.33267,48.81826],[2.33272,48.81825],[2.33277,48.81823],[2.33281,48.81821],[2.33276,48.8181],[2.33259,48.81815],[2.33237,48.81821],[2.33237,48.81822],[2.32927,48.8189]],"quartier":"Parc de Montsouris","lengthM":250,"story":"Odilon Marc Lannelongue (1840-1911), chirurgien français, membre des Académies de médecine et de sciences, professeur de clinique chirurgicale infantile.","image":{"provider":"panoramax","id":"20c1c433-d2f7-4614-9cd3-992fa7216b56","lat":48.81828,"lng":2.3326,"sequenceId":"971043a7-a31a-4c5b-8cb1-76ac4ce8d23d"}},{"kind":"street","id":"v:14:10966","name":"avenue du Général Leclerc","arr":14,"lat":48.82805,"lng":2.32775,"themes":[],"shape":[[2.32943,48.8305],[2.32896,48.82995],[2.32846,48.82937],[2.32771,48.82849],[2.32717,48.82849],[2.32774,48.82915],[2.32811,48.82957],[2.32855,48.83009],[2.32889,48.83047],[2.32946,48.83114],[2.33006,48.83184],[2.3306,48.83246],[2.33149,48.8335],[2.3318,48.83325],[2.33114,48.83248],[2.33063,48.83189],[2.33003,48.83119],[2.32943,48.8305],[2.32666,48.82678],[2.32667,48.8262],[2.32631,48.82547],[2.32618,48.82475],[2.32606,48.82444],[2.32605,48.82398],[2.32581,48.82347],[2.32534,48.82346],[2.32546,48.8238],[2.32555,48.8242],[2.32564,48.82455],[2.3257,48.82479],[2.32585,48.82549],[2.326,48.82607],[2.32619,48.82668],[2.32629,48.82707],[2.32691,48.82739],[2.32666,48.82678]],"quartier":"Montparnasse","lengthM":1235,"story":"Philippe Marie Leclerc de Hauteclocque (1902-1947), général commandant la deuxième DB ; voie par laquelle il a pénétré dans Paris le 25 août 1944.","image":{"provider":"panoramax","id":"431fe934-c0c5-4313-b170-30090949bfcd","lat":48.82679,"lng":2.32664,"sequenceId":"89ac81c5-3ef5-4781-b752-d2e7091b5f1f"}},{"kind":"street","id":"v:14:10967","name":"avenue du Général Maistre","arr":14,"lat":48.82494,"lng":2.31521,"themes":[],"shape":[[2.315,48.82492],[2.31509,48.8249],[2.31535,48.82484],[2.3154,48.82483],[2.31545,48.82482],[2.31615,48.82488],[2.31623,48.82488],[2.31637,48.82486],[2.31654,48.82483],[2.31648,48.82473],[2.31634,48.82476],[2.3162,48.82477],[2.31613,48.82477],[2.31609,48.82477],[2.31561,48.82472],[2.31551,48.82471],[2.3154,48.82471],[2.31529,48.82471],[2.31515,48.82474],[2.31506,48.82476],[2.31495,48.8248],[2.31489,48.82482],[2.31481,48.82487],[2.31462,48.825],[2.31437,48.82517],[2.31426,48.82522],[2.31417,48.82525],[2.31404,48.8254],[2.31422,48.82536],[2.31433,48.82532],[2.31439,48.8253],[2.31449,48.82524],[2.31456,48.8252],[2.31467,48.82512],[2.31494,48.82493],[2.315,48.82492]],"quartier":"Plaisance","lengthM":295,"story":"Paul André Marie Maistre (1858-1922), général ; s'illustra au cours de la guerre de 1914-1918.","image":{"provider":"panoramax","id":"0045ce75-dae0-40d9-a329-d1ddc4e46ffa","lat":48.82479,"lng":2.31518,"sequenceId":"e5cc7998-d64c-4eee-9150-b73973f5aa8d"}},{"kind":"street","id":"v:14:11997","name":"avenue du Maine","arr":14,"lat":48.83568,"lng":2.32371,"themes":[],"shape":[[2.321,48.84278],[2.32206,48.84023],[2.32244,48.83931],[2.32278,48.83848],[2.32323,48.83737],[2.32355,48.83657],[2.32407,48.8353],[2.32429,48.83477],[2.32461,48.83398],[2.32476,48.83359],[2.32512,48.83249],[2.32512,48.83248],[2.32513,48.83246],[2.32536,48.83191],[2.32537,48.8319],[2.32537,48.83189],[2.32589,48.83083],[2.32622,48.83004],[2.32643,48.82953],[2.32676,48.82871],[2.32631,48.82859],[2.32562,48.83028],[2.32509,48.83158],[2.32456,48.83288],[2.32417,48.83384],[2.32384,48.83467],[2.32337,48.83583],[2.32284,48.83713],[2.32276,48.83731],[2.32185,48.83906],[2.32149,48.84026],[2.32023,48.84291],[2.32009,48.84395],[2.32028,48.84488],[2.32059,48.8438],[2.321,48.84278]],"quartier":"Montparnasse","lengthM":1931,"story":"Voisinage du château du Maine, ancien rendez-vous de chasse que le duc du Maine avait fait construire à l'extrémité de ses chasses de Sceaux dans la direction de Paris.","image":{"provider":"panoramax","id":"48041148-d962-48f1-8dc2-8b4756525e12","lat":48.82959,"lng":2.32651,"sequenceId":"69981e19-0aff-46e9-8194-d9c7ccbe200b"}},{"kind":"street","id":"v:14:10564","name":"avenue Ernest Reyer","arr":14,"lat":48.82286,"lng":2.32217,"themes":[],"shape":[[2.32241,48.8228],[2.32259,48.82269],[2.32132,48.82297],[2.32037,48.82322],[2.31775,48.82377],[2.31814,48.8239],[2.31816,48.82382],[2.31886,48.82372],[2.31915,48.82368],[2.31981,48.82349],[2.32005,48.82342],[2.32064,48.82327],[2.32079,48.82323],[2.32116,48.82313],[2.32174,48.82298],[2.32175,48.82297],[2.32207,48.82289],[2.32241,48.8228],[2.32259,48.82269],[2.32299,48.82267],[2.3231,48.82265],[2.32353,48.82258],[2.32367,48.82255],[2.32377,48.82254],[2.32415,48.82246],[2.32433,48.82242],[2.32447,48.82239],[2.32469,48.82233],[2.32472,48.82233],[2.32519,48.82207],[2.32429,48.82224],[2.32397,48.82231],[2.32393,48.82232],[2.32389,48.82233],[2.3229,48.8225],[2.32259,48.82269]],"quartier":"Petit-Montrouge","lengthM":510,"story":"Louis Etienne Rey, dit Ernest Reyer (1827-1909), compositeur et critique musical français.","image":{"provider":"panoramax","id":"aeb6b17c-0067-432b-8394-bd189134f1b3","lat":48.82269,"lng":2.3226,"sequenceId":"e5cc7998-d64c-4eee-9150-b73973f5aa8d"}},{"kind":"street","id":"v:14:11010","name":"avenue Georges Lafenestre","arr":14,"lat":48.82492,"lng":2.31073,"themes":[],"shape":[[2.31247,48.82577],[2.31236,48.8257],[2.31178,48.82531],[2.31161,48.8252],[2.31084,48.82474],[2.31038,48.82449],[2.31037,48.82448],[2.31032,48.82446],[2.31032,48.82445],[2.31012,48.82435],[2.31011,48.82434],[2.31007,48.82432],[2.31006,48.82432],[2.31002,48.8243],[2.30956,48.82407],[2.30881,48.82367],[2.30824,48.82371],[2.30897,48.82411],[2.30949,48.82438],[2.3101,48.82475],[2.31011,48.82475],[2.31011,48.82476],[2.31012,48.82477],[2.31014,48.82484],[2.31049,48.82492],[2.31054,48.82495],[2.31116,48.82528],[2.31117,48.82528],[2.31149,48.8255],[2.31167,48.82562],[2.31199,48.82584],[2.31206,48.82588],[2.31201,48.82603],[2.31201,48.82604],[2.3126,48.82586],[2.31247,48.82577]],"quartier":"Plaisance","lengthM":330,"story":"Georges Lafenestre (1837-1919), poète et critique d'art, conservateur du musée du Louvre.","image":{"provider":"panoramax","id":"eb9bb5ba-2977-4141-befb-5bf8b795bdf6","lat":48.82425,"lng":2.30953,"sequenceId":"e5cc7998-d64c-4eee-9150-b73973f5aa8d"}},{"kind":"street","id":"v:14:11483","name":"avenue Jean Moulin","arr":14,"lat":48.82611,"lng":2.32288,"themes":[],"shape":[[2.32603,48.82736],[2.32532,48.82711],[2.32478,48.82685],[2.32457,48.82675],[2.32445,48.82669],[2.32417,48.82661],[2.32375,48.82642],[2.32307,48.82609],[2.32288,48.82601],[2.32266,48.82593],[2.32191,48.8256],[2.32153,48.82543],[2.32151,48.82541],[2.32114,48.82526],[2.32055,48.825],[2.32021,48.82485],[2.32016,48.82483],[2.32,48.82476],[2.31991,48.82467],[2.3198,48.82489],[2.32034,48.82512],[2.32059,48.82524],[2.32066,48.82527],[2.321,48.82541],[2.32142,48.8256],[2.32168,48.82571],[2.32322,48.82637],[2.32374,48.8266],[2.32432,48.82684],[2.32488,48.82708],[2.32507,48.82717],[2.32523,48.82724],[2.32544,48.82733],[2.32582,48.8275],[2.32601,48.8276],[2.32603,48.82736]],"quartier":"Petit-Montrouge","lengthM":625,"story":"Jean Moulin (1899-1943), résistant français fondateur du Conseil national de la Résistance.","image":{"provider":"panoramax","id":"01bda6b9-09ff-40cb-8107-4e17c13ade28","lat":48.82464,"lng":2.31989,"sequenceId":"3c1ff145-86f1-4d02-a22c-9c1cfd6b563a"}},{"kind":"street","id":"v:14:11952","name":"avenue Lucien Descaves","arr":14,"lat":48.81754,"lng":2.33242,"themes":[],"shape":[[2.33275,48.81801],[2.33273,48.818],[2.33271,48.818],[2.33256,48.81767],[2.33237,48.81724],[2.33231,48.81711],[2.33236,48.81704],[2.33201,48.81709],[2.33209,48.81713],[2.33214,48.81724],[2.33219,48.81727],[2.3322,48.81728],[2.3322,48.81728],[2.33221,48.81729],[2.3322,48.81729],[2.33259,48.81815],[2.33276,48.8181],[2.33279,48.8181],[2.33275,48.81801]],"quartier":"Parc de Montsouris","lengthM":140,"story":"Lucien Descaves (1861-1949), écrivain de l'Ecole naturaliste, membre de l'Académie Goncourt.","image":{"provider":"panoramax","id":"215c4eac-1558-40a8-8fbd-03566e7a04c8","lat":48.81724,"lng":2.33215,"sequenceId":"0fc2da29-649b-4768-aee7-d5166cbf7070"}},{"kind":"street","id":"v:14:12067","name":"avenue Marc Sangnier","arr":14,"lat":48.82563,"lng":2.30893,"themes":[],"shape":[[2.30649,48.82627],[2.30699,48.82611],[2.30721,48.82604],[2.30739,48.826],[2.30762,48.82597],[2.30814,48.82589],[2.30865,48.82582],[2.30899,48.82577],[2.30918,48.82574],[2.30942,48.82571],[2.30974,48.82566],[2.31001,48.82558],[2.31064,48.82538],[2.31102,48.82527],[2.31104,48.82526],[2.31115,48.82528],[2.31055,48.82496],[2.31059,48.82499],[2.31061,48.82505],[2.31061,48.82507],[2.31058,48.82513],[2.31053,48.82516],[2.31048,48.82518],[2.31043,48.8252],[2.31035,48.82522],[2.31032,48.82523],[2.3103,48.82524],[2.31019,48.82527],[2.30966,48.82544],[2.30837,48.82563],[2.30719,48.8258],[2.30545,48.82635],[2.30493,48.82652],[2.3049,48.82652],[2.30539,48.82662],[2.30649,48.82627]],"quartier":"Plaisance","lengthM":480,"story":"Marc Sangnier (1873-1950) ; journaliste et homme politique français, promoteur de la démocratie chrétienne.","image":{"provider":"panoramax","id":"26574c14-e866-4de6-92cc-5fe1eb96c1c7","lat":48.82488,"lng":2.31072,"sequenceId":"e5cc7998-d64c-4eee-9150-b73973f5aa8d"}},{"kind":"street","id":"v:14:12169","name":"avenue Maurice d'Ocagne","arr":14,"lat":48.82439,"lng":2.31414,"themes":[],"shape":[[2.31295,48.82484],[2.31378,48.82472],[2.31428,48.82465],[2.31492,48.82447],[2.31538,48.82432],[2.31592,48.82416],[2.31612,48.8241],[2.31642,48.824],[2.31663,48.82396],[2.31696,48.82389],[2.31712,48.82388],[2.31645,48.8236],[2.3165,48.82364],[2.31651,48.82369],[2.31649,48.82374],[2.31641,48.82379],[2.31549,48.82407],[2.31505,48.82417],[2.31505,48.82417],[2.31461,48.82428],[2.31402,48.8244],[2.31389,48.82443],[2.31235,48.82474],[2.31221,48.82472],[2.31219,48.82472],[2.31211,48.82473],[2.31211,48.82473],[2.31204,48.82474],[2.31197,48.82474],[2.3118,48.82478],[2.31169,48.82479],[2.31155,48.82479],[2.31084,48.82474],[2.31195,48.82498],[2.31239,48.82492],[2.31295,48.82484]],"quartier":"Plaisance","lengthM":430,"story":"Maurice d'Ocagne (1862-1938), mathématicien, professeur à l'Ecole Polytechnique, inventeur de la nomographie.","image":{"provider":"panoramax","id":"3337c0b5-022a-4917-9465-b5c344ca3ded","lat":48.82432,"lng":2.31506,"sequenceId":"e5cc7998-d64c-4eee-9150-b73973f5aa8d"}},{"kind":"street","id":"v:14:12661","name":"avenue Paul Appell","arr":14,"lat":48.82153,"lng":2.32793,"themes":[],"shape":[[2.32794,48.82161],[2.32798,48.8216],[2.32803,48.82156],[2.32858,48.82145],[2.32859,48.82145],[2.3286,48.82145],[2.3286,48.82145],[2.32861,48.82145],[2.32862,48.82145],[2.32862,48.82145],[2.32863,48.82145],[2.32863,48.82146],[2.32864,48.82146],[2.32865,48.82146],[2.32865,48.82147],[2.32911,48.82135],[2.32947,48.82124],[2.3297,48.82117],[2.32939,48.82097],[2.32896,48.8211],[2.32887,48.82112],[2.32814,48.82128],[2.32706,48.82152],[2.32706,48.8215],[2.32674,48.82159],[2.32613,48.82172],[2.32603,48.82174],[2.32519,48.82207],[2.32605,48.82203],[2.32623,48.82199],[2.32649,48.82193],[2.32702,48.82181],[2.32716,48.82178],[2.3274,48.82173],[2.3278,48.82164],[2.32794,48.82161]],"quartier":"Petit-Montrouge","lengthM":310,"story":"Paul Emile Appell (1855-1930), mathématicien français, recteur de l'Université de Paris ; voisinage de la Cité Universitaire.","image":{"provider":"panoramax","id":"5b4440d4-ba3c-46d5-95e3-5599f849b5a9","lat":48.82107,"lng":2.32942,"sequenceId":"e5cc7998-d64c-4eee-9150-b73973f5aa8d"}},{"kind":"street","id":"v:14:12709","name":"avenue Paul Vaillant-Couturier","arr":14,"lat":48.81637,"lng":2.33971,"themes":[],"shape":[[2.33875,48.81652],[2.34105,48.81641],[2.34111,48.8164],[2.34174,48.81636],[2.3419,48.81633],[2.34202,48.81631],[2.34237,48.81625],[2.34278,48.81617],[2.34299,48.81614],[2.34308,48.81612],[2.34317,48.81609],[2.34327,48.81605],[2.34345,48.81599],[2.34352,48.81596],[2.34353,48.81596],[2.34359,48.81595],[2.34363,48.81594],[2.34368,48.81593],[2.34371,48.81593],[2.34373,48.81594],[2.34374,48.81596],[2.34374,48.81585],[2.34308,48.81609],[2.33373,48.81676],[2.33179,48.81712],[2.33236,48.81704],[2.33282,48.81698],[2.33328,48.81692],[2.33359,48.81687],[2.33367,48.81686],[2.33437,48.81682],[2.33437,48.81679],[2.33481,48.81677],[2.33554,48.81673],[2.33667,48.81664],[2.33875,48.81652]],"quartier":"Parc de Montsouris","lengthM":940,"story":"Paul Vaillant-Couturier (1892-1937), homme politique, journaliste et avocat français, député de la Seine.","image":{"provider":"panoramax","id":"772c889b-a150-4a8b-b078-a514c371ce3f","lat":48.8159,"lng":2.34373,"sequenceId":"e5cc7998-d64c-4eee-9150-b73973f5aa8d"}},{"kind":"street","id":"v:14:12862","name":"avenue Pierre Masse","arr":14,"lat":48.81751,"lng":2.33389,"themes":[],"shape":[[2.33336,48.81794],[2.33341,48.8179],[2.33366,48.81773],[2.33412,48.81741],[2.33437,48.81724],[2.33444,48.81719],[2.33451,48.81715],[2.33459,48.8171],[2.33466,48.81707],[2.3348,48.81701],[2.33509,48.8169],[2.33506,48.81682],[2.3351,48.81677],[2.33481,48.81677],[2.33484,48.81679],[2.33483,48.81685],[2.33475,48.81688],[2.33467,48.81693],[2.33439,48.81705],[2.33438,48.81706],[2.33394,48.81736],[2.33339,48.81773],[2.33339,48.81773],[2.33315,48.8179],[2.33314,48.8179],[2.33287,48.81808],[2.33279,48.8181],[2.33281,48.81821],[2.33286,48.8182],[2.33293,48.81817],[2.333,48.81814],[2.33306,48.81811],[2.3331,48.81809],[2.33323,48.81802],[2.3333,48.81797],[2.33336,48.81794]],"quartier":"Parc de Montsouris","lengthM":225,"story":"Pierre Masse (1879-1942), avocat à la Cour d'appel de Paris, mort en déportation.","image":{"provider":"panoramax","id":"f623edbe-33ba-4771-bf9a-31936d4601b0","lat":48.81712,"lng":2.33443,"sequenceId":"f3467c85-5fda-4a56-ac39-21acb48f1bc2"}},{"kind":"street","id":"v:14:13172","name":"avenue Reille","arr":14,"lat":48.82476,"lng":2.33771,"themes":[],"shape":[[2.33246,48.82371],[2.33099,48.82368],[2.331,48.82367],[2.33112,48.8237],[2.33169,48.82377],[2.3349,48.82415],[2.33578,48.82425],[2.33722,48.82445],[2.33823,48.82456],[2.33856,48.8246],[2.33873,48.82462],[2.33962,48.82452],[2.33573,48.82408],[2.33469,48.82396],[2.33396,48.82388],[2.33349,48.82383],[2.33286,48.82376],[2.33246,48.82371],[2.34028,48.82482],[2.33985,48.82475],[2.33995,48.82486],[2.34022,48.82512],[2.34068,48.82558],[2.3408,48.82569],[2.34102,48.82591],[2.34126,48.82616],[2.34134,48.82624],[2.34153,48.82607],[2.3414,48.82594],[2.34127,48.82581],[2.34114,48.82568],[2.34103,48.82557],[2.34082,48.82536],[2.34066,48.8252],[2.3405,48.82504],[2.34028,48.82482]],"quartier":"Parc de Montsouris","lengthM":890,"story":"Le comte Honoré Charles Michel Joseph Reille, (1775-1860), maréchal de France ; voisinage de la route militaire.","image":{"provider":"panoramax","id":"ecfea1ef-92eb-42bd-852c-34fbc552cd20","lat":48.82483,"lng":2.34025,"sequenceId":"1614cac9-2d6e-458a-a36f-c617b030c019"}},{"kind":"street","id":"v:14:13196","name":"avenue René Coty","arr":14,"lat":48.82938,"lng":2.33421,"themes":[],"shape":[[2.33474,48.82737],[2.33555,48.82649],[2.33606,48.82515],[2.33592,48.82431],[2.33533,48.82589],[2.3352,48.82622],[2.33501,48.82673],[2.33497,48.82685],[2.33474,48.82737],[2.33496,48.82746],[2.33418,48.82896],[2.33396,48.8299],[2.33405,48.82989],[2.33412,48.82995],[2.33441,48.82952],[2.33455,48.82915],[2.33487,48.8283],[2.33496,48.82746],[2.33373,48.83073],[2.33292,48.83233],[2.33285,48.8325],[2.33271,48.83287],[2.33313,48.83295],[2.33345,48.83208],[2.33355,48.83181],[2.33368,48.83147],[2.33373,48.83073],[2.33354,48.83065],[2.33398,48.83066],[2.33408,48.8304],[2.33405,48.83014],[2.33378,48.83037],[2.33393,48.82997],[2.33378,48.83002],[2.33367,48.83031],[2.33354,48.83065]],"quartier":"Parc de Montsouris","lengthM":1013,"story":"René Coty (1882-1962), homme politique français, Président de la IVe République.","image":{"provider":"panoramax","id":"ee090d17-b5cb-4e88-acba-aae61d45905e","lat":48.83081,"lng":2.3337,"sequenceId":"3548fffe-9974-47a5-bc3a-34fc58211793"}},{"kind":"street","id":"v:14:13276","name":"avenue Rockefeller","arr":14,"lat":48.81928,"lng":2.33955,"themes":[],"shape":[[2.33619,48.82028],[2.33619,48.82025],[2.33621,48.82022],[2.33699,48.82005],[2.33816,48.81984],[2.33826,48.81987],[2.33836,48.81987],[2.33846,48.81983],[2.33852,48.81977],[2.33855,48.8197],[2.34124,48.81908],[2.34219,48.81848],[2.34221,48.81848],[2.34226,48.81848],[2.34232,48.81846],[2.34235,48.81843],[2.34236,48.81839],[2.34234,48.81835],[2.3423,48.81833],[2.34224,48.81832],[2.34218,48.81833],[2.34213,48.81836],[2.34212,48.8184],[2.34212,48.81843],[2.34211,48.81845],[2.34107,48.81908],[2.3385,48.81965],[2.33842,48.8196],[2.3383,48.81958],[2.33819,48.8196],[2.33812,48.81965],[2.33808,48.81972],[2.33622,48.82016],[2.33617,48.82016],[2.33614,48.82015],[2.33619,48.82028]],"quartier":"Parc de Montsouris","lengthM":500,"story":"John Davison Rockefeller (1839-1937), philanthrope américain ; voisinage de la fondation Rockefeller.","image":{"provider":"panoramax","id":"7e149c15-3b3c-4d3d-9559-30f2015717ec","lat":48.81833,"lng":2.3423,"sequenceId":"a6071ab0-dac2-4349-8cc3-4933950454fc"}},{"kind":"street","id":"v:14:14073","name":"avenue Villemain","arr":14,"lat":48.83163,"lng":2.31701,"themes":[],"shape":[[2.31725,48.83156],[2.31737,48.83147],[2.31764,48.83126],[2.31795,48.83102],[2.31746,48.83112],[2.31748,48.83112],[2.31749,48.83112],[2.31751,48.83112],[2.31752,48.83113],[2.31754,48.83114],[2.31754,48.83114],[2.31755,48.83116],[2.31756,48.83116],[2.31756,48.83117],[2.31756,48.83118],[2.31755,48.83119],[2.31716,48.8315],[2.31709,48.83152],[2.31696,48.83161],[2.31679,48.83173],[2.31643,48.832],[2.3162,48.83216],[2.31609,48.83224],[2.31574,48.8325],[2.31578,48.83263],[2.316,48.83247],[2.31616,48.83235],[2.31632,48.83224],[2.31648,48.83212],[2.31665,48.832],[2.31675,48.83192],[2.3169,48.83182],[2.31703,48.83173],[2.31706,48.8317],[2.31709,48.83168],[2.31725,48.83156]],"quartier":"Plaisance","lengthM":226,"story":"Abel François Villemain (1790-1870), écrivain et homme politique français.","image":{"provider":"panoramax","id":"5bb89b2a-e933-443d-8fb7-9850ec225f06","lat":48.83167,"lng":2.317,"sequenceId":"e5cc7998-d64c-4eee-9150-b73973f5aa8d"}},{"kind":"street","id":"v:14:8807","name":"boulevard Adolphe Pinard","arr":14,"lat":48.82381,"lng":2.30775,"themes":[],"shape":[[2.30231,48.82503],[2.30328,48.82485],[2.3038,48.82474],[2.30384,48.82474],[2.3042,48.82461],[2.30464,48.82451],[2.30511,48.82441],[2.30824,48.82371],[2.30926,48.82348],[2.30933,48.82347],[2.30954,48.82343],[2.30969,48.82341],[2.31001,48.82336],[2.3101,48.82334],[2.31067,48.82322],[2.31163,48.82301],[2.31175,48.82298],[2.31196,48.82292],[2.31206,48.8229],[2.3122,48.82285],[2.31227,48.82283],[2.31239,48.8228],[2.31269,48.82273],[2.31282,48.8227],[2.314,48.82243],[2.31384,48.82233],[2.31026,48.82313],[2.30854,48.82351],[2.30624,48.82401],[2.30244,48.82488],[2.3012,48.82515],[2.30137,48.82523],[2.30148,48.82521],[2.30174,48.82515],[2.30181,48.82514],[2.30231,48.82503]],"quartier":"Plaisance","lengthM":1000,"story":"Adolphe Pinard (1844-1934), médecin français, membre de l'Académie de médecine, fondateur de l'Ecole de puériculture de la Faculté de médecine, voisinage de cet établissement.","image":{"provider":"panoramax","id":"44614863-d7fe-423e-8a19-4b1fa3114072","lat":48.82283,"lng":2.31205,"sequenceId":"e5cc7998-d64c-4eee-9150-b73973f5aa8d"}},{"kind":"street","id":"v:14:9513","name":"boulevard Brune","arr":14,"lat":48.8254,"lng":2.31582,"themes":[],"shape":[[2.31703,48.82531],[2.31751,48.8252],[2.31861,48.82496],[2.32041,48.82456],[2.32171,48.82427],[2.32218,48.82416],[2.32247,48.8241],[2.32267,48.82405],[2.32393,48.82377],[2.32552,48.82314],[2.32341,48.82351],[2.32115,48.82401],[2.31811,48.82469],[2.31786,48.82474],[2.31779,48.82476],[2.31771,48.82478],[2.31764,48.82479],[2.31735,48.82485],[2.31714,48.8249],[2.31544,48.82528],[2.31538,48.82529],[2.31331,48.82575],[2.31128,48.8262],[2.3095,48.82659],[2.30824,48.82687],[2.30612,48.82734],[2.30473,48.82803],[2.30588,48.82777],[2.30692,48.82754],[2.3078,48.82735],[2.30987,48.82689],[2.31232,48.82635],[2.31425,48.82592],[2.31497,48.82576],[2.31639,48.82545],[2.31703,48.82531]],"quartier":"Petit-Montrouge","lengthM":1600,"story":"Guillaume Marie Anne Brune (1763-1815), maréchal de France.","image":{"provider":"panoramax","id":"dbbc6d2f-01d6-4ead-a345-6854ed92201a","lat":48.825,"lng":2.31713,"sequenceId":"87a433b8-503c-4742-8f1d-e466b9063a66"}},{"kind":"street","id":"v:14:10436","name":"boulevard Edgar Quinet","arr":14,"lat":48.84117,"lng":2.32492,"themes":[],"shape":[[2.32456,48.84145],[2.3277,48.84039],[2.32883,48.84001],[2.33018,48.83956],[2.32763,48.83999],[2.32748,48.84004],[2.32403,48.84121],[2.32279,48.84165],[2.32282,48.84185],[2.32283,48.84185],[2.32337,48.84165],[2.32464,48.8412],[2.32465,48.8412],[2.32466,48.84119],[2.32468,48.84119],[2.32469,48.8412],[2.3247,48.8412],[2.32471,48.8412],[2.32472,48.8412],[2.32473,48.84121],[2.32474,48.84122],[2.32475,48.84122],[2.32475,48.84123],[2.32476,48.84124],[2.32476,48.84124],[2.32476,48.84125],[2.32476,48.84126],[2.32476,48.84127],[2.32475,48.84128],[2.32475,48.84128],[2.32474,48.84129],[2.32473,48.84129],[2.32472,48.8413],[2.32324,48.84183],[2.32324,48.84193],[2.32456,48.84145]],"quartier":"Montparnasse","lengthM":621,"story":"Edgar Quinet (1803-1875), écrivain français et représentant du peuple.","image":{"provider":"panoramax","id":"cb8d5075-43e1-452c-9189-b9cf7766486f","lat":48.84116,"lng":2.32475,"sequenceId":"eb48fb55-9942-4d8c-b926-92f31721bbb9"}},{"kind":"street","id":"v:14:11554","name":"boulevard Jourdan","arr":14,"lat":48.82118,"lng":2.33496,"themes":[],"shape":[[2.32841,48.82278],[2.33017,48.82239],[2.33182,48.82203],[2.33367,48.82162],[2.33411,48.82152],[2.33461,48.82141],[2.33626,48.82105],[2.33872,48.82054],[2.33885,48.82048],[2.33914,48.82041],[2.34186,48.81991],[2.34212,48.81987],[2.34272,48.8198],[2.34367,48.81969],[2.34432,48.81917],[2.34321,48.81938],[2.34197,48.81953],[2.34079,48.81967],[2.34026,48.81978],[2.33901,48.82006],[2.33817,48.82025],[2.33744,48.82041],[2.33643,48.82063],[2.33529,48.82088],[2.33354,48.82127],[2.33289,48.82141],[2.33054,48.82193],[2.33,48.82205],[2.3294,48.82218],[2.32723,48.82266],[2.32702,48.82267],[2.32619,48.82273],[2.32583,48.82335],[2.32662,48.82318],[2.32795,48.82288],[2.32841,48.82278]],"quartier":"Parc de Montsouris","lengthM":1430,"story":"Le comte Jean-Baptiste Jourdan (1762-1833), maréchal de France.","image":{"provider":"panoramax","id":"3e452d6c-7d38-46d6-98c6-2fb9b817d05e","lat":48.81979,"lng":2.34028,"sequenceId":"ac0e3789-a939-4192-9d9d-5fb5e03e93ed"}},{"kind":"street","id":"v:14:13297","name":"boulevard Romain Rolland","arr":14,"lat":48.82039,"lng":2.32308,"themes":[],"shape":[[2.32345,48.82032],[2.32388,48.82032],[2.32431,48.82023],[2.32534,48.82],[2.32563,48.81971],[2.32178,48.82057],[2.31952,48.82107],[2.31478,48.82226],[2.31549,48.82209],[2.31596,48.82198],[2.31624,48.82192],[2.31652,48.82187],[2.3166,48.82186],[2.3167,48.82184],[2.3174,48.82168],[2.32057,48.82096],[2.32137,48.82078],[2.32345,48.82032],[2.32931,48.81902],[2.32927,48.8189],[2.32919,48.81891],[2.32586,48.81966],[2.32589,48.81978],[2.32719,48.81949],[2.32848,48.8192],[2.32854,48.81919],[2.32866,48.81917],[2.32873,48.81915],[2.32931,48.81902]],"quartier":"Petit-Montrouge","lengthM":1160,"story":"Romain Rolland (1868-1945) ; littérateur et auteur dramatique français.","image":{"provider":"panoramax","id":"e1810650-2942-4383-8bbb-cfeb1750655e","lat":48.82173,"lng":2.31737,"sequenceId":"ff52dba4-bf7b-4f9d-b1cf-f5282e7016d7"}},{"kind":"street","id":"v:14:13610","name":"boulevard Saint-Jacques","arr":14,"lat":48.83289,"lng":2.33702,"themes":[],"shape":[[2.33424,48.83403],[2.3345,48.83396],[2.33516,48.83377],[2.33577,48.83361],[2.33704,48.83326],[2.33744,48.83315],[2.33757,48.83311],[2.3378,48.83305],[2.33827,48.83292],[2.33862,48.83282],[2.33875,48.83279],[2.33908,48.8327],[2.34002,48.83244],[2.34103,48.83223],[2.34109,48.83146],[2.34104,48.83146],[2.34092,48.83151],[2.33913,48.83201],[2.33857,48.83216],[2.33821,48.83226],[2.3376,48.83243],[2.33715,48.83256],[2.33695,48.83261],[2.33669,48.83268],[2.3366,48.8327],[2.33632,48.83278],[2.33605,48.83286],[2.33578,48.83293],[2.33526,48.83308],[2.33504,48.83314],[2.33492,48.83317],[2.33461,48.83325],[2.33409,48.8334],[2.33357,48.83354],[2.33352,48.83423],[2.33424,48.83403]],"quartier":"Montparnasse","lengthM":575,"story":"Voisinage de la rue du Faubourg Saint-Jacques.","image":{"provider":"panoramax","id":"3df3c74b-4a5f-4ec0-b4ac-08cd6da181da","lat":48.83225,"lng":2.33864,"sequenceId":"6d542ca1-5330-420b-bd9e-ee66aa8ccbeb"}},{"kind":"street","id":"v:14:15634","name":"cité Anne-Marie Bauer","arr":14,"lat":48.832,"lng":2.31924,"themes":[],"shape":[[2.31996,48.8317],[2.31991,48.83159],[2.31984,48.83167],[2.31977,48.83171],[2.3197,48.83174],[2.31965,48.83176],[2.31955,48.8318],[2.31952,48.83182],[2.31947,48.83184],[2.3194,48.83187],[2.31932,48.8319],[2.3193,48.83191],[2.31926,48.83193],[2.31917,48.83197],[2.31913,48.83199],[2.31907,48.83201],[2.31897,48.83205],[2.31892,48.83208],[2.31887,48.8321],[2.3188,48.83213],[2.31875,48.83215],[2.31872,48.83216],[2.31887,48.83223],[2.31901,48.8323],[2.31905,48.83231],[2.31906,48.83232],[2.31909,48.8323],[2.31907,48.83229],[2.31889,48.8322],[2.31888,48.83219],[2.31897,48.83213],[2.31905,48.83209],[2.31909,48.83208],[2.31913,48.83206],[2.31929,48.83199],[2.31996,48.8317]],"quartier":"Plaisance","lengthM":129,"story":"Anne-Marie Bauer (Paris, 1914 - Paris, 1996), Résistante. Membre du mouvement de résistance Libération-Sud et du réseau Action.","image":{"provider":"panoramax","id":"d2d654bd-d6a0-43da-80be-e3bbde186de9","lat":48.8321,"lng":2.31889,"sequenceId":"e5cc7998-d64c-4eee-9150-b73973f5aa8d"}},{"kind":"street","id":"v:14:8994","name":"cité Annibal","arr":14,"lat":48.82709,"lng":2.3329,"themes":[],"shape":[[2.33321,48.82704],[2.33321,48.82703],[2.33318,48.82703],[2.33306,48.82705],[2.33304,48.82705],[2.33303,48.82705],[2.33302,48.82705],[2.33295,48.82707],[2.33292,48.82707],[2.33286,48.82708],[2.3328,48.82709],[2.33276,48.82709],[2.33265,48.82711],[2.33256,48.82712],[2.33248,48.82714],[2.33235,48.82715],[2.33237,48.82718],[2.33254,48.82716],[2.33259,48.82715],[2.33266,48.82714],[2.33272,48.82713],[2.33285,48.82711],[2.33291,48.8271],[2.33304,48.82708],[2.33309,48.82707],[2.33313,48.82707],[2.33316,48.82706],[2.33321,48.82705],[2.33321,48.82704],[2.33322,48.82704],[2.33321,48.82704]],"quartier":"Parc de Montsouris","lengthM":70,"story":"Annibal (247-183 av. J.-C.), général carthaginois.","image":{"provider":"panoramax","id":"a7ba9829-65ed-4a35-a630-acb487490e52","lat":48.82718,"lng":2.33232,"sequenceId":"fc5b3d88-cb05-4765-b010-9218c5470610"}},{"kind":"street","id":"v:14:9351","name":"cité Blanche","arr":14,"lat":48.82948,"lng":2.30792,"themes":[],"shape":[[2.30801,48.82965],[2.30819,48.82949],[2.30821,48.82948],[2.30835,48.82936],[2.30847,48.82926],[2.3084,48.82923],[2.30835,48.82921],[2.30834,48.82921],[2.30827,48.82928],[2.30823,48.82931],[2.30806,48.82945],[2.30802,48.82949],[2.30799,48.82951],[2.30798,48.82952],[2.30793,48.82956],[2.30782,48.82951],[2.30753,48.82937],[2.30752,48.82938],[2.30751,48.82938],[2.30751,48.82939],[2.30751,48.82938],[2.30748,48.82942],[2.30747,48.82944],[2.30749,48.82944],[2.30749,48.82944],[2.30755,48.82947],[2.30773,48.82956],[2.30785,48.82962],[2.30793,48.82968],[2.30801,48.82975],[2.30804,48.82974],[2.30802,48.82972],[2.30802,48.82966],[2.30802,48.82965],[2.30801,48.82965]],"quartier":"Plaisance","lengthM":94,"story":"Blanche, prénom de la fille du propriétaire des terrains sur lesquels cette voie a été créée.","image":{"provider":"panoramax","id":"0bbff3fe-ff54-49f9-bac2-98ad77974650","lat":48.8292,"lng":2.30722,"sequenceId":"e5cc7998-d64c-4eee-9150-b73973f5aa8d"}},{"kind":"street","id":"v:14:12478","name":"cité Nicolas Poussin","arr":14,"lat":48.83852,"lng":2.33041,"themes":[],"shape":[[2.33043,48.83855],[2.33059,48.83857],[2.3306,48.83855],[2.33051,48.83853],[2.33044,48.83852],[2.33044,48.83851],[2.33044,48.83851],[2.33044,48.83849],[2.33045,48.83849],[2.33048,48.83842],[2.33047,48.83842],[2.33048,48.8384],[2.33044,48.83839],[2.33044,48.8384],[2.3304,48.8384],[2.3304,48.8384],[2.33036,48.83839],[2.33032,48.83848],[2.33037,48.83849],[2.33036,48.83851],[2.33035,48.83853],[2.33031,48.83853],[2.33028,48.83861],[2.33032,48.83862],[2.33032,48.83861],[2.33035,48.83862],[2.33036,48.83863],[2.33036,48.83865],[2.33039,48.83866],[2.33041,48.83861],[2.3304,48.83861],[2.33041,48.83858],[2.33042,48.83858],[2.33043,48.83855]],"quartier":"Montparnasse","lengthM":17,"story":"Nicolas Poussin (1594-1665), peintre français.","image":{"provider":"panoramax","id":"f1928f29-545f-46d3-a39d-c425fffd188f","lat":48.83873,"lng":2.33061,"sequenceId":"df780df5-75f8-436d-a27f-4d6538e747ab"}},{"kind":"street","id":"v:14:15193","name":"cour des Ateliers","arr":14,"lat":48.8228,"lng":2.32925,"themes":[],"shape":[[2.32936,48.82257],[2.32916,48.82262],[2.32921,48.82273],[2.32869,48.82283],[2.32885,48.82321],[2.32938,48.8231],[2.32929,48.8229],[2.32944,48.82287],[2.32949,48.82286],[2.32941,48.82269],[2.32937,48.82259],[2.32936,48.82257]],"quartier":"Petit-Montrouge","story":"en rappel de l'histoire industrielle (passée et future) du site.","image":{"provider":"panoramax","id":"1c00a08c-af85-437a-b189-c99f5b8f5907","lat":48.82254,"lng":2.32925,"sequenceId":"4e9bd8f5-0738-4861-b680-c2c4e70d8679"}},{"kind":"street","id":"v:14:15079","name":"esplanade Charles-Axel Guillaumot","arr":14,"lat":48.83327,"lng":2.33361,"themes":[],"shape":[[2.33355,48.83354],[2.33383,48.83347],[2.33384,48.83338],[2.33378,48.8333],[2.33377,48.8333],[2.33376,48.83329],[2.33375,48.83329],[2.33373,48.83329],[2.33372,48.83328],[2.33371,48.83328],[2.3337,48.83328],[2.33369,48.83328],[2.33368,48.83327],[2.33367,48.83327],[2.33366,48.83327],[2.33365,48.83326],[2.33363,48.83325],[2.33362,48.83325],[2.33361,48.83324],[2.3336,48.83324],[2.33359,48.83323],[2.33358,48.83323],[2.33357,48.83322],[2.33356,48.83322],[2.33355,48.83321],[2.33354,48.83321],[2.33353,48.8332],[2.33352,48.83319],[2.33349,48.8332],[2.33347,48.8332],[2.33343,48.83315],[2.3334,48.83312],[2.33336,48.83307],[2.3333,48.83309],[2.3334,48.83344],[2.33355,48.83354]],"quartier":"Petit-Montrouge","story":"Charles-Axel Guillaumot (Stockholm, 1730-Paris,1807), architecte, Premier inspecteur des Carrières de Paris, administrateur de la manufacture des Gobelins.","image":{"provider":"panoramax","id":"fce50510-a643-48e8-80c7-3a0c2555b751","lat":48.83321,"lng":2.33348,"sequenceId":"8bf237ba-feb8-435c-8da2-f7dc29a8f3e7"}},{"kind":"street","id":"v:14:9667","name":"impasse Cels","arr":14,"lat":48.83621,"lng":2.32453,"themes":[],"shape":[[2.32476,48.83639],[2.3245,48.83613],[2.32445,48.83608],[2.32442,48.83609],[2.32439,48.8361],[2.32439,48.8361],[2.32443,48.83614],[2.32447,48.83618],[2.32451,48.83622],[2.32452,48.83623],[2.32459,48.8363],[2.3247,48.83642],[2.32476,48.83639]],"quartier":"Montparnasse","lengthM":41,"story":"Jacques Martin Cels (1743-1806), horticulteur, grand-père de l'ancien propriétaire du terrain sur lequel la voie a été ouverte. ; Voisinage de la rue Cels."},{"kind":"street","id":"v:14:10874","name":"impasse de la Gaîté","arr":14,"lat":48.84048,"lng":2.32475,"themes":[],"shape":[[2.32459,48.84057],[2.32476,48.84052],[2.32497,48.84047],[2.32517,48.84042],[2.32517,48.84041],[2.32516,48.8404],[2.32517,48.84037],[2.32514,48.84033],[2.32496,48.84037],[2.3246,48.84047],[2.3244,48.84052],[2.32438,48.84052],[2.32437,48.84052],[2.32435,48.84052],[2.32444,48.84063],[2.32446,48.8406],[2.32459,48.84057]],"quartier":"Montparnasse","lengthM":60,"story":"Voisinage de la rue de la Gaîté ; rue voisine de l'ancienne barrière, autrefois bordée de divers bals, guinguettes, théâtres… dont quelques-uns subsistent encore.","image":{"provider":"panoramax","id":"0b225aba-5c7f-42d4-ad0b-d38034a3421b","lat":48.84071,"lng":2.32442,"sequenceId":"0534ac09-ee10-41e4-9dd5-602377dd8777"}},{"kind":"street","id":"v:14:12397","name":"impasse du Moulin Vert","arr":14,"lat":48.82926,"lng":2.32397,"themes":[],"shape":[[2.32432,48.82922],[2.32449,48.82918],[2.32457,48.82917],[2.32461,48.82912],[2.3246,48.8291],[2.32451,48.82907],[2.32448,48.82901],[2.32445,48.82896],[2.32441,48.82897],[2.32443,48.82902],[2.32444,48.82904],[2.32446,48.82908],[2.32445,48.82914],[2.32434,48.82917],[2.32418,48.82921],[2.32345,48.82938],[2.32339,48.8294],[2.32315,48.82946],[2.32312,48.82946],[2.32302,48.82949],[2.32292,48.82951],[2.3231,48.82952],[2.32334,48.82946],[2.32352,48.82941],[2.32361,48.82939],[2.32365,48.82938],[2.32373,48.82936],[2.32379,48.82935],[2.32386,48.82933],[2.3239,48.82932],[2.32395,48.82931],[2.32399,48.8293],[2.32401,48.82929],[2.32407,48.82928],[2.32416,48.82926],[2.32432,48.82922]],"quartier":"Petit-Montrouge","lengthM":130,"story":"Voisinage de la rue du Moulin Vert.","image":{"provider":"panoramax","id":"67301474-0af4-4dc0-9c42-dce4bfccd6d2","lat":48.82947,"lng":2.32314,"sequenceId":"e5cc7998-d64c-4eee-9150-b73973f5aa8d"}},{"kind":"street","id":"v:14:13327","name":"impasse du Rouet","arr":14,"lat":48.82764,"lng":2.3257,"themes":[],"shape":[[2.3258,48.82765],[2.32585,48.82764],[2.32601,48.8276],[2.32594,48.82756],[2.32592,48.82759],[2.32578,48.82762],[2.32565,48.82765],[2.32562,48.82764],[2.32559,48.82763],[2.32556,48.82759],[2.32545,48.82762],[2.32548,48.82768],[2.3255,48.82772],[2.32554,48.82771],[2.32565,48.82769],[2.3257,48.82767],[2.32577,48.82766],[2.3258,48.82765]],"quartier":"Petit-Montrouge","lengthM":40,"story":"Doit son nom à une corderie.","image":{"provider":"panoramax","id":"feebf01f-9cc7-481e-a366-cc0d65abc587","lat":48.82733,"lng":2.3256,"sequenceId":"cdd01b95-d19a-4a12-9fac-ae6e57079665"}},{"kind":"street","id":"v:14:10740","name":"impasse Florimont","arr":14,"lat":48.8316,"lng":2.31607,"themes":[],"shape":[[2.31633,48.83144],[2.31636,48.83141],[2.31623,48.83144],[2.31626,48.83146],[2.31604,48.8316],[2.31601,48.83162],[2.31595,48.83167],[2.31592,48.83169],[2.31591,48.83169],[2.31589,48.8317],[2.31586,48.83172],[2.31589,48.83174],[2.3159,48.83173],[2.31594,48.8317],[2.31597,48.83168],[2.31599,48.83166],[2.31611,48.83159],[2.31619,48.83153],[2.31632,48.83144],[2.31633,48.83144]],"quartier":"Plaisance","lengthM":47,"story":"M. Florimont, propriétaire.","image":{"provider":"panoramax","id":"9fe014ad-5cb7-42d6-beb1-b3f02cbf2b7f","lat":48.83146,"lng":2.31579,"sequenceId":"e5cc7998-d64c-4eee-9150-b73973f5aa8d"}},{"kind":"street","id":"v:14:11730","name":"impasse Lebouis","arr":14,"lat":48.83681,"lng":2.3218,"themes":[],"shape":[[2.32182,48.83679],[2.32172,48.83674],[2.32168,48.83678],[2.32175,48.83681],[2.32185,48.83686],[2.32186,48.83685],[2.32189,48.83682],[2.32182,48.83679]],"quartier":"Plaisance","lengthM":15,"story":"Voisinage de la rue Lebouis, Nom de propriétaire.","image":{"provider":"panoramax","id":"054d48fe-aab5-45d6-b150-8a9728e0e29c","lat":48.83682,"lng":2.32204,"sequenceId":"dcb43513-633a-4941-8109-fd9d3b0b6f2c"}},{"kind":"street","id":"v:14:11940","name":"impasse Louvat","arr":14,"lat":48.83342,"lng":2.32752,"themes":[],"shape":[[2.32747,48.83347],[2.32755,48.83345],[2.32757,48.83344],[2.32761,48.83343],[2.32789,48.83335],[2.32785,48.83328],[2.3277,48.83332],[2.32757,48.83336],[2.32743,48.83341],[2.32727,48.83345],[2.32723,48.83344],[2.3273,48.83354],[2.32731,48.83351],[2.32747,48.83347]],"quartier":"Petit-Montrouge","lengthM":47,"story":"M. Louvat, propriétaire.","image":{"provider":"panoramax","id":"a50e712d-7111-45b5-bbd7-337991f9c85a","lat":48.83304,"lng":2.32808,"sequenceId":"d9df5b64-4943-4791-b084-141f38b9900a"}},{"kind":"street","id":"v:14:12426","name":"impasse Nansouty","arr":14,"lat":48.82173,"lng":2.33392,"themes":[],"shape":[[2.33432,48.82173],[2.33445,48.82173],[2.33448,48.82173],[2.33444,48.82168],[2.33431,48.82169],[2.33429,48.82169],[2.33424,48.82169],[2.33417,48.8217],[2.33414,48.8217],[2.33409,48.8217],[2.33398,48.8217],[2.33391,48.82171],[2.33386,48.82171],[2.33376,48.82171],[2.33371,48.82172],[2.33369,48.82172],[2.33359,48.82172],[2.33344,48.82173],[2.33345,48.82174],[2.33346,48.82176],[2.33346,48.82177],[2.33354,48.82177],[2.33359,48.82177],[2.3336,48.82177],[2.33367,48.82176],[2.3337,48.82176],[2.33372,48.82176],[2.33374,48.82176],[2.33376,48.82176],[2.33387,48.82175],[2.33388,48.82175],[2.33391,48.82175],[2.33399,48.82175],[2.33412,48.82174],[2.3343,48.82173],[2.33432,48.82173]],"quartier":"Parc de Montsouris","lengthM":60,"story":"Voisinage de la rue Nansouty.","image":{"provider":"panoramax","id":"7499bb1d-a8f0-4fbd-ab20-ae9cffe818d3","lat":48.82165,"lng":2.33338,"sequenceId":"4e9bd8f5-0738-4861-b680-c2c4e70d8679"}},{"kind":"street","id":"v:14:13173","name":"impasse Reille","arr":14,"lat":48.82615,"lng":2.34007,"themes":[],"shape":[[2.34106,48.82614],[2.3412,48.82613],[2.34126,48.82616],[2.34113,48.82602],[2.34111,48.82605],[2.34076,48.82607],[2.3406,48.82608],[2.34046,48.82609],[2.34021,48.8261],[2.33974,48.82613],[2.33964,48.82614],[2.33953,48.82614],[2.33926,48.82616],[2.33918,48.82616],[2.33918,48.82616],[2.33914,48.82616],[2.33893,48.82618],[2.33873,48.82619],[2.33873,48.82628],[2.33914,48.82625],[2.3396,48.82623],[2.33977,48.82622],[2.34047,48.82618],[2.34086,48.82615],[2.34096,48.82615],[2.34106,48.82614]],"quartier":"Parc de Montsouris","lengthM":180,"story":"Voisinage de l'avenue Reille.","image":{"provider":"panoramax","id":"91a08c62-b171-48c7-8f77-35355a4b7c82","lat":48.8262,"lng":2.33918,"sequenceId":"37009ea3-a511-4322-8898-e39aed958ec3"}},{"kind":"street","id":"v:14:13545","name":"impasse Saint-Alphonse","arr":14,"lat":48.8232,"lng":2.32722,"themes":[],"shape":[[2.32735,48.82318],[2.32733,48.82316],[2.32732,48.82316],[2.32699,48.82322],[2.32702,48.82325],[2.32708,48.82323],[2.32711,48.82323],[2.32716,48.82322],[2.32732,48.82319],[2.32735,48.82318],[2.32735,48.82318]],"quartier":"Petit-Montrouge","lengthM":32,"story":"Alphonse, prénom d'un ancien propriétaire.","image":{"provider":"panoramax","id":"63937ff7-6dd3-4cd7-9420-9e323ffc3079","lat":48.82332,"lng":2.32696,"sequenceId":"c858d5bb-2150-4167-83b5-cf278c1a59b3"}},{"kind":"street","id":"v:14:13945","name":"impasse Vandal","arr":14,"lat":48.8275,"lng":2.3077,"themes":[],"shape":[[2.30796,48.82734],[2.30793,48.82732],[2.30774,48.82736],[2.30775,48.82738],[2.30748,48.82764],[2.30747,48.82764],[2.30748,48.82765],[2.30757,48.82769],[2.30766,48.8276],[2.30796,48.82734]],"quartier":"Plaisance","lengthM":40,"story":"M. Vandal, propriétaire.","image":{"provider":"panoramax","id":"c8a1cdb7-57ac-4377-b292-d0f23b910471","lat":48.82766,"lng":2.30752,"sequenceId":"e5cc7998-d64c-4eee-9150-b73973f5aa8d"}},{"kind":"street","id":"v:14:12560","name":"Les Portiques d'Orléans","arr":14,"lat":48.832,"lng":2.32983,"themes":[],"shape":[[2.32976,48.83204],[2.32975,48.83203],[2.32977,48.83203],[2.32979,48.83203],[2.3298,48.83201],[2.32984,48.832],[2.32985,48.83201],[2.32989,48.83199],[2.32999,48.83196],[2.33012,48.83191],[2.33009,48.83187],[2.32982,48.83197],[2.32961,48.83205],[2.32963,48.83208],[2.32976,48.83204]],"quartier":"Petit-Montrouge","lengthM":41,"story":"Voisinage de l'ancienne avenue d'Orléans.","image":{"provider":"panoramax","id":"4c2adb3d-96c2-4cf5-b360-53e69a8a23cb","lat":48.83178,"lng":2.3302,"sequenceId":"debf3401-8273-4d3f-950d-0906efd902d7"}},{"kind":"street","id":"v:14:10525","name":"passage d'Enfer","arr":14,"lat":48.83887,"lng":2.33186,"themes":["passages"],"shape":[[2.33146,48.83851],[2.33138,48.83846],[2.3313,48.8384],[2.33122,48.83835],[2.33118,48.83846],[2.33119,48.83845],[2.33134,48.83856],[2.33143,48.83862],[2.33153,48.83869],[2.33181,48.83888],[2.3319,48.83895],[2.33193,48.83896],[2.33197,48.839],[2.33203,48.83903],[2.33206,48.83906],[2.33209,48.83908],[2.33219,48.83914],[2.33228,48.83921],[2.33213,48.83943],[2.33223,48.83937],[2.33231,48.83932],[2.33239,48.83926],[2.33247,48.83921],[2.33242,48.83917],[2.33234,48.83912],[2.33226,48.83906],[2.33218,48.83901],[2.3321,48.83895],[2.33202,48.8389],[2.33194,48.83884],[2.33186,48.83879],[2.33178,48.83873],[2.3317,48.83868],[2.33162,48.83862],[2.33154,48.83857],[2.33146,48.83851]],"quartier":"Montparnasse","lengthM":160,"story":"Voisinage de l'ancien boulevard d'Enfer, actuellement boulevard Raspail.","image":{"provider":"panoramax","id":"6bbc3b9f-ebe3-4319-aabc-326cf30df133","lat":48.83947,"lng":2.33207,"sequenceId":"86c050d1-367d-4730-85bd-4babecbe31e8"}},{"kind":"street","id":"v:14:10157","name":"passage Dareau","arr":14,"lat":48.83079,"lng":2.33532,"themes":["passages"],"shape":[[2.33509,48.8309],[2.33523,48.83086],[2.33523,48.83086],[2.33544,48.8308],[2.33543,48.8308],[2.33544,48.8308],[2.33564,48.83074],[2.33589,48.83067],[2.33579,48.83058],[2.33575,48.83063],[2.33573,48.83065],[2.33571,48.83065],[2.33568,48.83066],[2.33565,48.83067],[2.33561,48.83068],[2.33561,48.8307],[2.33558,48.83071],[2.33546,48.83074],[2.33533,48.83078],[2.33518,48.83082],[2.33517,48.83081],[2.33513,48.83082],[2.33497,48.83086],[2.33492,48.83088],[2.33493,48.83089],[2.33484,48.83092],[2.33472,48.83095],[2.33475,48.83099],[2.33487,48.83096],[2.33493,48.83094],[2.33509,48.8309]],"quartier":"Parc de Montsouris","lengthM":90,"story":"Voisinage de la rue Dareau.","image":{"provider":"panoramax","id":"53dde440-7edb-4104-aace-6839fefd4c68","lat":48.83071,"lng":2.33562,"sequenceId":"86c050d1-367d-4730-85bd-4babecbe31e8"}},{"kind":"street","id":"v:14:11037","name":"passage de Gergovie","arr":14,"lat":48.83417,"lng":2.31283,"themes":["passages"],"shape":[[2.31326,48.83444],[2.31253,48.83385],[2.31246,48.83389],[2.31253,48.83394],[2.31252,48.83395],[2.31258,48.83399],[2.31271,48.8341],[2.31296,48.8343],[2.31316,48.83446],[2.31316,48.83449],[2.31326,48.83444]],"quartier":"Plaisance","lengthM":135,"story":"Voisinage de la rue de Gergovie.","image":{"provider":"panoramax","id":"76a5f99b-f2cb-459d-b501-3477e3b34507","lat":48.83396,"lng":2.3126,"sequenceId":"e5cc7998-d64c-4eee-9150-b73973f5aa8d"}},{"kind":"street","id":"v:14:13848","name":"passage de la Tour de Vanves","arr":14,"lat":48.83469,"lng":2.32333,"themes":["passages"],"shape":[[2.32376,48.83454],[2.32389,48.83449],[2.32391,48.8345],[2.32394,48.83443],[2.32387,48.83445],[2.32379,48.83448],[2.32373,48.83451],[2.32367,48.83453],[2.32359,48.83456],[2.32337,48.83465],[2.32329,48.83468],[2.32325,48.8347],[2.32318,48.83473],[2.32312,48.83475],[2.32303,48.83479],[2.32287,48.83485],[2.32274,48.8349],[2.32265,48.83494],[2.32256,48.83498],[2.32255,48.83498],[2.32255,48.83498],[2.32259,48.83501],[2.32306,48.83482],[2.32319,48.83477],[2.3233,48.83472],[2.3234,48.83468],[2.32345,48.83466],[2.32347,48.83466],[2.32352,48.83463],[2.32358,48.83461],[2.32367,48.83457],[2.32375,48.83454],[2.32376,48.83454]],"quartier":"Plaisance","lengthM":120,"story":"Conduisait au moulin de la Tour de Vanves."},{"kind":"street","id":"v:14:9075","name":"passage des Arts","arr":14,"lat":48.8354,"lng":2.32138,"themes":["passages"],"shape":[[2.32119,48.83554],[2.32129,48.83548],[2.3213,48.83547],[2.32138,48.83543],[2.32143,48.83539],[2.32163,48.83527],[2.32173,48.83521],[2.32177,48.83522],[2.32176,48.83514],[2.32165,48.83521],[2.32143,48.83535],[2.3214,48.83536],[2.32134,48.8354],[2.32131,48.83542],[2.32126,48.83545],[2.32125,48.83546],[2.32124,48.83547],[2.32118,48.8355],[2.32116,48.83551],[2.32114,48.83551],[2.32119,48.83554]],"quartier":"Plaisance","lengthM":58,"story":"Résidence d'artistes.","image":{"provider":"panoramax","id":"5b42b9ad-b61c-49e8-9f3b-5afa667c44b0","lat":48.83542,"lng":2.32141,"sequenceId":"33f51b9b-e684-4468-acab-2f31417ef0e2"}},{"kind":"street","id":"v:14:10534","name":"passage des Épinettes","arr":14,"lat":48.84293,"lng":2.32523,"themes":["passages"],"shape":[[2.32547,48.84317],[2.32522,48.84277],[2.3252,48.84275],[2.32514,48.84277],[2.32499,48.84281],[2.32491,48.84283],[2.32493,48.84286],[2.32518,48.84279],[2.32521,48.84284],[2.3253,48.84297],[2.32534,48.84303],[2.32538,48.84309],[2.32544,48.84318],[2.32547,48.84317]],"quartier":"Montparnasse","lengthM":69,"story":"Lieu-dit.","image":{"provider":"panoramax","id":"ae9f64b7-5f0b-4ef4-bc67-8d10fce5fd05","lat":48.8432,"lng":2.3257,"sequenceId":"8d527a14-d8ae-469b-8fb1-fd9714c7b17d"}},{"kind":"street","id":"v:14:10686","name":"passage Fermat","arr":14,"lat":48.83665,"lng":2.32508,"themes":["passages"],"shape":[[2.3253,48.83657],[2.32532,48.83656],[2.32547,48.83649],[2.32548,48.83649],[2.32557,48.83645],[2.3256,48.83644],[2.32558,48.83643],[2.32557,48.83643],[2.32556,48.83644],[2.32546,48.83648],[2.32542,48.8365],[2.32533,48.83654],[2.32532,48.83654],[2.32529,48.83656],[2.32507,48.83664],[2.32502,48.83666],[2.32498,48.83668],[2.32495,48.83669],[2.32486,48.83673],[2.32481,48.83675],[2.32473,48.83678],[2.32447,48.8369],[2.32442,48.83691],[2.32441,48.83692],[2.32442,48.83693],[2.32446,48.83691],[2.3246,48.83685],[2.3247,48.83681],[2.32482,48.83676],[2.32487,48.83674],[2.32496,48.8367],[2.32509,48.83665],[2.32514,48.83663],[2.32516,48.83662],[2.32528,48.83657],[2.3253,48.83657]],"quartier":"Montparnasse","lengthM":105,"story":"Voisinage de la rue Fermat.","image":{"provider":"panoramax","id":"79849155-402c-4fe5-b3a4-08a1dd213c14","lat":48.83696,"lng":2.32489,"sequenceId":"58cd3024-5d76-4481-b468-2c9bb4d67459"}},{"kind":"street","id":"v:14:15824","name":"passage Jean Cardot","arr":14,"lat":48.82854,"lng":2.31691,"themes":["passages"],"shape":[[2.31716,48.82841],[2.31713,48.82839],[2.31702,48.82845],[2.31694,48.8285],[2.3169,48.82853],[2.31685,48.82855],[2.31677,48.8286],[2.31671,48.82863],[2.31662,48.82868],[2.31665,48.82871],[2.31676,48.82864],[2.31686,48.82858],[2.31697,48.82852],[2.31709,48.82845],[2.31716,48.82841]],"quartier":"Plaisance","lengthM":46,"story":"Jean Cardot, né Jean Jules Cardot (Saint-Étienne, 1930 – Paris, 2020). Sculpteur.","image":{"provider":"panoramax","id":"fa235fff-d305-45af-8d79-3e142fa68c77","lat":48.82864,"lng":2.31674,"sequenceId":"e5cc7998-d64c-4eee-9150-b73973f5aa8d"}},{"kind":"street","id":"v:14:12316","name":"passage Montbrun","arr":14,"lat":48.82883,"lng":2.32936,"themes":["passages"],"shape":[[2.32939,48.82886],[2.32939,48.82892],[2.32939,48.82892],[2.32935,48.82894],[2.32941,48.82902],[2.32951,48.8291],[2.3296,48.82924],[2.32964,48.82929],[2.32965,48.82931],[2.32968,48.82936],[2.32974,48.82945],[2.32982,48.82956],[2.32986,48.82942],[2.32971,48.82927],[2.32963,48.82915],[2.32955,48.82904],[2.32949,48.82894],[2.32939,48.82886],[2.32929,48.82878],[2.32939,48.82886],[2.3294,48.82881],[2.32925,48.82859],[2.32924,48.82857],[2.32922,48.82853],[2.32918,48.82848],[2.329,48.82822],[2.32898,48.82818],[2.32894,48.82813],[2.32887,48.82815],[2.32896,48.82828],[2.32904,48.82841],[2.32906,48.82843],[2.32907,48.82846],[2.32929,48.82877],[2.32929,48.82878],[2.32929,48.82878]],"quartier":"Petit-Montrouge","lengthM":160,"story":"Louis Pierre Montbrun (1770-1812), général, tué à la bataille de la Moskova. Voisinage de la rue Montbrun.","image":{"provider":"panoramax","id":"cbd7c4e3-f4c7-41cf-bd21-5963e5fffb6c","lat":48.82879,"lng":2.32934,"sequenceId":"ed6abbf5-e707-4b9a-b8db-a398ebf189e0"}},{"kind":"street","id":"v:14:13242","name":"passage Rimbaut","arr":14,"lat":48.82946,"lng":2.32721,"themes":["passages"],"shape":[[2.32647,48.82972],[2.32656,48.82969],[2.32668,48.82965],[2.32682,48.8296],[2.32703,48.82953],[2.32713,48.8295],[2.32726,48.82946],[2.32738,48.82941],[2.3275,48.82937],[2.3277,48.82931],[2.32783,48.82926],[2.32783,48.82926],[2.32784,48.82926],[2.32784,48.82926],[2.32781,48.82923],[2.32768,48.82927],[2.32766,48.82928],[2.32764,48.82928],[2.32756,48.82931],[2.32737,48.82938],[2.32636,48.82971],[2.32635,48.82971],[2.32633,48.82976],[2.32647,48.82972]],"quartier":"Petit-Montrouge","lengthM":118,"story":"M. Rimbaut, propriétaire.","image":{"provider":"panoramax","id":"62306dfa-3a39-4bd4-8a47-a3b2ac038197","lat":48.82926,"lng":2.32784,"sequenceId":"d1d5a855-e46c-4bcd-80af-6f38008d5235"}},{"kind":"street","id":"v:14:13759","name":"passage Tenaille","arr":14,"lat":48.83388,"lng":2.32503,"themes":["passages"],"shape":[[2.32487,48.83402],[2.32509,48.83394],[2.32521,48.83389],[2.3258,48.83367],[2.32572,48.83357],[2.32559,48.83362],[2.32545,48.83367],[2.3254,48.83369],[2.32522,48.83376],[2.32505,48.83382],[2.32486,48.8339],[2.32485,48.8339],[2.32478,48.83393],[2.32473,48.83394],[2.32463,48.83398],[2.32461,48.83398],[2.32454,48.83414],[2.3246,48.83412],[2.32472,48.83407],[2.32487,48.83402]],"quartier":"Plaisance","lengthM":100,"story":"M. Tenaille, propriétaire.","image":{"provider":"panoramax","id":"7ac4ee23-c0f8-46ae-888c-b4cd779e3ab9","lat":48.83373,"lng":2.32447,"sequenceId":"6cc34a60-4282-44f4-9504-f8fd038fb8ca"}},{"kind":"street","id":"v:14:15139","name":"place Alice Guy","arr":14,"lat":48.82702,"lng":2.31367,"themes":["places"],"shape":[[2.31402,48.82708],[2.31347,48.82672],[2.3133,48.82684],[2.31349,48.82697],[2.31359,48.82718],[2.31367,48.82716],[2.31381,48.82713],[2.31402,48.82708]],"quartier":"Plaisance","lengthM":50,"story":"Alice Guy (Saint Mandé, 1873-Wayne, New Jersey (Etats Unis), 1968) pionnière du cinéma, considérée comme la première femme réalisatrice de l'histoire du cinéma.","image":{"provider":"panoramax","id":"e4a0c32b-9c13-4b2e-ae15-1f68e0b01acf","lat":48.8273,"lng":2.31364,"sequenceId":"5f0110cc-3cfc-47e5-bf96-9fc66b699bf9"}},{"kind":"street","id":"v:14:15014","name":"place Ambroise Croizat","arr":14,"lat":48.82152,"lng":2.32858,"themes":["places"],"shape":[[2.32858,48.82145],[2.32803,48.82156],[2.32805,48.8216],[2.32834,48.8217],[2.32859,48.82179],[2.32876,48.82184],[2.32881,48.82183],[2.32868,48.82153],[2.32865,48.82147],[2.32865,48.82147],[2.32865,48.82147],[2.32865,48.82146],[2.32864,48.82146],[2.32864,48.82146],[2.32864,48.82146],[2.32863,48.82145],[2.32863,48.82145],[2.32862,48.82145],[2.32862,48.82145],[2.32861,48.82145],[2.32861,48.82145],[2.3286,48.82145],[2.3286,48.82145],[2.32859,48.82145],[2.32859,48.82145],[2.32858,48.82145]],"quartier":"Petit-Montrouge","story":"Ambroise Croizat (Notre-Dame-de-Briançon, 1901-Suresnes, 1951), député communiste, ministre du Travail sous le gouvernement de Charles de Gaulle, puis ministre du Travail et de la Sécurité Sociale en 1946 et en 1947.","image":{"provider":"panoramax","id":"dd6c0ef7-1f7a-4912-bbcf-e3c3255660fc","lat":48.8215,"lng":2.32865,"sequenceId":"2b677e78-502c-471b-8f77-bfa6e90a00b2"}},{"kind":"street","id":"v:14:10020","name":"place Constantin Brancusi","arr":14,"lat":48.83713,"lng":2.32099,"themes":["places"],"shape":[[2.32128,48.8372],[2.32137,48.83711],[2.32141,48.83711],[2.3208,48.83683],[2.32076,48.83684],[2.32063,48.83703],[2.32069,48.83706],[2.32072,48.83707],[2.32076,48.83709],[2.32081,48.83711],[2.32084,48.83713],[2.32093,48.83717],[2.32093,48.83716],[2.32097,48.83718],[2.32096,48.83718],[2.32101,48.8372],[2.32105,48.83722],[2.32109,48.83724],[2.3212,48.83729],[2.32127,48.83722],[2.32128,48.8372]],"quartier":"Plaisance","lengthM":52,"story":"Constantin Brancusi (Pestisani, 1876-Paris, 1957), sculpteur français d'origine roumaine.","image":{"provider":"panoramax","id":"914bd642-a1f5-43a7-8e22-ff12a77714f3","lat":48.83705,"lng":2.32091,"sequenceId":"8d855e2b-4743-4b52-870c-111bb37e9721"}},{"kind":"street","id":"v:14:9652","name":"place de Catalogne","arr":14,"lat":48.83715,"lng":2.31835,"themes":["places"],"shape":[[2.31927,48.83765],[2.31962,48.83727],[2.31949,48.8372],[2.31939,48.83723],[2.31928,48.83725],[2.31899,48.83718],[2.31897,48.8371],[2.31892,48.837],[2.31884,48.83691],[2.31877,48.83686],[2.31866,48.83681],[2.31848,48.83676],[2.31834,48.83675],[2.31826,48.83675],[2.31814,48.83676],[2.318,48.8368],[2.31795,48.83682],[2.31793,48.83683],[2.3179,48.83685],[2.31785,48.83687],[2.31782,48.8369],[2.31775,48.83696],[2.3177,48.83704],[2.31767,48.8371],[2.31766,48.83718],[2.31767,48.83727],[2.3177,48.83735],[2.31773,48.83739],[2.31777,48.83743],[2.31781,48.83746],[2.31784,48.83749],[2.31795,48.83755],[2.31817,48.83762],[2.31846,48.83765],[2.31872,48.83764],[2.31927,48.83765]],"quartier":"Plaisance","story":"Catalogne, région historique du nord-est de l'Espagne formée des provinces de Barcelone, Gérone, Lérida et Tarragone.","image":{"provider":"panoramax","id":"16ddb40a-f0db-4c7a-9595-c61815a2d04e","lat":48.83683,"lng":2.31792,"sequenceId":"430cf820-7f86-4e62-9039-14fece9eaafe"}},{"kind":"street","id":"v:14:8766","name":"place de l'Abbé Jean Lebeuf","arr":14,"lat":48.83609,"lng":2.31878,"themes":["places"],"shape":[[2.31888,48.83604],[2.31861,48.83598],[2.3186,48.836],[2.31859,48.83602],[2.31859,48.83605],[2.31859,48.83606],[2.31859,48.83609],[2.3186,48.83612],[2.31861,48.83614],[2.31863,48.83616],[2.31864,48.83617],[2.31865,48.83618],[2.31867,48.8362],[2.31869,48.83621],[2.31871,48.83622],[2.31873,48.83623],[2.31875,48.83624],[2.31879,48.83626],[2.3189,48.83608],[2.3189,48.83607],[2.3189,48.83607],[2.3189,48.83607],[2.3189,48.83607],[2.3189,48.83606],[2.3189,48.83606],[2.3189,48.83606],[2.3189,48.83606],[2.3189,48.83606],[2.31889,48.83605],[2.31889,48.83605],[2.31889,48.83605],[2.31889,48.83605],[2.31888,48.83605],[2.31888,48.83605],[2.31888,48.83605],[2.31888,48.83604]],"quartier":"Plaisance","story":"L'abbé Jean Lebeuf (Auxerre, 1687-Paris, 1760), érudit français ; d'abord chanoine d'Auxerre, il fut chargé en 1735 à Paris, d'établir le nouveau chant liturgique. Il est l'auteur de \"l'histoire de la Ville et de tout le diocèse de Paris\".","image":{"provider":"panoramax","id":"54060ea7-dd95-484c-9580-dfc18a1243e7","lat":48.83609,"lng":2.31899,"sequenceId":"2e87cf8a-adad-4313-b16b-cb1ce52a50ff"}},{"kind":"street","id":"v:14:8950","name":"place de l'Amphithéâtre","arr":14,"lat":48.83691,"lng":2.31727,"themes":["places"],"shape":[[2.31727,48.83712],[2.31732,48.83712],[2.31738,48.83711],[2.31744,48.83709],[2.31748,48.83707],[2.31753,48.83704],[2.31756,48.837],[2.31758,48.83698],[2.3176,48.83693],[2.3176,48.83689],[2.3176,48.83686],[2.31758,48.83682],[2.31755,48.83678],[2.31753,48.83676],[2.31747,48.83675],[2.31743,48.83672],[2.31739,48.83668],[2.31735,48.83665],[2.31729,48.83666],[2.31724,48.83669],[2.31719,48.83671],[2.31707,48.83664],[2.31695,48.83672],[2.31698,48.83682],[2.31693,48.83685],[2.31688,48.83687],[2.31687,48.83689],[2.31691,48.83693],[2.31697,48.83698],[2.31699,48.83703],[2.317,48.83704],[2.31705,48.83707],[2.3171,48.83709],[2.31715,48.83711],[2.31721,48.83712],[2.31727,48.83712]],"quartier":"Plaisance","lengthM":44,"story":"Elle avait été provisoirement dénommée AC/14.","image":{"provider":"panoramax","id":"278f780f-0ed4-4af7-b2ff-ec7e89012877","lat":48.8365,"lng":2.31736,"sequenceId":"430cf820-7f86-4e62-9039-14fece9eaafe"}},{"kind":"street","id":"v:14:11337","name":"place de l'Île de Sein","arr":14,"lat":48.83434,"lng":2.33658,"themes":["places"],"shape":[[2.33672,48.83453],[2.33673,48.83452],[2.33674,48.83452],[2.33676,48.83451],[2.33677,48.8345],[2.33677,48.8345],[2.33678,48.83449],[2.33678,48.83448],[2.33678,48.83447],[2.33678,48.83446],[2.33678,48.83445],[2.33678,48.83444],[2.33658,48.83412],[2.33658,48.83412],[2.33657,48.83411],[2.33656,48.83411],[2.33655,48.8341],[2.33654,48.8341],[2.33653,48.8341],[2.33651,48.8341],[2.3365,48.8341],[2.33649,48.8341],[2.33648,48.83411],[2.33647,48.83411],[2.33646,48.83412],[2.33646,48.83412],[2.33644,48.83415],[2.33626,48.8345],[2.33626,48.83451],[2.33627,48.83451],[2.33627,48.83451],[2.33627,48.83451],[2.33669,48.83453],[2.3367,48.83453],[2.33671,48.83453],[2.33672,48.83453]],"quartier":"Montparnasse","lengthM":47,"story":"Hommage aux 133 hommes constituant la population mâle de l'île de Sein qui quittèrent l'île en juin 1940 pour se rendre en Angleterre et furent les premiers à se rallier au général de Gaulle à la suite de son appel du 18 juin 1940.","image":{"provider":"panoramax","id":"493709ed-df7d-4435-9b15-2e3b5501d4f6","lat":48.83408,"lng":2.33652,"sequenceId":"8bf237ba-feb8-435c-8da2-f7dc29a8f3e7"}},{"kind":"street","id":"v:14:10899","name":"place de la Garenne","arr":14,"lat":48.8336,"lng":2.3201,"themes":["places","pedestrian"],"shape":[[2.3201,48.83343],[2.32009,48.83342],[2.32003,48.83345],[2.31996,48.83349],[2.31996,48.83349],[2.31995,48.83349],[2.31995,48.8335],[2.31993,48.83351],[2.31988,48.83353],[2.31978,48.83359],[2.31982,48.83362],[2.32022,48.8339],[2.32028,48.83387],[2.32028,48.83387],[2.32038,48.83383],[2.32041,48.83381],[2.32039,48.83369],[2.32029,48.83361],[2.32024,48.83355],[2.32012,48.83345],[2.3201,48.83343]],"quartier":"Plaisance","lengthM":77,"story":"Ancien lieu-dit situé à proximité.","image":{"provider":"panoramax","id":"e57c4e7e-c0fc-47ff-bde5-24587f3c6dd2","lat":48.83361,"lng":2.31964,"sequenceId":"b9605831-ff12-42b7-84d3-9744d466206a"}},{"kind":"street","id":"v:14:12973","name":"place de la Porte de Châtillon","arr":14,"lat":48.82432,"lng":2.31889,"themes":["places"],"shape":[[2.31945,48.82422],[2.31938,48.82412],[2.3191,48.82415],[2.31906,48.82415],[2.31899,48.82415],[2.31895,48.82415],[2.31891,48.82415],[2.31887,48.82416],[2.31883,48.82416],[2.31877,48.82417],[2.31865,48.82422],[2.31854,48.82427],[2.31843,48.82434],[2.31834,48.8244],[2.31831,48.82444],[2.31829,48.82446],[2.31827,48.82449],[2.31826,48.82453],[2.31824,48.82456],[2.31823,48.82459],[2.31823,48.82462],[2.31823,48.82465],[2.31823,48.82466],[2.31975,48.82432],[2.3196,48.82429],[2.31958,48.82428],[2.31956,48.82427],[2.31954,48.82426],[2.31951,48.82425],[2.31949,48.82424],[2.31947,48.82423],[2.31945,48.82422]],"quartier":"Petit-Montrouge","story":"Située en partie sur l'emplacement de l'ancienne porte de Châtillon.","image":{"provider":"panoramax","id":"ff470a85-e6ea-4f2d-83dc-63b9c5db4621","lat":48.82455,"lng":2.31836,"sequenceId":"e5cc7998-d64c-4eee-9150-b73973f5aa8d"}},{"kind":"street","id":"v:14:13006","name":"place de la Porte de Vanves","arr":14,"lat":48.82717,"lng":2.3046,"themes":["places"],"shape":[[2.30522,48.82735],[2.30516,48.82723],[2.30515,48.82722],[2.30509,48.8271],[2.30509,48.82709],[2.30503,48.82697],[2.30521,48.82668],[2.3049,48.82652],[2.30429,48.82673],[2.30428,48.82674],[2.30412,48.82677],[2.30369,48.8269],[2.30404,48.82708],[2.30403,48.82708],[2.3041,48.82712],[2.30417,48.82716],[2.30418,48.82715],[2.30431,48.82722],[2.30435,48.82724],[2.30435,48.82724],[2.30436,48.82724],[2.30439,48.82726],[2.30447,48.8273],[2.30446,48.8273],[2.30446,48.8273],[2.30454,48.82734],[2.30464,48.82739],[2.30465,48.8274],[2.30468,48.82741],[2.30478,48.82761],[2.30476,48.82764],[2.30548,48.82748],[2.30522,48.82735]],"quartier":"Plaisance","story":"Située en partie sur l'emplacement de l'ancienne porte de Vanves.","image":{"provider":"panoramax","id":"ceca7607-fe93-425a-ac43-11379d5fd566","lat":48.82716,"lng":2.30425,"sequenceId":"5f0110cc-3cfc-47e5-bf96-9fc66b699bf9"}},{"kind":"street","id":"v:14:12379","name":"place de Moro-Giafferi","arr":14,"lat":48.83421,"lng":2.32191,"themes":["places"],"shape":[[2.32186,48.83405],[2.32156,48.83398],[2.32165,48.83408],[2.32165,48.83415],[2.32166,48.83417],[2.32166,48.83421],[2.32166,48.83423],[2.32166,48.83433],[2.32188,48.83432],[2.32189,48.83432],[2.32189,48.83432],[2.3219,48.83432],[2.32191,48.83431],[2.32191,48.83431],[2.32192,48.83431],[2.32204,48.83425],[2.32204,48.83425],[2.32204,48.83425],[2.32205,48.83425],[2.32205,48.83425],[2.32205,48.83424],[2.32205,48.83424],[2.32205,48.83424],[2.32205,48.83424],[2.32205,48.83424],[2.32205,48.83423],[2.32205,48.83423],[2.32205,48.83423],[2.32205,48.83423],[2.32205,48.83422],[2.32205,48.83422],[2.32187,48.83406],[2.32187,48.83406],[2.32186,48.83406],[2.32186,48.83405],[2.32186,48.83405]],"quartier":"Plaisance","story":"Xavier Etienne dit Vincent de Moro-Giafferi (1878-1956), avocat et homme politique.","image":{"provider":"panoramax","id":"ebbdb274-0032-44f8-bd7c-98469f8c2aa4","lat":48.83419,"lng":2.32191,"sequenceId":"5ec4ed7a-f881-430f-8b7c-7ccd7575d420"}},{"kind":"street","id":"v:14:13429","name":"place de Séoul","arr":14,"lat":48.83634,"lng":2.31803,"themes":["places"],"shape":[[2.31851,48.83639],[2.31851,48.8363],[2.31847,48.8362],[2.31843,48.83614],[2.31836,48.83608],[2.3183,48.83604],[2.3182,48.83601],[2.31814,48.836],[2.31802,48.83601],[2.31791,48.83606],[2.31784,48.83611],[2.31782,48.83615],[2.31779,48.83623],[2.31778,48.8363],[2.31773,48.8363],[2.31769,48.83632],[2.31765,48.8363],[2.31763,48.83631],[2.31761,48.83632],[2.31763,48.83642],[2.31765,48.83643],[2.31766,48.83644],[2.31772,48.83641],[2.31774,48.8364],[2.31782,48.83644],[2.31785,48.83649],[2.31793,48.83657],[2.31799,48.83661],[2.31806,48.83663],[2.31812,48.83664],[2.31822,48.83664],[2.31831,48.83662],[2.31839,48.83658],[2.31844,48.83654],[2.31848,48.83648],[2.31851,48.83639]],"quartier":"Plaisance","story":"Séoul, capitale de la Corée du Sud.","image":{"provider":"panoramax","id":"ef8c55b6-f206-4396-82f0-e9fad12175de","lat":48.83652,"lng":2.31747,"sequenceId":"430cf820-7f86-4e62-9039-14fece9eaafe"}},{"kind":"street","id":"v:14:10219","name":"place Denfert-Rochereau","arr":14,"lat":48.834,"lng":2.33168,"themes":["places"],"shape":[[2.33304,48.83461],[2.33353,48.83427],[2.33352,48.83423],[2.33347,48.83352],[2.3334,48.83344],[2.33312,48.83311],[2.33308,48.83307],[2.33251,48.83332],[2.33224,48.83342],[2.33212,48.83347],[2.33204,48.8335],[2.33147,48.83371],[2.33129,48.83378],[2.33116,48.83382],[2.33103,48.83387],[2.33103,48.83387],[2.33103,48.83388],[2.33104,48.83389],[2.33097,48.83391],[2.33096,48.8339],[2.33095,48.8339],[2.33095,48.8339],[2.33086,48.83394],[2.33079,48.83396],[2.3307,48.834],[2.33065,48.83402],[2.33063,48.83402],[2.3305,48.83407],[2.33062,48.8342],[2.33094,48.83446],[2.3311,48.83465],[2.33121,48.83488],[2.33129,48.83498],[2.33183,48.83506],[2.33255,48.83481],[2.33304,48.83461]],"quartier":"Montparnasse","lengthM":220,"story":"Pierre Marie Philippe Aristide Denfert-Rochereau (1823-1878), colonel du génie, défenseur de Belfort.","image":{"provider":"panoramax","id":"a8bd9f8b-29aa-4081-9dda-d8278783288b","lat":48.83396,"lng":2.331,"sequenceId":"c83b8250-8ae7-4a5b-b384-b8ed1a3fa13e"}},{"kind":"street","id":"v:14:9881","name":"place des Cinq Martyrs du Lycée Buffon","arr":14,"lat":48.83843,"lng":2.3172,"themes":["places"],"shape":[[2.31692,48.83896],[2.3172,48.83871],[2.31728,48.83871],[2.31732,48.8387],[2.31739,48.83869],[2.31746,48.83866],[2.31752,48.83863],[2.31754,48.83861],[2.31759,48.83857],[2.31762,48.83852],[2.31764,48.83847],[2.31765,48.83845],[2.31765,48.8384],[2.31764,48.83835],[2.31761,48.8383],[2.31776,48.83811],[2.31795,48.83791],[2.3176,48.83777],[2.31725,48.83813],[2.31717,48.83813],[2.31713,48.83813],[2.31706,48.83815],[2.31699,48.83817],[2.31693,48.8382],[2.31687,48.83823],[2.31685,48.83825],[2.31681,48.83829],[2.31678,48.83834],[2.31677,48.83839],[2.31677,48.83842],[2.31677,48.83847],[2.31679,48.83852],[2.31682,48.83856],[2.31663,48.83876],[2.31651,48.83888],[2.31692,48.83896]],"quartier":"Necker","lengthM":150,"story":"Nom donné en mémoire de cinq jeunes élèves du lycée Buffon, résistants, fusillés par les allemands le 8 février 1943.","image":{"provider":"panoramax","id":"122a5edc-61d8-47d7-8620-5114d5635b4e","lat":48.83821,"lng":2.31732,"sequenceId":"6cc34a60-4282-44f4-9504-f8fd038fb8ca"}},{"kind":"street","id":"v:14:14956","name":"place des Droits de l'Enfant","arr":14,"lat":48.82756,"lng":2.33212,"themes":["places","pedestrian"],"shape":[[2.33201,48.82773],[2.3324,48.82772],[2.33225,48.82737],[2.33223,48.82739],[2.33205,48.82742],[2.33197,48.82744],[2.33203,48.82768],[2.33201,48.82773]],"quartier":"Petit-Montrouge","story":"En commémoration de l'adoption de la Convention internationale des droits de l'enfant par l'Assemblée générale des Nations Unies le 20 novembre 1989.","image":{"provider":"panoramax","id":"85df620d-53c1-4183-9ff3-a8b8173f810c","lat":48.82753,"lng":2.33207,"sequenceId":"8bf237ba-feb8-435c-8da2-f7dc29a8f3e7"}},{"kind":"street","id":"v:14:14092","name":"place du 25 Août 1944","arr":14,"lat":48.8225,"lng":2.32532,"themes":["places"],"shape":[[2.32582,48.82208],[2.32519,48.82207],[2.32472,48.82233],[2.32484,48.82237],[2.32487,48.82249],[2.32487,48.82249],[2.32497,48.82288],[2.32482,48.82303],[2.32552,48.82314],[2.32611,48.82275],[2.32587,48.82266],[2.32575,48.82215],[2.32582,48.82208]],"quartier":"Petit-Montrouge","lengthM":78,"story":"Jour de l'entrée des troupes françaises dans Paris.","image":{"provider":"panoramax","id":"3295cf56-1f44-439a-bfd8-80374af530ea","lat":48.82287,"lng":2.325,"sequenceId":"8bf237ba-feb8-435c-8da2-f7dc29a8f3e7"}},{"kind":"street","id":"v:14:11862","name":"place du Lieutenant Stéphane Piobetta","arr":14,"lat":48.83118,"lng":2.31744,"themes":["places"],"shape":[[2.3169,48.83134],[2.31713,48.83149],[2.31716,48.8315],[2.31755,48.8312],[2.31755,48.8312],[2.31755,48.83119],[2.31756,48.83119],[2.31756,48.83118],[2.31756,48.83118],[2.31756,48.83117],[2.31756,48.83117],[2.31756,48.83116],[2.31756,48.83116],[2.31755,48.83116],[2.31755,48.83115],[2.31755,48.83115],[2.31754,48.83114],[2.31754,48.83114],[2.31754,48.83114],[2.31753,48.83113],[2.31752,48.83113],[2.31752,48.83113],[2.31751,48.83112],[2.31751,48.83112],[2.3175,48.83112],[2.31749,48.83112],[2.31748,48.83112],[2.31748,48.83112],[2.31747,48.83112],[2.31746,48.83112],[2.31746,48.83112],[2.31678,48.83127],[2.3169,48.83134]],"quartier":"Plaisance","story":"Stéphane Piobetta (1913-1944), professeur de philosophie ; résistant, mort en héros en attaquant les positions allemandes sur le Garigliano.","image":{"provider":"panoramax","id":"8abf27f0-3b5a-4e72-ba95-88c26610e329","lat":48.83114,"lng":2.31756,"sequenceId":"e5cc7998-d64c-4eee-9150-b73973f5aa8d"}},{"kind":"street","id":"v:14:15314","name":"place Edith Thomas","arr":14,"lat":48.82174,"lng":2.32484,"themes":["places"],"shape":[[2.32516,48.82143],[2.32507,48.82144],[2.32503,48.82144],[2.32462,48.82152],[2.32459,48.82154],[2.32453,48.82158],[2.32449,48.8216],[2.32444,48.82164],[2.32441,48.82167],[2.32437,48.82171],[2.32435,48.82174],[2.32431,48.82179],[2.32428,48.82183],[2.32427,48.82185],[2.32425,48.8219],[2.32425,48.82192],[2.32424,48.82198],[2.32424,48.82201],[2.32424,48.82209],[2.32425,48.82213],[2.32425,48.82215],[2.32426,48.82217],[2.32427,48.8222],[2.32428,48.82222],[2.32519,48.82207],[2.326,48.82171],[2.32597,48.82167],[2.3259,48.82161],[2.32586,48.82159],[2.32581,48.82155],[2.32578,48.82154],[2.32566,48.82149],[2.32559,48.82147],[2.32542,48.82144],[2.32533,48.82143],[2.32516,48.82143]],"quartier":"Petit-Montrouge","story":"Edith Thomas, née Edith Emilie Thomas (Montrouge, 1909 - Paris, 1970), résistante, journaliste, romancière et historienne.","image":{"provider":"panoramax","id":"efbf2038-1b56-4e2c-bf8c-371e77f86871","lat":48.82211,"lng":2.3242,"sequenceId":"5f0110cc-3cfc-47e5-bf96-9fc66b699bf9"}},{"kind":"street","id":"v:14:14925","name":"place Eugène Claudius-Petit","arr":14,"lat":48.82627,"lng":2.33868,"themes":["places"],"shape":[[2.33873,48.82614],[2.33873,48.82603],[2.33872,48.82603],[2.33864,48.82604],[2.33862,48.82604],[2.3386,48.82605],[2.3386,48.82605],[2.33856,48.82605],[2.33848,48.82607],[2.33873,48.8268],[2.33873,48.82679],[2.33873,48.82667],[2.33873,48.82664],[2.33873,48.82663],[2.33873,48.82628],[2.33873,48.82619],[2.33873,48.82614]],"quartier":"Parc de Montsouris","lengthM":85,"story":"Eugène Petit, dit “Claudius-Petit” (Angers, 1907-Paris, 1989), grand résistant, participa à la fondation du Conseil National de la Résistance; homme politique de 1946 à 1978; Commandeur de la Légion d'Honneur, Compagnon de la Libération, Croix de Guerre 39/45 ( 2 citations), Méda…","image":{"provider":"panoramax","id":"a7b03c71-d938-4199-bd65-1431d78ec095","lat":48.8261,"lng":2.33839,"sequenceId":"37009ea3-a511-4322-8898-e39aed958ec3"}},{"kind":"street","id":"v:14:10677","name":"place Ferdinand Brunot","arr":14,"lat":48.83289,"lng":2.32673,"themes":["places"],"shape":[[2.32648,48.83307],[2.32659,48.83304],[2.3266,48.83305],[2.32682,48.83299],[2.32681,48.83298],[2.3268,48.83296],[2.32679,48.83295],[2.32681,48.83295],[2.32684,48.83294],[2.32685,48.83294],[2.32686,48.83295],[2.32687,48.83297],[2.32688,48.83298],[2.3271,48.83292],[2.32709,48.83291],[2.3272,48.83288],[2.32718,48.83263],[2.32718,48.83264],[2.32718,48.83265],[2.32718,48.83265],[2.32717,48.83265],[2.32717,48.83266],[2.32716,48.83266],[2.32629,48.83289],[2.32628,48.83289],[2.32627,48.83289],[2.32627,48.83289],[2.32626,48.83289],[2.32625,48.83288],[2.32624,48.83288],[2.32623,48.83288],[2.32623,48.83287],[2.32636,48.8331],[2.32648,48.83307]],"quartier":"Petit-Montrouge","story":"Ferdinand Brunot (1860-1938), écrivain, membre de l'Institut, maire du XIVe arrondissement de 1910 à 1919."},{"kind":"street","id":"v:14:14752","name":"place Fernand Mourlot","arr":14,"lat":48.84157,"lng":2.32379,"themes":["places"],"shape":[[2.32476,48.84124],[2.32475,48.84123],[2.32474,48.84122],[2.32473,48.84121],[2.32472,48.8412],[2.32471,48.8412],[2.32469,48.8412],[2.32467,48.84119],[2.32466,48.8412],[2.32464,48.8412],[2.32337,48.84165],[2.32282,48.84185],[2.32281,48.84186],[2.3228,48.84186],[2.3228,48.84187],[2.32279,48.84188],[2.32279,48.84189],[2.32279,48.8419],[2.3228,48.84191],[2.3228,48.84192],[2.32281,48.84193],[2.32282,48.84194],[2.32284,48.84194],[2.32285,48.84195],[2.32287,48.84195],[2.32288,48.84195],[2.3229,48.84195],[2.32301,48.84191],[2.32472,48.8413],[2.32473,48.84129],[2.32474,48.84128],[2.32475,48.84128],[2.32476,48.84127],[2.32476,48.84126],[2.32476,48.84125],[2.32476,48.84124]],"quartier":"Montparnasse","lengthM":160,"story":"Fernand Mourlot (1895-1988) lithographe d'édition d'art. Cet artisan a rendu à la lithographie son prestige en conjuguant technique traditionnelle et images modernes.","image":{"provider":"panoramax","id":"10c4ba06-c2e5-429e-b1d7-0a3b01158b2b","lat":48.84197,"lng":2.32273,"sequenceId":"2384b779-ecff-447b-855c-3232c2bba4c7"}},{"kind":"street","id":"v:14:14908","name":"place Flora Tristan","arr":14,"lat":48.83234,"lng":2.32061,"themes":["places"],"shape":[[2.3207,48.83239],[2.32091,48.83235],[2.32088,48.8323],[2.3208,48.83219],[2.32064,48.83225],[2.32063,48.83226],[2.32062,48.83226],[2.3206,48.83226],[2.32059,48.83227],[2.32057,48.83227],[2.32056,48.83227],[2.32054,48.83227],[2.32053,48.83227],[2.32052,48.83226],[2.32051,48.83226],[2.32049,48.83226],[2.32048,48.83225],[2.32047,48.83225],[2.32049,48.83228],[2.32049,48.83228],[2.3205,48.8323],[2.32056,48.8324],[2.32057,48.8324],[2.32061,48.83247],[2.32061,48.83246],[2.32062,48.83246],[2.32062,48.83245],[2.32063,48.83244],[2.32063,48.83243],[2.32064,48.83242],[2.32065,48.83242],[2.32065,48.83241],[2.32066,48.83241],[2.32068,48.8324],[2.32069,48.8324],[2.3207,48.83239]],"quartier":"Plaisance","story":"Flore Tristan y Moscoso, dite Flora Tristan (Paris, 1803-Bordeaux, 1844), écrivain, militante socialiste et féministe.","image":{"provider":"panoramax","id":"a3406145-100e-48b3-8721-5f2543f2e43f","lat":48.83228,"lng":2.32046,"sequenceId":"e5cc7998-d64c-4eee-9150-b73973f5aa8d"}},{"kind":"street","id":"v:14:11051","name":"place Gilbert Perroy","arr":14,"lat":48.83225,"lng":2.32542,"themes":["places"],"shape":[[2.32513,48.83248],[2.32512,48.83249],[2.32513,48.8325],[2.32513,48.83251],[2.32514,48.83251],[2.32514,48.83252],[2.32515,48.83253],[2.32517,48.83253],[2.32518,48.83253],[2.32522,48.83254],[2.32526,48.83254],[2.32531,48.83253],[2.32575,48.83242],[2.32576,48.83241],[2.32577,48.83241],[2.32578,48.8324],[2.32578,48.83239],[2.32579,48.83239],[2.32579,48.83238],[2.32579,48.83237],[2.32578,48.83236],[2.3255,48.83189],[2.3255,48.83188],[2.32549,48.83188],[2.32549,48.83187],[2.32548,48.83187],[2.32547,48.83187],[2.32546,48.83187],[2.32545,48.83187],[2.32544,48.83187],[2.32539,48.83188],[2.32538,48.83189],[2.32537,48.8319],[2.32536,48.8319],[2.32525,48.83217],[2.32513,48.83248]],"quartier":"Petit-Montrouge","story":"Gilbert Perroy, (Paris, 1908-Paris, 1984), maire du XIVe arrondissement de 1946 à 1977, fondateur de la Société Historique et Archéologique du XIVe arrondissement.","image":{"provider":"panoramax","id":"38377401-e5b9-4a91-9e64-f4b738813443","lat":48.83239,"lng":2.3258,"sequenceId":"0158f243-b74b-4ac9-9407-696c78d29b71"}},{"kind":"street","id":"v:14:14907","name":"place Gilbert Privat","arr":14,"lat":48.83521,"lng":2.32962,"themes":["places"],"shape":[[2.32941,48.83533],[2.32989,48.83516],[2.32989,48.83516],[2.3299,48.83515],[2.3299,48.83515],[2.3299,48.83515],[2.3299,48.83514],[2.3299,48.83514],[2.3299,48.83513],[2.32984,48.83506],[2.32984,48.83506],[2.32983,48.83506],[2.32983,48.83505],[2.32982,48.83505],[2.32981,48.83505],[2.32981,48.83505],[2.3298,48.83505],[2.32979,48.83505],[2.32979,48.83505],[2.32937,48.8353],[2.32937,48.8353],[2.32937,48.8353],[2.32937,48.83531],[2.32936,48.83531],[2.32936,48.83532],[2.32936,48.83532],[2.32937,48.83532],[2.32937,48.83533],[2.32937,48.83533],[2.32938,48.83533],[2.32939,48.83533],[2.32939,48.83533],[2.3294,48.83533],[2.3294,48.83533],[2.32941,48.83533],[2.32941,48.83533]],"quartier":"Montparnasse","lengthM":45,"story":"Gilbert Privat (Toulouse, 1892-Soulac-sur-Mer, 1969), peintre et sculpteur. (Grand prix de Rome de sculpture en 1921). Sculpteur de nombreux monuments aux morts et de bas-reliefs. Médaillé militaire de la guerre 14-18.","image":{"provider":"panoramax","id":"8653f0af-9663-498f-9312-3ddb5f6bdd9c","lat":48.83499,"lng":2.32992,"sequenceId":"c83b8250-8ae7-4a5b-b384-b8ed1a3fa13e"}},{"kind":"street","id":"v:14:14859","name":"place Jacques Debu-Bridel","arr":14,"lat":48.8246,"lng":2.34005,"themes":["places"],"shape":[[2.34021,48.82466],[2.34022,48.82465],[2.34023,48.82465],[2.34023,48.82456],[2.34019,48.82456],[2.34008,48.82447],[2.34002,48.82443],[2.33986,48.82441],[2.33962,48.82452],[2.33982,48.82474],[2.33985,48.82475],[2.34017,48.82471],[2.34021,48.82466]],"quartier":"Parc de Montsouris","lengthM":30,"story":"Jacques Debu-Bridel (Mézières en Drouais, 1902-Paris, 1993) journaliste et homme politique.","image":{"provider":"panoramax","id":"0eebb590-0ccb-48ed-a79a-220221c997f6","lat":48.82444,"lng":2.34002,"sequenceId":"e95c4720-f070-45a0-a5a9-ea82b93f6d0c"}},