{"arr":20,"streets":[{"kind":"street","id":"v:20:14842","name":"allée Alquier-Debrousse","arr":20,"lat":48.86122,"lng":2.40721,"themes":[],"shape":[[2.40897,48.86139],[2.40899,48.86132],[2.40666,48.86115],[2.40667,48.86113],[2.40664,48.86112],[2.40654,48.86104],[2.40648,48.86114],[2.40636,48.86129],[2.40648,48.8613],[2.40656,48.8612],[2.40897,48.86139]],"quartier":"Charonne","lengthM":90,"story":"En hommage à la Baronne Alquier-Debrousse et à Jean Debrousse qui ont légué à la ville le terrain sur lequel fut édifié l'hospice portant leur nom.","image":{"provider":"panoramax","id":"1ac7d4de-97c6-44e6-839d-14c859e3928f","lat":48.86102,"lng":2.40652,"sequenceId":"930cd874-3067-42d5-a3c5-d50bd24634dd"}},{"kind":"street","id":"v:20:15366","name":"allée Chantal Akerman","arr":20,"lat":48.8684,"lng":2.38993,"themes":[],"shape":[[2.38991,48.86867],[2.38998,48.86856],[2.38997,48.86856],[2.39004,48.86843],[2.39011,48.86831],[2.39012,48.86827],[2.39013,48.86826],[2.39015,48.86824],[2.3902,48.8682],[2.39024,48.86815],[2.39028,48.86812],[2.39032,48.86808],[2.39039,48.86802],[2.39029,48.86798],[2.3902,48.86806],[2.39019,48.86808],[2.39013,48.86813],[2.39006,48.86819],[2.38993,48.86832],[2.38986,48.86838],[2.3898,48.86844],[2.38971,48.86854],[2.38968,48.86857],[2.38966,48.86859],[2.38966,48.86859],[2.38966,48.86859],[2.38966,48.8686],[2.38966,48.8686],[2.38966,48.8686],[2.38966,48.8686],[2.38966,48.8686],[2.38966,48.8686],[2.38966,48.8686],[2.38966,48.86861],[2.38979,48.86864],[2.38991,48.86867]],"quartier":"Père-Lachaise","story":"Chantal Akerman (Etterbeek (Belgique), 1950 - Paris, 2015), cinéaste belge.","image":{"provider":"panoramax","id":"4a0136b6-257c-4e04-ae5f-226501bd3b44","lat":48.86831,"lng":2.38992,"sequenceId":"04617823-5811-4837-b047-1bcb2f2b58d8"}},{"kind":"street","id":"v:20:10244","name":"allée des Mauves","arr":20,"lat":48.85677,"lng":2.40851,"themes":[],"shape":[[2.40833,48.85716],[2.40826,48.85705],[2.40823,48.85701],[2.40822,48.85696],[2.40822,48.85691],[2.40824,48.85689],[2.40827,48.85687],[2.40872,48.85669],[2.40891,48.85656],[2.40888,48.85655],[2.40876,48.85656],[2.40876,48.85655],[2.40875,48.85655],[2.40875,48.85655],[2.40875,48.85655],[2.40874,48.85655],[2.40874,48.85656],[2.40864,48.85661],[2.40863,48.85661],[2.40863,48.85661],[2.40864,48.85662],[2.40864,48.85662],[2.40865,48.85663],[2.40866,48.85664],[2.40866,48.85664],[2.40865,48.85664],[2.40865,48.85665],[2.40865,48.85665],[2.40819,48.85687],[2.40817,48.85691],[2.40816,48.85695],[2.40817,48.85699],[2.40819,48.85704],[2.40823,48.85709],[2.40831,48.85714],[2.40833,48.85716]],"quartier":"Charonne","lengthM":87,"image":{"provider":"panoramax","id":"97cefd6c-4f78-4a17-8444-e7b0b222fdec","lat":48.85692,"lng":2.40882,"sequenceId":"930cd874-3067-42d5-a3c5-d50bd24634dd"}},{"kind":"street","id":"v:20:12742","name":"allée du Père Julien Dhuit","arr":20,"lat":48.87253,"lng":2.38633,"themes":[],"shape":[[2.38624,48.87279],[2.38629,48.87273],[2.3866,48.87239],[2.38662,48.87238],[2.38663,48.87237],[2.38668,48.87235],[2.38669,48.87233],[2.38671,48.87232],[2.3868,48.87217],[2.38687,48.87205],[2.38673,48.87198],[2.38667,48.87209],[2.38665,48.87213],[2.38663,48.87219],[2.38664,48.8722],[2.38663,48.87226],[2.38663,48.87228],[2.38661,48.8723],[2.38623,48.8727],[2.38621,48.87272],[2.38618,48.87273],[2.38615,48.87275],[2.3861,48.87276],[2.38607,48.87276],[2.38605,48.87276],[2.38592,48.87273],[2.3857,48.87266],[2.38553,48.87263],[2.38559,48.8727],[2.38567,48.87272],[2.38608,48.87282],[2.38609,48.87282],[2.38604,48.87293],[2.38628,48.8729],[2.38627,48.8729],[2.38624,48.87279]],"quartier":"Belleville","lengthM":140,"story":"Prolongement de la rue du Père Julien Dhuit jusqu'à la rue des Envierges."},{"kind":"street","id":"v:20:11022","name":"allée Georges Rouault","arr":20,"lat":48.86969,"lng":2.38376,"themes":[],"shape":[[2.38453,48.8697],[2.3841,48.86959],[2.38291,48.86928],[2.38278,48.86924],[2.38268,48.86941],[2.38259,48.86956],[2.38289,48.86964],[2.38292,48.8696],[2.38297,48.8696],[2.38312,48.86964],[2.38309,48.86969],[2.38322,48.86972],[2.38329,48.86974],[2.38366,48.86984],[2.38375,48.8697],[2.3839,48.86974],[2.38408,48.86979],[2.38415,48.86981],[2.38453,48.86991],[2.38466,48.86994],[2.38468,48.86993],[2.3848,48.86987],[2.38478,48.86987],[2.38457,48.86981],[2.38462,48.86973],[2.38453,48.8697]],"quartier":"Belleville","lengthM":175,"story":"Georges Rouault (1871-1958), peintre, dessinateur et graveur français, représentant de l'expressionnisme fauve.","image":{"provider":"panoramax","id":"6786e0df-ae0a-42b8-a100-a53a2a505e4d","lat":48.87008,"lng":2.38362,"sequenceId":"3f83c3f9-b1e8-47e7-abc3-dc6423bf967b"}},{"kind":"street","id":"v:20:12097","name":"allée Marie Laurent","arr":20,"lat":48.8498,"lng":2.40347,"themes":[],"shape":[[2.40434,48.84996],[2.40437,48.84989],[2.40448,48.84991],[2.40449,48.84993],[2.40457,48.84983],[2.40419,48.84977],[2.40388,48.84972],[2.40365,48.84969],[2.40324,48.84965],[2.40307,48.84963],[2.40258,48.84962],[2.40254,48.84971],[2.40265,48.84971],[2.40266,48.84975],[2.40266,48.84975],[2.40266,48.84976],[2.40266,48.84978],[2.40267,48.84978],[2.40291,48.84979],[2.40292,48.84972],[2.40307,48.84973],[2.40306,48.84979],[2.40308,48.84979],[2.40308,48.8498],[2.40345,48.84984],[2.40346,48.84977],[2.40361,48.84978],[2.40359,48.84986],[2.40384,48.84988],[2.40397,48.8499],[2.404,48.84983],[2.40414,48.84986],[2.40412,48.84993],[2.40434,48.84996]],"quartier":"Charonne","lengthM":143,"story":"Marie-Thérèse Alliouze-Luguet, dite Marie Laurent (1826-1904), actrice ; quartier où ont été groupés des noms d'artistes."},{"kind":"street","id":"v:20:14955","name":"avenue Benoît Frachon","arr":20,"lat":48.85305,"lng":2.41542,"themes":[],"shape":[[2.41582,48.85222],[2.41569,48.85211],[2.41554,48.85215],[2.41552,48.85226],[2.41551,48.85232],[2.41548,48.85245],[2.41545,48.85263],[2.41543,48.85275],[2.41542,48.85277],[2.4154,48.85293],[2.41539,48.85295],[2.41535,48.85321],[2.41535,48.85322],[2.41534,48.85325],[2.41533,48.85333],[2.41532,48.85338],[2.41531,48.85339],[2.41526,48.85372],[2.41525,48.85378],[2.41524,48.85381],[2.41523,48.85384],[2.4152,48.85392],[2.41512,48.85412],[2.41547,48.85423],[2.41581,48.85229],[2.41582,48.85222]],"quartier":"Charonne","lengthM":240,"story":"Benoît Frachon (Le Chambon-Feugerolles, 1893-Les Bordes, 1975). Membre de la CGT dès l'âge de 16 ans, il s'engage dans le mouvement communiste en 1919.","image":{"provider":"panoramax","id":"04971fe4-fc4c-4934-b8d5-16469d81922b","lat":48.85331,"lng":2.41536,"sequenceId":"1161b84c-9c7b-47a3-845d-40d2c84b8c41"}},{"kind":"street","id":"v:20:9638","name":"avenue Cartellier","arr":20,"lat":48.86454,"lng":2.41248,"themes":[],"shape":[[2.41389,48.86386],[2.41394,48.8635],[2.41298,48.86406],[2.41271,48.86418],[2.41264,48.86423],[2.41258,48.86427],[2.41214,48.86453],[2.41195,48.86464],[2.41191,48.86467],[2.41167,48.86481],[2.41172,48.86515],[2.41186,48.86518],[2.41188,48.86512],[2.41192,48.86506],[2.41195,48.86501],[2.41203,48.86493],[2.41213,48.86486],[2.41223,48.86479],[2.41234,48.86473],[2.41287,48.86441],[2.41343,48.86408],[2.41389,48.86386]],"quartier":"Charonne","lengthM":220,"story":"Pierre Cartellier (1757-1831), orfèvre, ornemaniste et sculpteur français.","image":{"provider":"panoramax","id":"b266709b-6585-4779-a2c7-7d6b04e0f985","lat":48.86515,"lng":2.41179,"sequenceId":"dace0857-33f4-4c86-b442-98321f0cc50f"}},{"kind":"street","id":"v:20:12964","name":"avenue de la Porte de Bagnolet","arr":20,"lat":48.86489,"lng":2.41118,"themes":[],"shape":[[2.41172,48.86515],[2.41167,48.86481],[2.41165,48.86482],[2.41162,48.86483],[2.41161,48.86484],[2.4116,48.86484],[2.41157,48.86485],[2.41154,48.86486],[2.41151,48.86486],[2.41148,48.86487],[2.41148,48.86487],[2.41146,48.86487],[2.41143,48.86487],[2.41139,48.86487],[2.41138,48.86487],[2.41136,48.86487],[2.41134,48.86487],[2.41131,48.86487],[2.41109,48.86482],[2.41046,48.86468],[2.41002,48.86458],[2.40961,48.86448],[2.40948,48.86483],[2.41028,48.86501],[2.41049,48.86506],[2.4112,48.86522],[2.41146,48.86547],[2.41172,48.86515]],"quartier":"Charonne","lengthM":180,"story":"Située en partie sur l'emplacement de l'ancienne porte de Bagnolet.","image":{"provider":"panoramax","id":"5f34dde9-68a0-4756-9664-241198a2732a","lat":48.86491,"lng":2.41138,"sequenceId":"0d44958c-5c3c-4a67-bfbe-798bfff8a2b1"}},{"kind":"street","id":"v:20:12984","name":"avenue de la Porte de Ménilmontant","arr":20,"lat":48.87051,"lng":2.40989,"themes":[],"shape":[[2.40908,48.87084],[2.40919,48.87078],[2.41042,48.87082],[2.41076,48.87068],[2.41057,48.87047],[2.41036,48.87046],[2.41036,48.87047],[2.41031,48.87046],[2.41031,48.87046],[2.41027,48.87046],[2.41027,48.87046],[2.41022,48.87046],[2.41022,48.87046],[2.41015,48.87046],[2.41015,48.87046],[2.4101,48.87046],[2.4101,48.87045],[2.40999,48.87045],[2.40978,48.87044],[2.40956,48.87043],[2.40933,48.87043],[2.4092,48.87042],[2.40917,48.8704],[2.40914,48.87038],[2.40912,48.87037],[2.40908,48.87084]],"quartier":"Saint-Fargeau","lengthM":110,"story":"Située en partie sur l'emplacement de l'ancienne porte de Ménilmontant.","image":{"provider":"panoramax","id":"52b3cc34-efe3-4aad-a19f-ad119a29b018","lat":48.87062,"lng":2.41013,"sequenceId":"dace0857-33f4-4c86-b442-98321f0cc50f"}},{"kind":"street","id":"v:20:12988","name":"avenue de la Porte de Montreuil","arr":20,"lat":48.85391,"lng":2.4131,"themes":[],"shape":[[2.41283,48.85371],[2.41234,48.85362],[2.41195,48.85356],[2.41153,48.85348],[2.41133,48.85345],[2.41103,48.85339],[2.41095,48.85332],[2.41086,48.85381],[2.41097,48.85376],[2.4118,48.8539],[2.41222,48.85397],[2.41269,48.85406],[2.41272,48.85394],[2.41277,48.85382],[2.41283,48.85371],[2.41512,48.85412],[2.41494,48.85409],[2.41491,48.85419],[2.41487,48.85429],[2.41481,48.85439],[2.41501,48.85442],[2.41542,48.8545],[2.41547,48.85423],[2.41512,48.85412]],"quartier":"Charonne","lengthM":160,"story":"Située en partie sur l'emplacement de l'ancienne porte de Montreuil.","image":{"provider":"panoramax","id":"dea5ab83-4054-4dd2-9202-b0fb11415117","lat":48.85393,"lng":2.41272,"sequenceId":"dace0857-33f4-4c86-b442-98321f0cc50f"}},{"kind":"street","id":"v:20:10294","name":"avenue du Docteur Gley","arr":20,"lat":48.8772,"lng":2.41059,"themes":[],"shape":[[2.41158,48.87698],[2.41159,48.87698],[2.41194,48.87669],[2.41185,48.87673],[2.41177,48.87674],[2.41167,48.87677],[2.41159,48.87678],[2.41155,48.87679],[2.41136,48.87683],[2.41117,48.87688],[2.41112,48.87689],[2.41109,48.87689],[2.41086,48.87694],[2.41082,48.87695],[2.41078,48.87696],[2.41074,48.87697],[2.41063,48.87699],[2.41034,48.87706],[2.41007,48.8771],[2.40979,48.87729],[2.40967,48.87747],[2.40966,48.87748],[2.40964,48.87751],[2.40963,48.87752],[2.40952,48.87768],[2.40951,48.8777],[2.40947,48.87776],[2.40973,48.87795],[2.40978,48.87789],[2.40983,48.8778],[2.40988,48.87774],[2.40995,48.87763],[2.41018,48.87729],[2.4103,48.87726],[2.41061,48.87719],[2.41158,48.87698]],"quartier":"Saint-Fargeau","lengthM":160,"story":"Marcel Eugène Emile Gley (1857-1930), français, professeur de physiologie à la faculté de médecine et de biologie au Collège de France.","image":{"provider":"panoramax","id":"bdb7922c-2111-4cac-af71-d86106aea6ee","lat":48.87712,"lng":2.41021,"sequenceId":"caaaff2d-d90d-4c8b-ba4f-f5447f2563ff"}},{"kind":"street","id":"v:20:12745","name":"avenue du Père Lachaise","arr":20,"lat":48.86415,"lng":2.39779,"themes":[],"shape":[[2.39787,48.86445],[2.39806,48.86442],[2.3981,48.86429],[2.39799,48.86416],[2.39777,48.86391],[2.3977,48.86383],[2.39766,48.86378],[2.39746,48.86356],[2.39742,48.86351],[2.39715,48.86363],[2.39722,48.86364],[2.39737,48.86381],[2.39744,48.86389],[2.39747,48.86393],[2.39761,48.86408],[2.3977,48.86419],[2.39789,48.86441],[2.39787,48.86445],[2.39795,48.86453],[2.39799,48.86453],[2.39807,48.86461],[2.3983,48.86452],[2.39821,48.86442],[2.39822,48.86439],[2.39806,48.86442],[2.39795,48.86453]],"quartier":"Père-Lachaise","lengthM":138,"story":"Conduit au cimetière du Père Lachaise. Le Père Lachaise était le confesseur de Louis XIV.","image":{"provider":"panoramax","id":"8fccbbda-4d45-480f-85a1-0011549b9351","lat":48.86388,"lng":2.39753,"sequenceId":"a20188f1-4822-481c-86c4-79725ddddec0"}},{"kind":"street","id":"v:20:13068","name":"avenue du Professeur André Lemierre","arr":20,"lat":48.85704,"lng":2.41475,"themes":[],"shape":[[2.41475,48.85838],[2.41542,48.8545],[2.41501,48.85442],[2.41506,48.85446],[2.41508,48.85473],[2.41506,48.85488],[2.41507,48.85502],[2.41503,48.85525],[2.41494,48.85577],[2.41487,48.85616],[2.4148,48.85655],[2.41474,48.85689],[2.41469,48.8572],[2.41464,48.85749],[2.41457,48.8579],[2.41451,48.85823],[2.4145,48.85826],[2.4145,48.85826],[2.4145,48.85826],[2.41449,48.85829],[2.41449,48.85831],[2.41449,48.85834],[2.4145,48.85837],[2.4145,48.8584],[2.41467,48.85884],[2.41474,48.85847],[2.41475,48.85838]],"quartier":"Charonne","lengthM":473,"story":"André Lemierre (1875-1956), médecin des hôpitaux de Paris, membre de l'Académie de médecine.","image":{"provider":"panoramax","id":"3ca42cd4-4f37-45e2-91dc-8b42d926bcb6","lat":48.85749,"lng":2.41475,"sequenceId":"e29bfcd1-cd81-42d7-95b5-6cb2946bfd01"}},{"kind":"street","id":"v:20:10882","name":"avenue Gambetta","arr":20,"lat":48.86922,"lng":2.40093,"themes":[],"shape":[[2.3897,48.86333],[2.38908,48.86339],[2.39261,48.86428],[2.3897,48.86333],[2.40141,48.86832],[2.40305,48.87037],[2.40326,48.87025],[2.40141,48.86832],[2.40437,48.87173],[2.40546,48.87486],[2.40487,48.87258],[2.40437,48.87173],[2.40577,48.875],[2.40592,48.8759],[2.4065,48.87652],[2.40577,48.875],[2.39984,48.86655],[2.40058,48.86752],[2.40122,48.86789],[2.39984,48.86655],[2.39585,48.8651],[2.39789,48.86502],[2.39655,48.86489],[2.39585,48.8651],[2.39974,48.86655],[2.39927,48.86554],[2.39895,48.86563],[2.39974,48.86655],[2.40437,48.87173],[2.40456,48.87171],[2.4045,48.87163],[2.40437,48.87173],[2.40425,48.87182],[2.40437,48.87173],[2.40421,48.87178],[2.40425,48.87182]],"quartier":"Père-Lachaise","lengthM":2280,"story":"Léon Michel Gambetta (1838-1882), homme politique, membre du Gouvernement de la Défense nationale, député du XXe arrondissement.","image":{"provider":"panoramax","id":"c1055bf0-458d-4cf6-b407-775d63e6ad5a","lat":48.86818,"lng":2.40182,"sequenceId":"8e96ad42-cde4-4fd7-b5fa-cd3750a8b05e"}},{"kind":"street","id":"v:20:11331","name":"avenue Ibsen","arr":20,"lat":48.8663,"lng":2.41267,"themes":[],"shape":[[2.41186,48.86518],[2.41172,48.86515],[2.41146,48.86547],[2.41172,48.86577],[2.41237,48.86645],[2.41241,48.86649],[2.41245,48.86654],[2.41249,48.86659],[2.4128,48.86677],[2.41388,48.86762],[2.41397,48.8677],[2.41396,48.86735],[2.41388,48.86729],[2.41386,48.86727],[2.41384,48.86725],[2.41383,48.86723],[2.41381,48.86721],[2.4138,48.86719],[2.41341,48.86692],[2.41289,48.8665],[2.41279,48.86642],[2.41269,48.86634],[2.4126,48.86625],[2.41199,48.86562],[2.41195,48.86557],[2.41191,48.86552],[2.41188,48.86546],[2.41186,48.86541],[2.41185,48.86535],[2.41185,48.86529],[2.41185,48.86524],[2.41186,48.86518]],"quartier":"Saint-Fargeau","lengthM":280,"story":"Henrik Ibsen (1828-1906), littérateur norvégien.","image":{"provider":"panoramax","id":"d9adb6ee-c52f-4486-960d-9ac4780c7de2","lat":48.86722,"lng":2.41376,"sequenceId":"dace0857-33f4-4c86-b442-98321f0cc50f"}},{"kind":"street","id":"v:20:11798","name":"avenue Léon Gaumont","arr":20,"lat":48.85071,"lng":2.41589,"themes":[],"shape":[[2.41605,48.85091],[2.41633,48.84936],[2.41597,48.84936],[2.41603,48.8494],[2.41597,48.84977],[2.4159,48.85013],[2.41584,48.8505],[2.41579,48.85075],[2.41575,48.85099],[2.41566,48.85147],[2.41561,48.85178],[2.41557,48.852],[2.41585,48.85207],[2.416,48.8512],[2.41605,48.85091]],"quartier":"Charonne","lengthM":535,"story":"Léon Gaumont (1864-1946), inventeur et industriel français, un des principaux fondateurs de l'industrie du cinématographe français.","image":{"provider":"panoramax","id":"510260c1-e687-4d95-a9ef-dd24a1b5928c","lat":48.85071,"lng":2.41583,"sequenceId":"1161b84c-9c7b-47a3-845d-40d2c84b8c41"}},{"kind":"street","id":"v:20:13734","name":"avenue Taillade","arr":20,"lat":48.87464,"lng":2.39395,"themes":["pedestrian"],"shape":[[2.39423,48.87446],[2.39409,48.8744],[2.39398,48.8745],[2.39387,48.87461],[2.39376,48.87472],[2.39365,48.87482],[2.39361,48.87482],[2.39373,48.87493],[2.39385,48.87482],[2.39398,48.8747],[2.3941,48.87457],[2.39422,48.87446],[2.39423,48.87446]],"quartier":"Belleville","lengthM":60,"story":"Paul Félix Taillade (1827-1898), acteur."},{"kind":"street","id":"v:20:14805","name":"belvédère Willy Ronis","arr":20,"lat":48.87155,"lng":2.38532,"themes":[],"shape":[[2.38489,48.87194],[2.38601,48.87137],[2.386,48.87136],[2.38593,48.87133],[2.38586,48.87132],[2.38582,48.87135],[2.38577,48.87135],[2.38571,48.87136],[2.38567,48.87138],[2.38563,48.87142],[2.38557,48.87143],[2.38555,48.87146],[2.38552,48.87149],[2.38547,48.87151],[2.38542,48.87152],[2.38536,48.87152],[2.38535,48.87148],[2.3853,48.87148],[2.38527,48.87148],[2.38524,48.87149],[2.38521,48.87152],[2.38517,48.87153],[2.38513,48.87154],[2.38508,48.87153],[2.38504,48.87154],[2.38501,48.87155],[2.38498,48.87156],[2.38496,48.87159],[2.38494,48.87161],[2.38494,48.87164],[2.38498,48.87174],[2.38493,48.87183],[2.38493,48.87185],[2.38493,48.87188],[2.38492,48.87192],[2.38489,48.87194]],"quartier":"Belleville","story":"Willy Ronis (Paris, 1910-Paris, 2009) artiste photographe qui a contribué à développer une photographie humaniste, notamment à Paris.","image":{"provider":"panoramax","id":"3ec6c1f2-d768-411b-b71c-f2f83b68013d","lat":48.87166,"lng":2.38538,"sequenceId":"04617823-5811-4837-b047-1bcb2f2b58d8"}},{"kind":"street","id":"v:20:10182","name":"boulevard Davout","arr":20,"lat":48.85238,"lng":2.41062,"themes":[],"shape":[[2.41131,48.84907],[2.41063,48.85196],[2.41027,48.85401],[2.41007,48.85512],[2.41007,48.85553],[2.41006,48.8557],[2.40997,48.85573],[2.40962,48.85764],[2.40939,48.85899],[2.40921,48.86001],[2.40915,48.86035],[2.40883,48.86212],[2.40843,48.86405],[2.40968,48.86046],[2.41007,48.85823],[2.41065,48.85493],[2.41118,48.852],[2.41131,48.84907],[2.41108,48.84902],[2.41177,48.84899],[2.41165,48.84879],[2.41155,48.84808],[2.41154,48.8477],[2.41151,48.84758],[2.41148,48.84743],[2.41112,48.84704],[2.41092,48.84753],[2.41096,48.84785],[2.41104,48.84838],[2.41107,48.84857],[2.41111,48.84883],[2.41112,48.84889],[2.41112,48.84892],[2.41113,48.84899],[2.41109,48.84902],[2.41108,48.84902]],"quartier":"Charonne","lengthM":1870,"story":"Louis Nicolas Davout (1770-1823), duc d'Auerstædt, prince d'Eckmuhl, maréchal de France.","image":{"provider":"panoramax","id":"4eb52751-81ec-4b35-92ce-677c923c5466","lat":48.84905,"lng":2.41109,"sequenceId":"dace0857-33f4-4c86-b442-98321f0cc50f"}},{"kind":"street","id":"v:20:12380","name":"boulevard Mortier","arr":20,"lat":48.87082,"lng":2.40847,"themes":[],"shape":[[2.40885,48.87205],[2.40903,48.87128],[2.40905,48.87108],[2.40912,48.87037],[2.40925,48.86874],[2.40925,48.86809],[2.40912,48.8665],[2.4084,48.86514],[2.40851,48.86567],[2.40853,48.86595],[2.40855,48.86614],[2.40856,48.86634],[2.40858,48.86652],[2.4086,48.86674],[2.40863,48.86718],[2.40866,48.86751],[2.4087,48.86805],[2.40869,48.8689],[2.40866,48.86943],[2.40858,48.87033],[2.40848,48.87128],[2.40823,48.87305],[2.40819,48.87336],[2.40781,48.87441],[2.40753,48.875],[2.40682,48.8765],[2.40708,48.877],[2.40749,48.87627],[2.40809,48.87503],[2.40817,48.87486],[2.4082,48.8748],[2.40842,48.87432],[2.40855,48.87392],[2.40873,48.87339],[2.40888,48.87231],[2.40885,48.87205]],"quartier":"Saint-Fargeau","lengthM":1350,"story":"Edouard Adolphe Casimir Joseph Mortier (1768-1835), duc de Trévise, maréchal de France.","image":{"provider":"panoramax","id":"24390f0a-b6f2-487d-a577-120250a083d9","lat":48.86949,"lng":2.40868,"sequenceId":"6048fc94-f6eb-452a-ab1b-d126fa1c5f86"}},{"kind":"street","id":"v:20:12623","name":"chemin du Parc de Charonne","arr":20,"lat":48.86109,"lng":2.40378,"themes":[],"shape":[[2.40454,48.86138],[2.40458,48.86133],[2.40453,48.86134],[2.40426,48.86124],[2.40389,48.86109],[2.40344,48.86092],[2.40304,48.86076],[2.40291,48.86072],[2.40289,48.86067],[2.40275,48.8608],[2.40281,48.86079],[2.40363,48.86108],[2.40363,48.86108],[2.40367,48.86109],[2.40369,48.8611],[2.40372,48.86111],[2.40381,48.86115],[2.40384,48.86112],[2.40399,48.86118],[2.40415,48.86123],[2.40425,48.86127],[2.40434,48.86131],[2.40454,48.86138]],"quartier":"Père-Lachaise","lengthM":142,"story":"Voisinage de l'ancien château de Charonne.","image":{"provider":"panoramax","id":"29a5f062-290f-41e9-ac7c-17309cd0249d","lat":48.86103,"lng":2.40367,"sequenceId":"930cd874-3067-42d5-a3c5-d50bd24634dd"}},{"kind":"street","id":"v:20:8811","name":"cité Adrienne","arr":20,"lat":48.85855,"lng":2.40143,"themes":[],"shape":[[2.40133,48.85867],[2.40142,48.8586],[2.40151,48.85852],[2.40169,48.85836],[2.40162,48.85832],[2.40126,48.85862],[2.4013,48.85865],[2.40133,48.85867]],"quartier":"Charonne","lengthM":57,"story":"Adrienne, prénom de la fille du propriétaire des terrains sur lesquels cette voie a été créée.","image":{"provider":"panoramax","id":"773000a9-3cdf-4535-8f12-d1d8cdef32de","lat":48.85864,"lng":2.40139,"sequenceId":"cc081eff-b2d3-41ee-80bf-5d906295ce7c"}},{"kind":"street","id":"v:20:9011","name":"cité Antoine Loubeyre","arr":20,"lat":48.87075,"lng":2.38902,"themes":[],"shape":[[2.38938,48.87056],[2.38933,48.8705],[2.38905,48.87068],[2.38875,48.87088],[2.38863,48.87095],[2.38868,48.87101],[2.38882,48.87093],[2.38912,48.87072],[2.38938,48.87056]],"quartier":"Belleville","lengthM":72,"story":"Nom du propriétaire.","image":{"provider":"panoramax","id":"8e4e2720-4f7e-420c-837c-56727292f813","lat":48.87098,"lng":2.3886,"sequenceId":"04617823-5811-4837-b047-1bcb2f2b58d8"}},{"kind":"street","id":"v:20:9095","name":"cité Aubry","arr":20,"lat":48.85735,"lng":2.3958,"themes":[],"shape":[[2.39627,48.8575],[2.39659,48.85739],[2.39676,48.85731],[2.39668,48.85729],[2.39635,48.85743],[2.39622,48.85746],[2.39615,48.85747],[2.39609,48.85748],[2.39596,48.85749],[2.39588,48.85748],[2.39582,48.85748],[2.39578,48.85748],[2.3956,48.85746],[2.39551,48.85743],[2.39548,48.85742],[2.39547,48.8574],[2.39546,48.85738],[2.39546,48.85736],[2.39548,48.85732],[2.39557,48.85704],[2.39559,48.85696],[2.39562,48.85687],[2.39559,48.85678],[2.39552,48.85697],[2.39549,48.85707],[2.39545,48.85716],[2.39541,48.8573],[2.39539,48.8574],[2.39546,48.85748],[2.39549,48.85749],[2.39554,48.8575],[2.39564,48.85752],[2.39584,48.85753],[2.39602,48.85754],[2.39605,48.85753],[2.39627,48.8575]],"quartier":"Père-Lachaise","lengthM":180,"story":"M. Aubry, propriétaire des terrains sur lesquels la voie a été ouverte."},{"kind":"street","id":"v:20:9696","name":"cité Champagne","arr":20,"lat":48.85357,"lng":2.40454,"themes":[],"shape":[[2.40562,48.85386],[2.40555,48.85384],[2.40545,48.8538],[2.4051,48.85366],[2.40487,48.85357],[2.40473,48.85352],[2.40453,48.85344],[2.40435,48.85337],[2.40434,48.85336],[2.40429,48.85336],[2.40411,48.85332],[2.40374,48.85325],[2.40371,48.85328],[2.40356,48.85322],[2.4033,48.85336],[2.4034,48.85333],[2.40353,48.85335],[2.40361,48.85337],[2.40382,48.85341],[2.40394,48.85343],[2.40423,48.85349],[2.40424,48.85349],[2.40441,48.85355],[2.40444,48.85356],[2.4045,48.85359],[2.40457,48.85362],[2.4046,48.85363],[2.40472,48.85367],[2.40479,48.8537],[2.40486,48.85373],[2.40493,48.85376],[2.40535,48.85392],[2.40551,48.85398],[2.40557,48.85402],[2.40559,48.85397],[2.40562,48.85386]],"quartier":"Charonne","lengthM":186,"story":"M. Champagne, principal locataire."},{"kind":"street","id":"v:20:10983","name":"cité de Gênes","arr":20,"lat":48.87054,"lng":2.38322,"themes":[],"shape":[[2.38317,48.87067],[2.38361,48.87042],[2.38361,48.87042],[2.38362,48.87042],[2.38363,48.87043],[2.38364,48.87043],[2.38364,48.87043],[2.38365,48.87043],[2.38366,48.87042],[2.38367,48.87042],[2.38358,48.87036],[2.38343,48.87045],[2.38341,48.87046],[2.3833,48.87052],[2.38323,48.87056],[2.38322,48.87057],[2.38315,48.87061],[2.38305,48.8706],[2.38304,48.8706],[2.3828,48.87059],[2.38277,48.87059],[2.38275,48.87059],[2.38265,48.87055],[2.38262,48.87059],[2.38279,48.87065],[2.3828,48.87065],[2.38281,48.87065],[2.38307,48.87066],[2.38308,48.87066],[2.38317,48.87067]],"quartier":"Belleville","lengthM":69,"story":"Souvenir de la campagne d'Italie de 1800.","image":{"provider":"panoramax","id":"a03c53de-65d4-47ab-927a-e3d6637a7373","lat":48.87093,"lng":2.38348,"sequenceId":"04617823-5811-4837-b047-1bcb2f2b58d8"}},{"kind":"street","id":"v:20:10546","name":"cité de l'Ermitage","arr":20,"lat":48.86972,"lng":2.39246,"themes":[],"shape":[[2.39241,48.86986],[2.39244,48.8698],[2.39248,48.86979],[2.39249,48.86979],[2.39252,48.86976],[2.39252,48.86975],[2.39251,48.86973],[2.3925,48.86972],[2.39252,48.8697],[2.39258,48.86956],[2.3926,48.86954],[2.39264,48.86954],[2.39268,48.86949],[2.3926,48.86941],[2.39258,48.86947],[2.39257,48.86946],[2.39241,48.86951],[2.39241,48.86952],[2.3924,48.86954],[2.39244,48.86953],[2.39253,48.86956],[2.39248,48.86965],[2.39245,48.86971],[2.3924,48.86971],[2.39238,48.86975],[2.39238,48.86975],[2.39238,48.86976],[2.39241,48.86979],[2.39241,48.86979],[2.39239,48.86983],[2.39233,48.86996],[2.39229,48.87004],[2.39228,48.87013],[2.39229,48.8701],[2.39237,48.86994],[2.39241,48.86986]],"quartier":"Belleville","lengthM":70,"story":"Voisinage de la rue de l'Ermitage.","image":{"provider":"panoramax","id":"ecf4e924-8dca-4253-b4e0-871fadd3d1a7","lat":48.86961,"lng":2.39255,"sequenceId":"04617823-5811-4837-b047-1bcb2f2b58d8"}},{"kind":"street","id":"v:20:10428","name":"cité des Écoles","arr":20,"lat":48.86606,"lng":2.39523,"themes":["pedestrian"],"shape":[[2.39552,48.86589],[2.39547,48.86586],[2.39528,48.86599],[2.3952,48.86605],[2.39513,48.86609],[2.3951,48.86611],[2.39508,48.86613],[2.395,48.86618],[2.39496,48.86619],[2.39504,48.86624],[2.39504,48.86622],[2.39519,48.86612],[2.39527,48.86606],[2.39535,48.866],[2.39539,48.86597],[2.39542,48.86596],[2.39552,48.86589]],"quartier":"Père-Lachaise","lengthM":55,"story":"Voisinage d'une école.","image":{"provider":"panoramax","id":"7e39e803-e7cf-4ddb-b063-8e2777fcf8cd","lat":48.86623,"lng":2.39493,"sequenceId":"05a8a27d-c3e1-4e35-b857-3b5c84ce2b7b"}},{"kind":"street","id":"v:20:11626","name":"cité du Labyrinthe","arr":20,"lat":48.86707,"lng":2.386,"themes":[],"shape":[[2.38581,48.86697],[2.3864,48.86712],[2.38643,48.86713],[2.38643,48.86708],[2.38642,48.86707],[2.38643,48.86704],[2.38646,48.86699],[2.38649,48.86694],[2.38653,48.86688],[2.38656,48.86683],[2.38659,48.86677],[2.38666,48.86666],[2.38658,48.86664],[2.38651,48.86675],[2.38652,48.86675],[2.38643,48.86688],[2.38635,48.867],[2.38618,48.86695],[2.38584,48.86688],[2.38581,48.86687],[2.38576,48.86691],[2.38574,48.86694],[2.38569,48.86702],[2.38554,48.86724],[2.38547,48.86723],[2.38539,48.86737],[2.38535,48.86745],[2.38536,48.86746],[2.38535,48.86755],[2.38539,48.86746],[2.38542,48.86742],[2.38555,48.86731],[2.38555,48.86731],[2.38563,48.86726],[2.38565,48.86725],[2.38581,48.86697]],"quartier":"Père-Lachaise","lengthM":217,"story":"Voie formant de nombreux détours.","image":{"provider":"panoramax","id":"d5d6500c-ecb8-43c4-ad6d-6aba94f32ca5","lat":48.86684,"lng":2.38547,"sequenceId":"05a8a27d-c3e1-4e35-b857-3b5c84ce2b7b"}},{"kind":"street","id":"v:20:10353","name":"cité Dubourg","arr":20,"lat":48.86292,"lng":2.40139,"themes":[],"shape":[[2.40084,48.86249],[2.40083,48.86252],[2.40097,48.8626],[2.40086,48.86272],[2.40099,48.86273],[2.40103,48.86274],[2.40107,48.86276],[2.40112,48.86279],[2.40116,48.86281],[2.40121,48.86285],[2.40125,48.86288],[2.4013,48.86291],[2.40134,48.86293],[2.40136,48.86295],[2.40141,48.86298],[2.40147,48.86302],[2.40152,48.86305],[2.40157,48.86308],[2.40154,48.86316],[2.40173,48.86325],[2.40175,48.86322],[2.40179,48.86311],[2.40192,48.86318],[2.4019,48.86319],[2.40194,48.86324],[2.40199,48.86328],[2.40201,48.8633],[2.40192,48.86313],[2.40177,48.86305],[2.40145,48.86286],[2.40141,48.86288],[2.40142,48.86287],[2.4014,48.86282],[2.4011,48.86264],[2.40088,48.86252],[2.40084,48.86249]],"quartier":"Père-Lachaise","lengthM":123,"story":"M. Dubourg, propriétaire."},{"kind":"street","id":"v:20:11740","name":"cité Leclaire","arr":20,"lat":48.86043,"lng":2.40621,"themes":[],"shape":[[2.40623,48.86037],[2.40619,48.8604],[2.40617,48.86043],[2.40613,48.86054],[2.40609,48.86062],[2.40606,48.86069],[2.40603,48.86076],[2.40599,48.86083],[2.40605,48.86085],[2.40609,48.86077],[2.40612,48.8607],[2.40616,48.86062],[2.40618,48.86057],[2.40618,48.86056],[2.40622,48.86048],[2.40625,48.86043],[2.40625,48.86042],[2.40623,48.86037],[2.40622,48.86033],[2.40623,48.86037],[2.40629,48.86033],[2.40632,48.86028],[2.40634,48.86022],[2.40635,48.86019],[2.40638,48.86011],[2.40632,48.8601],[2.40631,48.86013],[2.40631,48.86013],[2.40629,48.86017],[2.40625,48.86026],[2.40622,48.86033]],"quartier":"Charonne","lengthM":90,"story":"M. Leclaire, propriétaire.","image":{"provider":"panoramax","id":"ec126ef6-4d83-409b-a4ac-753495343d2d","lat":48.86042,"lng":2.40621,"sequenceId":"dace0857-33f4-4c86-b442-98321f0cc50f"}},{"kind":"street","id":"v:20:11823","name":"cité Leroy","arr":20,"lat":48.87075,"lng":2.39278,"themes":[],"shape":[[2.39317,48.87081],[2.39318,48.87076],[2.39316,48.87077],[2.39312,48.87076],[2.39309,48.87075],[2.39302,48.87072],[2.39284,48.87071],[2.39279,48.87071],[2.39273,48.87071],[2.39269,48.87071],[2.39263,48.87071],[2.39244,48.8707],[2.39237,48.8707],[2.39233,48.8707],[2.39231,48.8707],[2.39232,48.87073],[2.39238,48.87074],[2.39241,48.87074],[2.3925,48.87074],[2.39253,48.87074],[2.39264,48.87074],[2.39277,48.87074],[2.39281,48.87075],[2.39288,48.87075],[2.39296,48.87075],[2.393,48.87076],[2.39302,48.87077],[2.39302,48.87079],[2.39296,48.8708],[2.39291,48.8708],[2.39292,48.87084],[2.39317,48.87081]],"quartier":"Belleville","lengthM":60,"story":"M. Leroy, propriétaire.","image":{"provider":"panoramax","id":"f2e1da5e-5d7c-4439-9fdf-9353b0c562ec","lat":48.8704,"lng":2.39241,"sequenceId":"04617823-5811-4837-b047-1bcb2f2b58d8"}},{"kind":"street","id":"v:20:12225","name":"cour de la Métairie","arr":20,"lat":48.87373,"lng":2.38557,"themes":[],"shape":[[2.38551,48.87379],[2.38558,48.87376],[2.38558,48.87375],[2.38559,48.87375],[2.3856,48.87374],[2.3857,48.87367],[2.38575,48.87362],[2.38575,48.87362],[2.38578,48.8736],[2.38578,48.87359],[2.38571,48.87357],[2.38568,48.8736],[2.38563,48.87365],[2.38554,48.87372],[2.38555,48.87372],[2.38549,48.87376],[2.38549,48.87376],[2.38549,48.87377],[2.38549,48.87377],[2.38548,48.87377],[2.38548,48.87377],[2.38542,48.8738],[2.38534,48.87384],[2.38545,48.87384],[2.38548,48.87382],[2.38552,48.87379],[2.38551,48.87379]],"quartier":"Belleville","lengthM":86,"story":"Ancienne ferme de Savies ayant appartenu au prieuré de Saint-Martin.","image":{"provider":"panoramax","id":"d369c338-9340-4e82-83cc-f0fa82258aaa","lat":48.87386,"lng":2.38564,"sequenceId":"6280a7cc-2e9c-4dc4-a539-9cf5e67be3b0"}},{"kind":"street","id":"v:20:11826","name":"cour Lesage","arr":20,"lat":48.87268,"lng":2.38142,"themes":[],"shape":[[2.38137,48.87297],[2.38149,48.87297],[2.3815,48.87297],[2.38153,48.87289],[2.38163,48.87268],[2.38168,48.87257],[2.38158,48.87261],[2.38159,48.87262],[2.38158,48.87265],[2.38147,48.87288],[2.38121,48.87282],[2.38126,48.87273],[2.3813,48.87265],[2.38138,48.87255],[2.3814,48.8725],[2.38165,48.87251],[2.38166,48.87247],[2.38166,48.87245],[2.3817,48.8724],[2.38169,48.87228],[2.38153,48.87234],[2.38144,48.8724],[2.38145,48.8724],[2.38143,48.87242],[2.38141,48.87245],[2.38133,48.87249],[2.38125,48.87264],[2.38125,48.87267],[2.38121,48.87271],[2.38113,48.87286],[2.38111,48.8729],[2.38121,48.87292],[2.38124,48.87295],[2.38116,48.87306],[2.38129,48.87307],[2.38137,48.87297]],"quartier":"Belleville","lengthM":95,"story":"Voisinage de la rue Lesage.","image":{"provider":"panoramax","id":"f8baeeee-517f-4840-b8b4-1f376ef63b40","lat":48.87226,"lng":2.38177,"sequenceId":"3f83c3f9-b1e8-47e7-abc3-dc6423bf967b"}},{"kind":"street","id":"v:20:15144","name":"esplanade Claude Luter","arr":20,"lat":48.87721,"lng":2.40921,"themes":[],"shape":[[2.40909,48.87709],[2.40878,48.87755],[2.40911,48.87766],[2.40912,48.87765],[2.40917,48.87758],[2.40917,48.87757],[2.40922,48.87751],[2.40929,48.8774],[2.4093,48.87738],[2.40931,48.87736],[2.40935,48.87731],[2.40936,48.87729],[2.40944,48.87718],[2.40945,48.87716],[2.40944,48.87716],[2.40945,48.87716],[2.40944,48.87716],[2.40945,48.87714],[2.40919,48.87707],[2.40918,48.87707],[2.40918,48.87706],[2.40917,48.87706],[2.40917,48.87706],[2.40916,48.87706],[2.40915,48.87706],[2.40915,48.87706],[2.40914,48.87706],[2.40913,48.87707],[2.40912,48.87707],[2.40912,48.87707],[2.40911,48.87707],[2.40911,48.87707],[2.4091,48.87708],[2.4091,48.87708],[2.4091,48.87708],[2.40909,48.87709]],"quartier":"Saint-Fargeau","lengthM":60,"story":"Claude Luter (Paris, 1923-Poissy, 2006) clarinettiste, saxophoniste soprano et chef d'orchestre de jazz, personnalité marquante de l'âge d'or des caves de Saint-Germain dans l'après-guerre.","image":{"provider":"panoramax","id":"b2dc3d86-d3a2-4db3-b4de-436c639d9666","lat":48.87702,"lng":2.40914,"sequenceId":"2f6fc312-3b2f-42a0-a5e3-b1496ee9f278"}},{"kind":"street","id":"v:20:9189","name":"impasse Basilide Fossard","arr":20,"lat":48.8701,"lng":2.40324,"themes":[],"shape":[[2.40325,48.87009],[2.40338,48.8699],[2.40337,48.8699],[2.40331,48.86988],[2.40331,48.86989],[2.40317,48.87005],[2.40317,48.87005],[2.40316,48.87006],[2.40316,48.87006],[2.40315,48.87006],[2.40314,48.87007],[2.40313,48.87007],[2.40312,48.87006],[2.40312,48.87006],[2.40311,48.87006],[2.4031,48.87005],[2.40325,48.87023],[2.40325,48.87022],[2.40327,48.87022],[2.40329,48.87021],[2.40329,48.8702],[2.40329,48.8702],[2.40329,48.8702],[2.40329,48.87019],[2.40329,48.87019],[2.40329,48.87018],[2.40329,48.87018],[2.4033,48.87017],[2.4033,48.87016],[2.40331,48.87016],[2.40325,48.87009]],"quartier":"Saint-Fargeau","lengthM":55,"story":"M. Basilide Fossard, propriétaire."},{"kind":"street","id":"v:20:10041","name":"impasse Cordon-Boussard","arr":20,"lat":48.86569,"lng":2.39747,"themes":[],"shape":[[2.39762,48.8658],[2.39767,48.86574],[2.39764,48.86574],[2.39749,48.86567],[2.3974,48.86562],[2.39738,48.86563],[2.39732,48.8656],[2.39731,48.86559],[2.39729,48.86561],[2.3973,48.86562],[2.39738,48.86566],[2.3974,48.86567],[2.39742,48.86567],[2.39744,48.86568],[2.39749,48.8657],[2.39755,48.86573],[2.39759,48.86576],[2.39763,48.86577],[2.39762,48.8658]],"quartier":"Père-Lachaise","lengthM":32,"story":"Cordon-Boussard, propriétaire.","image":{"provider":"panoramax","id":"20fcf72d-9ce0-4fb4-8efa-fad5ae31afcc","lat":48.86589,"lng":2.39769,"sequenceId":"751f0c08-6a1d-4dcb-8adb-afa9fa5ad09e"}},{"kind":"street","id":"v:20:9289","name":"impasse de Bergame","arr":20,"lat":48.85328,"lng":2.39953,"themes":[],"shape":[[2.39966,48.8531],[2.3997,48.85304],[2.39969,48.85303],[2.39967,48.85303],[2.39964,48.85308],[2.39962,48.85308],[2.39959,48.85313],[2.39952,48.85324],[2.3995,48.85328],[2.39949,48.85329],[2.39943,48.85338],[2.39936,48.8535],[2.39928,48.85362],[2.39934,48.85363],[2.39937,48.85357],[2.39943,48.85349],[2.39946,48.85343],[2.3995,48.85336],[2.39955,48.8533],[2.3996,48.85321],[2.3996,48.85319],[2.39966,48.8531]],"quartier":"Charonne","lengthM":80,"story":"Ville d'Italie.","image":{"provider":"panoramax","id":"22f77b54-e46a-46c6-ad98-d2124637cca7","lat":48.85356,"lng":2.39928,"sequenceId":"eeead8c2-f314-47f6-8f15-dc4783d312fd"}},{"kind":"street","id":"v:20:9647","name":"impasse de Casteggio","arr":20,"lat":48.85394,"lng":2.39887,"themes":[],"shape":[[2.39907,48.85365],[2.39905,48.85365],[2.39902,48.8537],[2.399,48.85373],[2.39897,48.85378],[2.39895,48.85381],[2.39866,48.85426],[2.39864,48.85429],[2.39861,48.85433],[2.39863,48.85433],[2.39865,48.8543],[2.39867,48.85427],[2.39873,48.85417],[2.39876,48.85413],[2.39882,48.85404],[2.3989,48.85391],[2.39893,48.85387],[2.39894,48.85385],[2.39896,48.85381],[2.39899,48.85377],[2.39902,48.85373],[2.39903,48.8537],[2.39907,48.85365]],"quartier":"Charonne","lengthM":72,"story":"Victoire de l'armée franco-sarde (1859).","image":{"provider":"panoramax","id":"d3626cca-3a51-4974-9786-6b26d336971e","lat":48.8544,"lng":2.39872,"sequenceId":"eeead8c2-f314-47f6-8f15-dc4783d312fd"}},{"kind":"street","id":"v:20:10011","name":"impasse de la Confiance","arr":20,"lat":48.85356,"lng":2.39975,"themes":[],"shape":[[2.39961,48.85377],[2.39961,48.85376],[2.39965,48.85371],[2.39967,48.85369],[2.39971,48.85363],[2.39976,48.85364],[2.39979,48.85361],[2.39975,48.8536],[2.39976,48.85359],[2.39974,48.85358],[2.39979,48.85352],[2.39982,48.85347],[2.39987,48.85339],[2.39988,48.85338],[2.39989,48.85336],[2.3999,48.85334],[2.39992,48.85331],[2.3999,48.85331],[2.39985,48.85338],[2.39979,48.85347],[2.39976,48.85351],[2.39972,48.85358],[2.39965,48.85368],[2.39963,48.85371],[2.39959,48.85376],[2.39961,48.85377]],"quartier":"Charonne","lengthM":89,"story":"Donné à la demande des propriétaires.","image":{"provider":"panoramax","id":"d9c7521c-3101-4753-b5dd-ff5a979b2df6","lat":48.85368,"lng":2.39961,"sequenceId":"eeead8c2-f314-47f6-8f15-dc4783d312fd"}},{"kind":"street","id":"v:20:12069","name":"impasse de la Mare","arr":20,"lat":48.86942,"lng":2.38895,"themes":[],"shape":[[2.38904,48.8693],[2.38901,48.86929],[2.38891,48.86944],[2.38881,48.86961],[2.38883,48.86963],[2.38888,48.86954],[2.38893,48.86946],[2.38893,48.86945],[2.38894,48.86944],[2.38903,48.86931],[2.38904,48.8693],[2.38904,48.8693]],"quartier":"Belleville","lengthM":40,"story":"Voisinage de la rue de la Mare.","image":{"provider":"panoramax","id":"ab228242-a168-4e70-96f7-af1eb5010478","lat":48.86968,"lng":2.38879,"sequenceId":"04617823-5811-4837-b047-1bcb2f2b58d8"}},{"kind":"street","id":"v:20:9853","name":"impasse des Chevaliers","arr":20,"lat":48.87228,"lng":2.39633,"themes":[],"shape":[[2.39627,48.87246],[2.39638,48.87228],[2.39647,48.87213],[2.39656,48.87197],[2.39656,48.87197],[2.39656,48.87196],[2.39653,48.87195],[2.3965,48.87195],[2.3965,48.87195],[2.39647,48.872],[2.39641,48.87209],[2.39638,48.87215],[2.39636,48.87218],[2.39634,48.87221],[2.39631,48.87228],[2.39627,48.87234],[2.39619,48.87245],[2.39619,48.87245],[2.39619,48.87245],[2.39619,48.87245],[2.39617,48.87249],[2.39617,48.87249],[2.39617,48.8725],[2.39613,48.8725],[2.39617,48.87255],[2.39624,48.87254],[2.39623,48.87253],[2.39627,48.87246]],"quartier":"Saint-Fargeau","lengthM":65,"story":"Ancienne enseigne (au Chevalier de l'Arc)."},{"kind":"street","id":"v:20:10090","name":"impasse des Crins","arr":20,"lat":48.85398,"lng":2.39898,"themes":[],"shape":[[2.39891,48.8541],[2.39898,48.85401],[2.39898,48.85401],[2.39901,48.85397],[2.39901,48.85397],[2.39904,48.85392],[2.39904,48.85392],[2.39907,48.85387],[2.39909,48.85384],[2.39914,48.85377],[2.3992,48.85369],[2.39917,48.85368],[2.39914,48.85373],[2.39912,48.85376],[2.39909,48.8538],[2.39908,48.85382],[2.39905,48.85386],[2.39903,48.8539],[2.39899,48.85395],[2.39898,48.85396],[2.39897,48.85398],[2.39895,48.85401],[2.39893,48.85404],[2.39887,48.85413],[2.39876,48.85429],[2.39873,48.85433],[2.39875,48.85433],[2.39875,48.85433],[2.39879,48.85429],[2.39891,48.8541]],"quartier":"Charonne","lengthM":77,"image":{"provider":"panoramax","id":"1ab48c6d-9f70-4f3d-b9e6-8127e6bfe100","lat":48.8538,"lng":2.39912,"sequenceId":"eeead8c2-f314-47f6-8f15-dc4783d312fd"}},{"kind":"street","id":"v:20:12575","name":"impasse des Orteaux","arr":20,"lat":48.85652,"lng":2.39908,"themes":["pedestrian"],"shape":[[2.39934,48.85614],[2.39928,48.85616],[2.39922,48.85625],[2.39915,48.8564],[2.39914,48.85641],[2.39913,48.85644],[2.3991,48.85646],[2.3991,48.85647],[2.39909,48.85647],[2.39908,48.85647],[2.39898,48.85659],[2.39899,48.8566],[2.39899,48.85661],[2.39899,48.85661],[2.3989,48.85674],[2.3989,48.85674],[2.39889,48.85674],[2.39887,48.85677],[2.39887,48.85677],[2.39884,48.85682],[2.39884,48.85683],[2.39883,48.85683],[2.39882,48.85683],[2.39903,48.85681],[2.39899,48.85678],[2.39907,48.85667],[2.39905,48.85661],[2.39917,48.85645],[2.3992,48.85641],[2.39921,48.85638],[2.39924,48.85631],[2.39925,48.85629],[2.39927,48.85625],[2.39932,48.85617],[2.39933,48.85616],[2.39934,48.85614]],"quartier":"Charonne","lengthM":95,"story":"Voisinage de la rue des Orteaux.","image":{"provider":"panoramax","id":"78d8a90a-4772-4a20-b527-8511f73b0cda","lat":48.85683,"lng":2.39884,"sequenceId":"6ee3171d-6bae-4756-86a0-841488c7282b"}},{"kind":"street","id":"v:20:12613","name":"impasse des Panoyaux","arr":20,"lat":48.86608,"lng":2.3851,"themes":[],"shape":[[2.3853,48.86585],[2.38527,48.86584],[2.38527,48.86584],[2.38526,48.86584],[2.38513,48.86601],[2.3851,48.86606],[2.38503,48.86614],[2.38495,48.86625],[2.38492,48.86629],[2.38495,48.8663],[2.38496,48.86629],[2.385,48.86624],[2.38504,48.86617],[2.38506,48.86615],[2.38509,48.86611],[2.3853,48.86585]],"quartier":"Père-Lachaise","lengthM":60,"story":"Voisinage de la rue des Panoyaux.","image":{"provider":"panoramax","id":"4b57ef09-711c-47e5-bff2-5d764df12031","lat":48.86636,"lng":2.3849,"sequenceId":"05a8a27d-c3e1-4e35-b857-3b5c84ce2b7b"}},{"kind":"street","id":"v:20:13495","name":"impasse des Souhaits","arr":20,"lat":48.85416,"lng":2.39922,"themes":[],"shape":[[2.39949,48.85382],[2.39946,48.8538],[2.39944,48.85383],[2.39941,48.85387],[2.39933,48.85396],[2.39933,48.85397],[2.39931,48.85399],[2.3993,48.854],[2.39925,48.85407],[2.39923,48.85409],[2.39921,48.85412],[2.3992,48.85413],[2.39919,48.85415],[2.39914,48.85421],[2.39914,48.85422],[2.39914,48.85423],[2.39914,48.85429],[2.39914,48.85429],[2.39909,48.85435],[2.39902,48.85443],[2.39904,48.85444],[2.39906,48.85444],[2.39906,48.85443],[2.39909,48.85439],[2.39911,48.85437],[2.39914,48.85433],[2.39915,48.85432],[2.39917,48.8543],[2.39917,48.85429],[2.39917,48.85428],[2.39917,48.85427],[2.39917,48.85423],[2.3994,48.85393],[2.39942,48.8539],[2.39949,48.85382]],"quartier":"Charonne","lengthM":67,"story":"Précédemment impasse de l'Espérance.","image":{"provider":"panoramax","id":"f7360874-8e37-4249-b321-fd72cbb18356","lat":48.85425,"lng":2.3991,"sequenceId":"eeead8c2-f314-47f6-8f15-dc4783d312fd"}},{"kind":"street","id":"v:20:14059","name":"impasse des Vignoles","arr":20,"lat":48.8556,"lng":2.40234,"themes":[],"shape":[[2.40219,48.85573],[2.40232,48.85562],[2.40242,48.85555],[2.40253,48.85546],[2.40251,48.85544],[2.40239,48.85553],[2.4023,48.85561],[2.40217,48.85571],[2.40219,48.85573]],"quartier":"Charonne","lengthM":86,"story":"Voisinage de la rue des Vignoles."},{"kind":"street","id":"v:20:14734","name":"impasse du Pilier","arr":20,"lat":48.85891,"lng":2.39039,"themes":[],"shape":[[2.39091,48.85913],[2.39094,48.85907],[2.39096,48.85902],[2.39099,48.85897],[2.39099,48.85897],[2.39099,48.85896],[2.39078,48.85892],[2.39059,48.85885],[2.3903,48.85878],[2.39008,48.85874],[2.3901,48.8587],[2.39012,48.85868],[2.3901,48.85867],[2.39008,48.85866],[2.38989,48.85873],[2.38989,48.85872],[2.38975,48.8587],[2.38973,48.85874],[2.38979,48.85893],[2.38983,48.85893],[2.38988,48.85894],[2.3899,48.85895],[2.3902,48.85884],[2.39021,48.85881],[2.39037,48.85885],[2.3903,48.85903],[2.39028,48.85916],[2.3903,48.85916],[2.3904,48.8589],[2.39041,48.8589],[2.39063,48.85891],[2.39084,48.85897],[2.39084,48.85898],[2.3908,48.85907],[2.39088,48.85913],[2.39091,48.85913]],"quartier":"Père-Lachaise","lengthM":96,"image":{"provider":"panoramax","id":"5cf4eeb2-ffff-4c16-b925-4069f8740201","lat":48.85883,"lng":2.38963,"sequenceId":"ec6c981b-f650-48ca-ba2e-afff4e373610"}},{"kind":"street","id":"v:20:10623","name":"impasse Éveillard","arr":20,"lat":48.86448,"lng":2.40327,"themes":[],"shape":[[2.40318,48.86438],[2.40318,48.86438],[2.40316,48.86439],[2.40325,48.86447],[2.40327,48.86449],[2.40328,48.8645],[2.40329,48.86451],[2.40333,48.86453],[2.40341,48.86461],[2.4034,48.86462],[2.40346,48.86462],[2.40327,48.86446],[2.40323,48.86443],[2.40323,48.86442],[2.4032,48.86441],[2.40318,48.86438]],"quartier":"Père-Lachaise","lengthM":35,"story":"M. Eveillard, propriétaire.","image":{"provider":"panoramax","id":"12263f70-ebfd-451c-91bd-68da4e6e6aab","lat":48.86466,"lng":2.40331,"sequenceId":"fe1c05ee-5570-430d-b4d8-b4194a8f5ab1"}},{"kind":"street","id":"v:20:11139","name":"impasse Gros","arr":20,"lat":48.85576,"lng":2.40388,"themes":[],"shape":[[2.40378,48.85568],[2.40373,48.85565],[2.40372,48.85566],[2.40386,48.85575],[2.40393,48.85581],[2.40394,48.85581],[2.40396,48.85583],[2.40402,48.85586],[2.40406,48.85587],[2.40401,48.85583],[2.40396,48.85579],[2.40391,48.85576],[2.40391,48.85576],[2.40389,48.85576],[2.40384,48.85573],[2.40382,48.85571],[2.40378,48.85568],[2.40378,48.85568]],"quartier":"Charonne","lengthM":32,"story":"M. Gros, propriétaire."},{"kind":"street","id":"v:20:11225","name":"impasse Haxo","arr":20,"lat":48.86804,"lng":2.40755,"themes":[],"shape":[[2.40746,48.86821],[2.40759,48.86807],[2.40782,48.86793],[2.40776,48.86789],[2.40775,48.8679],[2.40768,48.86794],[2.40768,48.86795],[2.40768,48.86795],[2.40762,48.86799],[2.40761,48.86798],[2.40755,48.86802],[2.40754,48.86803],[2.40743,48.86813],[2.40737,48.86811],[2.4073,48.86807],[2.40728,48.8681],[2.40738,48.86816],[2.40741,48.86818],[2.40746,48.86821]],"quartier":"Saint-Fargeau","lengthM":52,"story":"Voisinage de la rue Haxo."},{"kind":"street","id":"v:20:11935","name":"impasse Louis Robert","arr":20,"lat":48.87012,"lng":2.39183,"themes":[],"shape":[[2.3918,48.87008],[2.39159,48.87006],[2.39158,48.87011],[2.39168,48.87013],[2.39172,48.87013],[2.39182,48.87014],[2.39186,48.87015],[2.39206,48.87017],[2.39206,48.87015],[2.39207,48.87012],[2.39194,48.8701],[2.3918,48.87008]],"quartier":"Belleville","lengthM":35,"image":{"provider":"panoramax","id":"d3577a41-add0-40d7-a60e-1f0891719c32","lat":48.87033,"lng":2.39185,"sequenceId":"04617823-5811-4837-b047-1bcb2f2b58d8"}},{"kind":"street","id":"v:20:12555","name":"impasse Orfila","arr":20,"lat":48.86582,"lng":2.39618,"themes":["pedestrian"],"shape":[[2.39632,48.86575],[2.3963,48.86573],[2.39629,48.86574],[2.39628,48.86574],[2.39625,48.86576],[2.39623,48.86578],[2.39619,48.86581],[2.39618,48.86582],[2.39616,48.86583],[2.39609,48.86588],[2.39608,48.86589],[2.39591,48.86601],[2.39594,48.86603],[2.39632,48.86575]],"quartier":"Père-Lachaise","lengthM":42,"story":"Voisinage de la rue Orfila.","image":{"provider":"panoramax","id":"c974bac3-b245-4f42-809a-b78da491aa9b","lat":48.86608,"lng":2.396,"sequenceId":"cbe91c42-d3ea-4b74-b261-f10f58ee38b4"}},{"kind":"street","id":"v:20:12810","name":"impasse Philidor","arr":20,"lat":48.85038,"lng":2.4088,"themes":[],"shape":[[2.40882,48.85032],[2.40881,48.85032],[2.40879,48.85037],[2.40879,48.85041],[2.40877,48.85047],[2.40879,48.85048],[2.40882,48.85032]],"quartier":"Charonne","lengthM":17,"story":"François André Danican, dit Philidor (1726-1795), compositeur et célèbre joueur d'échecs français. Voisinage de la rue Philidor."},{"kind":"street","id":"v:20:12893","name":"impasse Pixérécourt","arr":20,"lat":48.87325,"lng":2.39498,"themes":[],"shape":[[2.3952,48.87289],[2.39515,48.87271],[2.39513,48.87271],[2.39517,48.87287],[2.39516,48.87289],[2.39513,48.87294],[2.39509,48.87301],[2.39506,48.87306],[2.39486,48.87336],[2.39494,48.87339],[2.39496,48.87343],[2.39492,48.87347],[2.39485,48.87352],[2.39462,48.87368],[2.39464,48.87369],[2.3947,48.87366],[2.39469,48.87366],[2.39481,48.87357],[2.39485,48.87355],[2.3949,48.87352],[2.39495,48.87347],[2.39504,48.87339],[2.39505,48.87338],[2.39491,48.87334],[2.39512,48.87302],[2.39511,48.87302],[2.39519,48.8729],[2.3952,48.87289]],"quartier":"Belleville","lengthM":130,"story":"Voisinage de la rue Pixérécourt."},{"kind":"street","id":"v:20:13031","name":"impasse Poule","arr":20,"lat":48.85326,"lng":2.39932,"themes":[],"shape":[[2.39945,48.85306],[2.39944,48.85306],[2.39943,48.85306],[2.39943,48.85306],[2.39941,48.8531],[2.39939,48.85313],[2.39936,48.85318],[2.39933,48.85323],[2.3993,48.85327],[2.39928,48.85331],[2.39922,48.85341],[2.39919,48.85346],[2.39919,48.85347],[2.39912,48.85357],[2.39916,48.85358],[2.39919,48.85351],[2.39921,48.85348],[2.39927,48.85338],[2.39928,48.85336],[2.39931,48.85332],[2.39933,48.85328],[2.39936,48.85323],[2.39938,48.85319],[2.39939,48.85317],[2.39942,48.85313],[2.39945,48.85306],[2.39945,48.85306]],"quartier":"Charonne","lengthM":60,"story":"M. Poule, propriétaire.","image":{"provider":"panoramax","id":"08a1e449-e676-4a12-8417-31b553ca13ee","lat":48.85353,"lng":2.3991,"sequenceId":"eeead8c2-f314-47f6-8f15-dc4783d312fd"}},{"kind":"street","id":"v:20:13130","name":"impasse Rançon","arr":20,"lat":48.8557,"lng":2.40277,"themes":[],"shape":[[2.40314,48.85545],[2.40311,48.85543],[2.40289,48.85559],[2.40278,48.85567],[2.40271,48.85571],[2.40253,48.85585],[2.40243,48.85592],[2.40246,48.85594],[2.40252,48.8559],[2.4026,48.85584],[2.40269,48.85578],[2.40284,48.85566],[2.403,48.85555],[2.40314,48.85545]],"quartier":"Charonne","lengthM":67,"story":"M. Rançon, propriétaire."},{"kind":"street","id":"v:20:13295","name":"impasse Rolleboise","arr":20,"lat":48.8532,"lng":2.39912,"themes":[],"shape":[[2.39934,48.85281],[2.39931,48.8528],[2.39922,48.85297],[2.3991,48.8532],[2.39909,48.85322],[2.39906,48.85328],[2.39904,48.85332],[2.39902,48.85335],[2.39893,48.85351],[2.39896,48.85352],[2.39901,48.85343],[2.39906,48.85335],[2.39907,48.85333],[2.39909,48.85328],[2.3991,48.85327],[2.39911,48.85324],[2.39917,48.85313],[2.39927,48.85295],[2.39934,48.85281]],"quartier":"Charonne","lengthM":62,"story":"Rolleboise, village de l'ancien département de Seine et Oise, pays natal de l'un des propriétaires.","image":{"provider":"panoramax","id":"57033f60-ce0f-4dce-965a-c34c7566baa7","lat":48.85353,"lng":2.39905,"sequenceId":"eeead8c2-f314-47f6-8f15-dc4783d312fd"}},{"kind":"street","id":"v:20:13655","name":"impasse Saint-Paul","arr":20,"lat":48.85589,"lng":2.40362,"themes":[],"shape":[[2.40359,48.85586],[2.40348,48.85578],[2.40345,48.85579],[2.40377,48.85604],[2.40379,48.85601],[2.40367,48.85591],[2.40359,48.85586]],"quartier":"Charonne","lengthM":30},{"kind":"street","id":"v:20:13663","name":"impasse Saint-Pierre","arr":20,"lat":48.85466,"lng":2.40007,"themes":[],"shape":[[2.40001,48.85472],[2.40009,48.85466],[2.40016,48.8546],[2.40018,48.85458],[2.40019,48.85458],[2.40024,48.85454],[2.40026,48.85452],[2.40028,48.85451],[2.40036,48.85445],[2.40034,48.85443],[2.40028,48.85448],[2.40026,48.85449],[2.40013,48.8546],[2.40008,48.85463],[2.40004,48.85466],[2.40004,48.85466],[2.39999,48.8547],[2.39989,48.85477],[2.3999,48.85478],[2.39985,48.85481],[2.39978,48.85487],[2.3998,48.85488],[2.39983,48.85486],[2.39989,48.85481],[2.39993,48.85478],[2.40001,48.85472]],"quartier":"Charonne","lengthM":63,"image":{"provider":"panoramax","id":"60a9839a-d882-4313-a3a7-08739748543e","lat":48.85426,"lng":2.40046,"sequenceId":"eeead8c2-f314-47f6-8f15-dc4783d312fd"}},{"kind":"street","id":"v:20:13387","name":"impasse Satan","arr":20,"lat":48.85587,"lng":2.40297,"themes":[],"shape":[[2.40312,48.85578],[2.40311,48.85577],[2.403,48.85584],[2.40296,48.85587],[2.40291,48.8559],[2.40286,48.85593],[2.40264,48.85608],[2.40271,48.85607],[2.40314,48.85579],[2.40312,48.85578],[2.40312,48.85578]],"quartier":"Charonne","lengthM":50},{"kind":"street","id":"v:20:13528","name":"impasse Suez","arr":20,"lat":48.85828,"lng":2.40026,"themes":["pedestrian"],"shape":[[2.40038,48.85824],[2.40029,48.85819],[2.40015,48.85829],[2.40015,48.85829],[2.40022,48.85833],[2.40023,48.85833],[2.40023,48.85833],[2.40035,48.85824],[2.40038,48.85824]],"quartier":"Père-Lachaise","lengthM":15,"story":"Donné en souvenir du percement de l'isthme de Suez.","image":{"provider":"panoramax","id":"479a5197-41a9-4dc3-8ec1-837000c36aa8","lat":48.85824,"lng":2.40037,"sequenceId":"8bb18bbd-9974-4207-8eae-d5e76acc1069"}},{"kind":"street","id":"v:20:9223","name":"passage Beaufils","arr":20,"lat":48.85239,"lng":2.40519,"themes":["passages"],"shape":[[2.40522,48.85237],[2.40517,48.85236],[2.40517,48.85237],[2.40515,48.85245],[2.40519,48.85245],[2.40521,48.85237],[2.40522,48.85237]],"quartier":"Charonne","lengthM":10,"story":"M. Beaufils, propriétaire des terrains sur lesquels la voie a été ouverte.","image":{"provider":"panoramax","id":"5573e768-3d30-4771-84a3-766d7933e282","lat":48.8525,"lng":2.40514,"sequenceId":"58cd3024-5d76-4481-b468-2c9bb4d67459"}},{"kind":"street","id":"v:20:9412","name":"passage Boudin","arr":20,"lat":48.86898,"lng":2.40689,"themes":["passages"],"shape":[[2.40702,48.86903],[2.40694,48.86899],[2.40694,48.86897],[2.40693,48.86896],[2.40691,48.86895],[2.40688,48.86895],[2.40677,48.8689],[2.40669,48.86886],[2.4066,48.86881],[2.40652,48.86877],[2.40648,48.86875],[2.40643,48.86872],[2.40636,48.86866],[2.40641,48.86874],[2.40656,48.86882],[2.4066,48.86885],[2.40665,48.86887],[2.4067,48.8689],[2.40674,48.86892],[2.4068,48.86895],[2.40683,48.86897],[2.40684,48.86899],[2.40687,48.86901],[2.4069,48.86901],[2.40692,48.86901],[2.40702,48.86907],[2.40713,48.86913],[2.40723,48.86918],[2.40737,48.86926],[2.40745,48.8693],[2.40757,48.86933],[2.40736,48.86922],[2.40726,48.86916],[2.4072,48.86913],[2.4071,48.86908],[2.40702,48.86903]],"quartier":"Saint-Fargeau","lengthM":114,"story":"M. Boudin, propriétaire."},{"kind":"street","id":"v:20:10616","name":"passage d'Eupatoria","arr":20,"lat":48.86895,"lng":2.38718,"themes":["passages"],"shape":[[2.38728,48.86887],[2.38718,48.86885],[2.38719,48.86886],[2.38713,48.86897],[2.38708,48.86905],[2.38707,48.86907],[2.38713,48.86909],[2.38726,48.86888],[2.38728,48.86887]],"quartier":"Belleville","lengthM":25,"story":"Voisinage de la rue d'Eupatoria.","image":{"provider":"panoramax","id":"f1ec624d-8957-4562-8845-ea8b30621fea","lat":48.86877,"lng":2.38714,"sequenceId":"04617823-5811-4837-b047-1bcb2f2b58d8"}},{"kind":"street","id":"v:20:10122","name":"passage Dagorno","arr":20,"lat":48.85544,"lng":2.40488,"themes":["passages"],"shape":[[2.40447,48.85568],[2.40458,48.85561],[2.40461,48.85559],[2.40481,48.85547],[2.40492,48.85539],[2.40494,48.85539],[2.40502,48.8554],[2.40511,48.85542],[2.40514,48.85544],[2.40518,48.85531],[2.40518,48.85531],[2.40518,48.85531],[2.40518,48.85532],[2.40518,48.85532],[2.40515,48.85533],[2.40515,48.85533],[2.40515,48.85533],[2.40514,48.85533],[2.40514,48.85533],[2.40514,48.85533],[2.40505,48.85532],[2.40504,48.85532],[2.405,48.85531],[2.40499,48.85531],[2.40498,48.85533],[2.40492,48.8553],[2.40488,48.85533],[2.40478,48.8554],[2.40475,48.85541],[2.40459,48.85552],[2.40445,48.8556],[2.40433,48.85568],[2.40431,48.85568],[2.40434,48.85579],[2.40435,48.85576],[2.40447,48.85568]],"quartier":"Charonne","lengthM":79,"story":"Nom de propriétaire.","image":{"provider":"panoramax","id":"7b0ec906-4f2e-4714-94aa-98e950961d76","lat":48.85537,"lng":2.40528,"sequenceId":"dace0857-33f4-4c86-b442-98321f0cc50f"}},{"kind":"street","id":"v:20:10361","name":"passage de la Duée","arr":20,"lat":48.87134,"lng":2.39598,"themes":["passages"],"shape":[[2.39627,48.87108],[2.39626,48.87108],[2.39614,48.87118],[2.3961,48.87122],[2.39604,48.87127],[2.39598,48.87133],[2.39592,48.87139],[2.39588,48.87142],[2.39579,48.8715],[2.39576,48.87154],[2.39576,48.87155],[2.39578,48.87153],[2.39584,48.87148],[2.39588,48.87144],[2.39597,48.87136],[2.39607,48.87127],[2.39627,48.87108]],"quartier":"Saint-Fargeau","lengthM":65,"story":"Voisinage de la rue de la Duée.","image":{"provider":"panoramax","id":"d0aea961-7c15-441d-bd52-cb7745e4eba9","lat":48.87165,"lng":2.39526,"sequenceId":"d99164e4-5cbd-48ae-9362-e5431e2bf25c"}},{"kind":"street","id":"v:20:13081","name":"passage de la Providence","arr":20,"lat":48.8541,"lng":2.40361,"themes":["passages","pedestrian"],"shape":[[2.40315,48.85455],[2.40339,48.85435],[2.40344,48.85432],[2.40364,48.85416],[2.40363,48.85415],[2.40368,48.8541],[2.40369,48.8541],[2.40373,48.85406],[2.40374,48.85406],[2.40379,48.85401],[2.40422,48.85365],[2.40425,48.85363],[2.40425,48.85362],[2.40433,48.85353],[2.40434,48.85352],[2.40415,48.85359],[2.40414,48.8536],[2.40412,48.85362],[2.40409,48.85366],[2.40407,48.85365],[2.40394,48.85378],[2.40394,48.85378],[2.40352,48.85417],[2.4033,48.85434],[2.40327,48.85432],[2.40312,48.85444],[2.40312,48.85444],[2.4031,48.85445],[2.40309,48.85445],[2.40308,48.85445],[2.40307,48.85444],[2.40307,48.85444],[2.40307,48.85443],[2.40314,48.85457],[2.40315,48.85458],[2.40315,48.85455]],"quartier":"Charonne","lengthM":151,"story":"Nom donné par la Société des Ecoles Libres de Charonne, propriétaire."},{"kind":"street","id":"v:20:13511","name":"passage de la Station de Ménilmontant","arr":20,"lat":48.86898,"lng":2.38895,"themes":["passages"],"shape":[[2.38895,48.86902],[2.38917,48.86879],[2.38918,48.86879],[2.38926,48.86864],[2.38922,48.86863],[2.38913,48.86877],[2.38913,48.86877],[2.389,48.86892],[2.38891,48.86901],[2.38864,48.86928],[2.38855,48.86936],[2.38858,48.86938],[2.3886,48.86936],[2.38895,48.86902]],"quartier":"Belleville","lengthM":100,"story":"Conduit à l'ancienne station de Ménilmontant (chemin de fer de Ceinture).","image":{"provider":"panoramax","id":"43be2093-28d4-4dd8-9959-e23fd12c1e36","lat":48.86855,"lng":2.38908,"sequenceId":"04617823-5811-4837-b047-1bcb2f2b58d8"}},{"kind":"street","id":"v:20:11651","name":"passage de Lagny","arr":20,"lat":48.84988,"lng":2.40902,"themes":["passages"],"shape":[[2.40902,48.8503],[2.40926,48.84907],[2.40916,48.84907],[2.40915,48.84915],[2.4091,48.84939],[2.40909,48.84945],[2.40908,48.84952],[2.40903,48.84979],[2.40896,48.84978],[2.40891,48.85003],[2.40893,48.85003],[2.40895,48.85003],[2.40898,48.85003],[2.40893,48.85026],[2.40889,48.85049],[2.40896,48.85059],[2.40897,48.85055],[2.40902,48.8503]],"quartier":"Charonne","lengthM":158,"story":"Voisinage de la rue de Lagny."},{"kind":"street","id":"v:20:12723","name":"passage de Pékin","arr":20,"lat":48.8715,"lng":2.38318,"themes":["passages"],"shape":[[2.38331,48.87166],[2.38348,48.87154],[2.38322,48.87127],[2.38312,48.87134],[2.38316,48.87134],[2.38324,48.87142],[2.38332,48.87151],[2.38325,48.87156],[2.38314,48.8715],[2.38306,48.87146],[2.38305,48.87143],[2.38299,48.87152],[2.38302,48.87152],[2.38303,48.87151],[2.38304,48.87152],[2.38315,48.87158],[2.38317,48.87159],[2.38329,48.87165],[2.38331,48.87166]],"quartier":"Belleville","lengthM":70,"story":"Capitale de la Chine, nom donné en souvenir de l'expédition de 1860 au cours de laquelle la ville fut prise par l'armée franco-anglaise ; voisinage de la rue de Pali-Kao.","image":{"provider":"panoramax","id":"9107add6-182c-47d6-812f-bde26c844f2f","lat":48.87141,"lng":2.38298,"sequenceId":"3f83c3f9-b1e8-47e7-abc3-dc6423bf967b"}},{"kind":"street","id":"v:20:10261","name":"passage des Deux Portes","arr":20,"lat":48.85902,"lng":2.405,"themes":["passages"],"shape":[[2.40522,48.85908],[2.40512,48.85902],[2.40506,48.85907],[2.4048,48.8589],[2.4048,48.8589],[2.40479,48.8589],[2.40479,48.85891],[2.40479,48.85891],[2.40478,48.85891],[2.40478,48.85892],[2.40477,48.85892],[2.40477,48.85892],[2.40476,48.85892],[2.40476,48.85892],[2.40475,48.85893],[2.40476,48.85895],[2.40483,48.85899],[2.40486,48.85898],[2.40503,48.85908],[2.40525,48.85919],[2.40533,48.85923],[2.40535,48.85923],[2.40537,48.85922],[2.40527,48.85917],[2.40529,48.85915],[2.40532,48.85913],[2.40529,48.85912],[2.40522,48.85908]],"quartier":"Charonne","lengthM":56,"story":"Cette voie était à l'origine en impasse, et deux portes en permettaient l'accès à partir de la rue Saint-Blaise.","image":{"provider":"panoramax","id":"4509e197-3faa-466b-8fc2-6543f23102be","lat":48.85889,"lng":2.4046,"sequenceId":"dace0857-33f4-4c86-b442-98321f0cc50f"}},{"kind":"street","id":"v:20:13302","name":"passage des Rondeaux","arr":20,"lat":48.86487,"lng":2.39594,"themes":["passages"],"shape":[[2.39616,48.8649],[2.39582,48.86477],[2.39571,48.86488],[2.39585,48.86492],[2.39616,48.8649]],"quartier":"Père-Lachaise","lengthM":29,"story":"Voisinage de la rue des Rondeaux.","image":{"provider":"panoramax","id":"0141359b-18bb-46c4-aa85-01f4a56462d2","lat":48.86493,"lng":2.39559,"sequenceId":"cbe91c42-d3ea-4b74-b261-f10f58ee38b4"}},{"kind":"street","id":"v:20:13683","name":"passage des Saint-Simoniens","arr":20,"lat":48.87111,"lng":2.39701,"themes":["passages"],"shape":[[2.39696,48.87133],[2.39703,48.87121],[2.39706,48.87121],[2.39707,48.87119],[2.39709,48.87117],[2.3971,48.87115],[2.39715,48.87107],[2.39715,48.87106],[2.39712,48.87102],[2.397,48.87096],[2.39694,48.87093],[2.39692,48.87092],[2.39689,48.87095],[2.39684,48.87099],[2.39698,48.87107],[2.397,48.8711],[2.39687,48.87132],[2.39696,48.87133]],"quartier":"Saint-Fargeau","lengthM":170,"story":"Voisinage de la maison qu'ont occupé les Saint-Simoniens en 1832."},{"kind":"street","id":"v:20:13497","name":"passage des Soupirs","arr":20,"lat":48.8686,"lng":2.39635,"themes":["passages","pedestrian"],"shape":[[2.39614,48.86819],[2.39612,48.86815],[2.39607,48.86818],[2.39607,48.86818],[2.39608,48.86818],[2.39609,48.86818],[2.3961,48.86818],[2.3961,48.86818],[2.39611,48.86819],[2.39616,48.86828],[2.39626,48.86846],[2.39632,48.86856],[2.39633,48.86859],[2.39637,48.86865],[2.39638,48.86867],[2.39639,48.86873],[2.39642,48.86878],[2.3965,48.86892],[2.39655,48.86901],[2.39667,48.86922],[2.39671,48.86918],[2.39666,48.86911],[2.39664,48.86907],[2.39664,48.86906],[2.39659,48.86896],[2.39659,48.86896],[2.39656,48.86891],[2.39653,48.86885],[2.39648,48.8688],[2.39648,48.86879],[2.39641,48.86867],[2.39638,48.86861],[2.39628,48.86843],[2.39624,48.86837],[2.39619,48.86828],[2.39614,48.86819]],"quartier":"Père-Lachaise","lengthM":125,"story":"Situation champêtre.","image":{"provider":"panoramax","id":"311c2538-f326-4198-ba69-476d12bd7995","lat":48.86924,"lng":2.39659,"sequenceId":"b512454f-8744-4868-ae82-e3c30603fec0"}},{"kind":"street","id":"v:20:13850","name":"passage des Tourelles","arr":20,"lat":48.87524,"lng":2.40434,"themes":["passages"],"shape":[[2.40449,48.87554],[2.40447,48.87552],[2.4047,48.87481],[2.40467,48.87489],[2.40464,48.87495],[2.4046,48.87504],[2.40456,48.87513],[2.40451,48.87526],[2.40449,48.87531],[2.40444,48.87542],[2.4044,48.87551],[2.40438,48.87552],[2.40426,48.87549],[2.40417,48.87548],[2.40414,48.87545],[2.40419,48.87532],[2.4042,48.87532],[2.40421,48.87529],[2.40424,48.87518],[2.40425,48.87515],[2.40436,48.87484],[2.40439,48.87476],[2.40433,48.87474],[2.40429,48.87486],[2.40426,48.87494],[2.40424,48.87499],[2.40423,48.87501],[2.40417,48.87519],[2.40413,48.87531],[2.40409,48.87542],[2.40407,48.87547],[2.40406,48.8755],[2.40413,48.87552],[2.40444,48.87558],[2.40459,48.87556],[2.40449,48.87554]],"quartier":"Saint-Fargeau","lengthM":190,"story":"Voisinage de la rue des Tourelles."},{"kind":"street","id":"v:20:10274","name":"passage Dieu","arr":20,"lat":48.85603,"lng":2.40382,"themes":["passages"],"shape":[[2.40372,48.85609],[2.40379,48.85605],[2.4038,48.85606],[2.40383,48.85603],[2.40383,48.85603],[2.40386,48.85601],[2.40388,48.856],[2.40391,48.85598],[2.40399,48.85593],[2.4042,48.85581],[2.40424,48.85582],[2.40423,48.85577],[2.4042,48.85579],[2.40419,48.85579],[2.40406,48.85587],[2.40402,48.85586],[2.40392,48.85592],[2.40379,48.85601],[2.40377,48.85604],[2.40364,48.85612],[2.40362,48.85613],[2.40357,48.85614],[2.40352,48.85615],[2.40352,48.85615],[2.40349,48.85616],[2.40354,48.85631],[2.40361,48.85631],[2.40358,48.85622],[2.40368,48.85614],[2.40366,48.85613],[2.40372,48.85609]],"quartier":"Charonne","lengthM":90,"story":"M. Dieu, propriétaire."},{"kind":"street","id":"v:20:13209","name":"passage du Retrait","arr":20,"lat":48.86936,"lng":2.39425,"themes":["passages"],"shape":[[2.39387,48.86916],[2.39376,48.86911],[2.39375,48.86912],[2.39409,48.86929],[2.3941,48.86929],[2.39411,48.86928],[2.39405,48.86925],[2.39387,48.86916],[2.39453,48.86949],[2.39447,48.86946],[2.39445,48.86947],[2.39446,48.86947],[2.39457,48.86952],[2.39467,48.86957],[2.39468,48.86956],[2.39453,48.86949]],"quartier":"Père-Lachaise","lengthM":83,"story":"Voisinage de la rue du Retrait.","image":{"provider":"panoramax","id":"9d87f3da-bdef-49e8-8f16-0a6d0e082798","lat":48.86958,"lng":2.39473,"sequenceId":"05a8a27d-c3e1-4e35-b857-3b5c84ce2b7b"}},{"kind":"street","id":"v:20:14736","name":"passage du Ruisseau de Ménilmontant","arr":20,"lat":48.86857,"lng":2.39309,"themes":["passages"],"shape":[[2.39237,48.86835],[2.39251,48.86846],[2.39268,48.86849],[2.39264,48.86866],[2.39265,48.86877],[2.39273,48.86877],[2.39279,48.86869],[2.39285,48.86855],[2.39305,48.86856],[2.39309,48.86862],[2.39318,48.86875],[2.39318,48.8688],[2.39319,48.86877],[2.39326,48.86868],[2.39342,48.86871],[2.39361,48.86888],[2.39375,48.86882],[2.3939,48.86886],[2.3939,48.86881],[2.39374,48.86874],[2.39356,48.86867],[2.39336,48.86861],[2.3932,48.86854],[2.39339,48.86848],[2.39341,48.86846],[2.3932,48.86842],[2.39311,48.86853],[2.39293,48.8685],[2.39296,48.8684],[2.39298,48.86826],[2.39303,48.86818],[2.39289,48.86816],[2.39283,48.86827],[2.39278,48.86838],[2.39257,48.86839],[2.39237,48.86835]],"quartier":"Père-Lachaise","story":"Proximité de l'ancien ruisseau de Ménilmontant, situé au dessus de l'ancien bras de la Seine et alimenté par les ruisselets descendant des hauteurs de Belleville, du Pré Saint Gervais et de Montmartre.","image":{"provider":"panoramax","id":"5903b746-f3d0-4384-891b-fa49c0180aab","lat":48.86886,"lng":2.39396,"sequenceId":"05a8a27d-c3e1-4e35-b857-3b5c84ce2b7b"}},{"kind":"street","id":"v:20:13540","name":"passage du Surmelin","arr":20,"lat":48.86999,"lng":2.40547,"themes":["passages"],"shape":[[2.40534,48.87021],[2.40557,48.86994],[2.4057,48.86979],[2.4059,48.86955],[2.40593,48.86954],[2.40587,48.86951],[2.40586,48.86952],[2.40573,48.86968],[2.40566,48.86976],[2.40559,48.86985],[2.40553,48.86991],[2.40542,48.87005],[2.40534,48.87014],[2.4053,48.87019],[2.40527,48.8702],[2.40525,48.8702],[2.40513,48.87017],[2.40513,48.87021],[2.40519,48.87022],[2.4053,48.87027],[2.4053,48.87027],[2.40532,48.87025],[2.40535,48.87022],[2.40534,48.87021]],"quartier":"Saint-Fargeau","lengthM":110,"story":"Voisinage de la rue du Surmelin.","image":{"provider":"panoramax","id":"0e605b76-19aa-45e3-ba9b-78074b265e34","lat":48.86974,"lng":2.40574,"sequenceId":"e5fcc4ac-4dd2-4eca-a526-835952a96808"}},{"kind":"street","id":"v:20:13755","name":"passage du Télégraphe","arr":20,"lat":48.87416,"lng":2.39846,"themes":["passages"],"shape":[[2.39817,48.87419],[2.39832,48.87418],[2.39847,48.87418],[2.39851,48.87418],[2.39868,48.87418],[2.39873,48.87418],[2.39879,48.87418],[2.39888,48.87418],[2.39896,48.87418],[2.39898,48.87418],[2.3991,48.87418],[2.39911,48.87413],[2.39875,48.87413],[2.39872,48.87413],[2.3986,48.87413],[2.3985,48.87413],[2.39836,48.87413],[2.39817,48.87413],[2.39817,48.87413],[2.39817,48.87413],[2.39815,48.87413],[2.39805,48.87413],[2.39801,48.87413],[2.39801,48.87418],[2.39805,48.87418],[2.39815,48.87418],[2.39817,48.87418],[2.39817,48.87419]],"quartier":"Saint-Fargeau","lengthM":85,"story":"Voisinage de la rue du Télégraphe.","image":{"provider":"panoramax","id":"608ea797-b73d-4e04-b220-ea805557e184","lat":48.8742,"lng":2.398,"sequenceId":"054225cc-b81d-48aa-b4e1-282dc17b63d9"}},{"kind":"street","id":"v:20:10403","name":"passage Duris","arr":20,"lat":48.8644,"lng":2.38872,"themes":["passages"],"shape":[[2.38879,48.86452],[2.38892,48.86446],[2.38891,48.86445],[2.38887,48.86447],[2.38886,48.86446],[2.38885,48.86446],[2.38884,48.86446],[2.3888,48.86442],[2.38876,48.86438],[2.38877,48.86438],[2.38876,48.86437],[2.38875,48.86437],[2.38875,48.86437],[2.38874,48.86437],[2.38873,48.86437],[2.38873,48.86437],[2.38873,48.86436],[2.38873,48.86436],[2.38873,48.86435],[2.38873,48.86435],[2.38875,48.86434],[2.38856,48.86428],[2.3885,48.86427],[2.38841,48.86424],[2.38837,48.86429],[2.38848,48.86432],[2.38856,48.86435],[2.38864,48.86437],[2.38868,48.86441],[2.38868,48.86441],[2.38871,48.86444],[2.38872,48.86445],[2.38873,48.86445],[2.38877,48.86449],[2.38878,48.8645],[2.38879,48.86452]],"quartier":"Père-Lachaise","lengthM":48,"story":"Voisinage de la rue Duris.","image":{"provider":"panoramax","id":"77c6e1d3-aec2-4634-b50d-54e94f96a253","lat":48.86457,"lng":2.38885,"sequenceId":"05a8a27d-c3e1-4e35-b857-3b5c84ce2b7b"}},{"kind":"street","id":"v:20:10838","name":"passage Fréquel","arr":20,"lat":48.85717,"lng":2.40217,"themes":["passages"],"shape":[[2.40263,48.85697],[2.40248,48.85681],[2.40248,48.85686],[2.40248,48.85688],[2.4024,48.85694],[2.40243,48.85696],[2.40231,48.85705],[2.40219,48.85714],[2.40213,48.85719],[2.40201,48.85727],[2.40196,48.85731],[2.40195,48.85732],[2.40189,48.85736],[2.40186,48.85739],[2.40182,48.85741],[2.40176,48.85746],[2.40173,48.85748],[2.40201,48.85743],[2.402,48.85736],[2.40252,48.85697],[2.40263,48.85697]],"quartier":"Charonne","lengthM":96,"story":"Nom de propriétaire."},{"kind":"street","id":"v:20:10883","name":"passage Gambetta","arr":20,"lat":48.87233,"lng":2.40187,"themes":["passages","pedestrian"],"shape":[[2.40133,48.87327],[2.40168,48.87272],[2.4017,48.87269],[2.40184,48.87248],[2.40189,48.8724],[2.40191,48.87237],[2.40191,48.87237],[2.40199,48.87224],[2.40211,48.87205],[2.40214,48.87201],[2.40216,48.87198],[2.40217,48.87196],[2.40223,48.87186],[2.40237,48.87165],[2.40217,48.87171],[2.4022,48.87174],[2.40211,48.87187],[2.40211,48.87188],[2.4021,48.87188],[2.40209,48.8719],[2.40209,48.87191],[2.40208,48.87192],[2.40206,48.87196],[2.40205,48.87197],[2.40208,48.87198],[2.40176,48.87249],[2.40175,48.87249],[2.40171,48.87253],[2.40138,48.87306],[2.40137,48.87305],[2.40132,48.87313],[2.40125,48.87323],[2.40124,48.87324],[2.40133,48.87327]],"quartier":"Saint-Fargeau","lengthM":192,"story":"Voisinage de l'avenue Gambetta.","image":{"provider":"panoramax","id":"772540aa-2073-4e84-bdc3-602828061033","lat":48.87161,"lng":2.40254,"sequenceId":"e61cc1ee-3a0c-40b4-8abd-9e8757f4c063"}},{"kind":"street","id":"v:20:15219","name":"passage Hypatie d'Alexandrie","arr":20,"lat":48.85712,"lng":2.40205,"themes":["passages"],"shape":[[2.40213,48.85719],[2.40219,48.85714],[2.402,48.85703],[2.40194,48.85707],[2.40199,48.8571],[2.40201,48.85712],[2.40204,48.85714],[2.40213,48.85719]],"quartier":"Charonne","lengthM":101,"story":"Hypatie d'Alexandrie (Alexandrie (Egypte), entre 355 et 370 - Alexandrie (Egypte) 415), mathématicienne, astronome et philosophe grecque"},{"kind":"street","id":"v:20:11542","name":"passage Josseaume","arr":20,"lat":48.85491,"lng":2.40264,"themes":["passages","pedestrian"],"shape":[[2.40303,48.85463],[2.40299,48.85458],[2.40298,48.8546],[2.40298,48.8546],[2.40298,48.8546],[2.4029,48.85467],[2.40276,48.85478],[2.4027,48.85483],[2.40231,48.85514],[2.40201,48.85539],[2.40197,48.85543],[2.40189,48.8555],[2.40193,48.85553],[2.40246,48.85509],[2.40268,48.85492],[2.40272,48.85489],[2.40287,48.85476],[2.40292,48.85472],[2.40303,48.85463]],"quartier":"Charonne","lengthM":128,"story":"M. Josseaume, propriétaire."},{"kind":"street","id":"v:20:11593","name":"passage Julien Lacroix","arr":20,"lat":48.87031,"lng":2.38467,"themes":["passages"],"shape":[[2.38458,48.87028],[2.38465,48.87035],[2.3847,48.87033],[2.3847,48.87033],[2.38478,48.8703],[2.38458,48.87028]],"quartier":"Belleville","lengthM":14,"story":"Voisinage de la rue Julien Lacroix ; Nom de propriétaire.","image":{"provider":"panoramax","id":"b094d709-4d58-48b0-9c8b-d6080f92b27e","lat":48.87026,"lng":2.38471,"sequenceId":"04617823-5811-4837-b047-1bcb2f2b58d8"}},{"kind":"street","id":"v:20:11991","name":"passage Maigrot-Delaunay","arr":20,"lat":48.8504,"lng":2.40099,"themes":["passages"],"shape":[[2.40118,48.85012],[2.40102,48.85009],[2.40088,48.85048],[2.40082,48.85063],[2.40081,48.85067],[2.40097,48.85071],[2.40094,48.85068],[2.40091,48.85065],[2.40109,48.85016],[2.40113,48.85014],[2.40118,48.85012]],"quartier":"Charonne","lengthM":68,"story":"MM. Maigrot et Delaunay, propriétaires."},{"kind":"street","id":"v:20:12298","name":"passage Monplaisir","arr":20,"lat":48.86563,"lng":2.3857,"themes":["passages","pedestrian"],"shape":[[2.38608,48.86583],[2.38613,48.86575],[2.3861,48.86576],[2.38589,48.8657],[2.38586,48.86569],[2.38583,48.86567],[2.3858,48.86564],[2.38579,48.86563],[2.38577,48.8656],[2.38574,48.86558],[2.38572,48.86557],[2.3857,48.86557],[2.38568,48.86556],[2.38546,48.86549],[2.38505,48.86538],[2.38501,48.86541],[2.38511,48.86544],[2.38512,48.86544],[2.38546,48.86554],[2.38567,48.8656],[2.38563,48.86565],[2.38562,48.86566],[2.38565,48.86567],[2.38575,48.86571],[2.38578,48.86572],[2.38582,48.86573],[2.38588,48.86575],[2.38607,48.8658],[2.38608,48.86583]],"quartier":"Père-Lachaise","lengthM":94,"story":"Dû à une enseigne.","image":{"provider":"panoramax","id":"2e0812dc-0787-4e04-820c-e1f8d9de5eef","lat":48.86539,"lng":2.38503,"sequenceId":"05a8a27d-c3e1-4e35-b857-3b5c84ce2b7b"}},{"kind":"street","id":"v:20:12568","name":"passage Ormeaux-Grands Champs","arr":20,"lat":48.85098,"lng":2.40092,"themes":["passages"],"shape":[[2.40068,48.85153],[2.40071,48.85151],[2.40099,48.8509],[2.40102,48.85084],[2.40102,48.85084],[2.40102,48.85084],[2.40103,48.85084],[2.40103,48.85083],[2.40103,48.85083],[2.40104,48.85083],[2.40104,48.85083],[2.40097,48.85082],[2.40097,48.85082],[2.40097,48.85082],[2.40097,48.85082],[2.40097,48.85083],[2.40097,48.85083],[2.40097,48.85083],[2.40097,48.85083],[2.40095,48.85088],[2.40093,48.85093],[2.40093,48.85093],[2.40092,48.85093],[2.40092,48.85093],[2.40092,48.85093],[2.40092,48.85093],[2.40091,48.85093],[2.40091,48.85093],[2.40091,48.85093],[2.40091,48.85093],[2.40088,48.85098],[2.4009,48.85099],[2.40072,48.85133],[2.40069,48.85141],[2.40061,48.85147],[2.40068,48.85153]],"quartier":"Charonne","lengthM":75,"story":"Passage reliant la rue des Grands Champs à la rue des Ormeaux."},{"kind":"street","id":"v:20:12763","name":"passage Perreur","arr":20,"lat":48.86789,"lng":2.40435,"themes":["passages","pedestrian"],"shape":[[2.40463,48.86811],[2.40467,48.86807],[2.40466,48.86807],[2.4046,48.86803],[2.40452,48.86798],[2.40447,48.86795],[2.40441,48.86791],[2.4044,48.8679],[2.40431,48.86785],[2.40422,48.8678],[2.40416,48.86777],[2.40411,48.86773],[2.40411,48.86773],[2.40411,48.86771],[2.40411,48.8677],[2.40403,48.86774],[2.40406,48.86774],[2.4041,48.86776],[2.40416,48.8678],[2.40438,48.86793],[2.40451,48.86801],[2.40463,48.86808],[2.40463,48.86811]],"quartier":"Saint-Fargeau","lengthM":58,"story":"M. Perreur, propriétaire.","image":{"provider":"panoramax","id":"ce1a618a-4d8e-44e1-ac31-19bc5ab7d78a","lat":48.86756,"lng":2.40414,"sequenceId":"71317ce6-02cf-4cb9-8bac-feb5a6ee5ba3"}},{"kind":"street","id":"v:20:12817","name":"passage Piat","arr":20,"lat":48.87075,"lng":2.38663,"themes":["passages"],"shape":[[2.38674,48.87069],[2.38677,48.87048],[2.38692,48.87049],[2.38692,48.87047],[2.3866,48.87045],[2.3866,48.87046],[2.38675,48.87048],[2.38672,48.87069],[2.38667,48.87073],[2.38659,48.87073],[2.38657,48.87075],[2.38657,48.87075],[2.38656,48.87076],[2.38657,48.87076],[2.38658,48.87079],[2.38648,48.87089],[2.38639,48.87091],[2.38636,48.87094],[2.38638,48.871],[2.38643,48.87102],[2.38651,48.87101],[2.38652,48.87101],[2.38656,48.87097],[2.38655,48.87095],[2.38671,48.8708],[2.38678,48.87075],[2.38676,48.87072],[2.38675,48.87071],[2.38674,48.8707],[2.38674,48.8707],[2.38674,48.87069]],"quartier":"Belleville","lengthM":58,"story":"Voisinage de la rue Piat.","image":{"provider":"panoramax","id":"97416d23-b26c-4dce-b1b4-1d41ec0ad0b1","lat":48.8709,"lng":2.38649,"sequenceId":"04617823-5811-4837-b047-1bcb2f2b58d8"}},{"kind":"street","id":"v:20:12898","name":"passage Planchard","arr":20,"lat":48.87087,"lng":2.40166,"themes":["passages"],"shape":[[2.40154,48.87109],[2.40163,48.87096],[2.40191,48.87056],[2.40232,48.86999],[2.40227,48.86997],[2.40227,48.86997],[2.40213,48.87017],[2.402,48.87035],[2.40198,48.87038],[2.40154,48.87101],[2.40149,48.87108],[2.40146,48.87107],[2.4014,48.87115],[2.4014,48.87115],[2.40133,48.87125],[2.40133,48.87126],[2.40131,48.87128],[2.4014,48.8713],[2.40143,48.87126],[2.40143,48.87126],[2.40149,48.87116],[2.4015,48.87116],[2.40154,48.87109]],"quartier":"Saint-Fargeau","lengthM":167},{"kind":"street","id":"v:20:12904","name":"passage Plantin","arr":20,"lat":48.87133,"lng":2.38821,"themes":["passages"],"shape":[[2.38855,48.87108],[2.38854,48.87106],[2.38844,48.87112],[2.3884,48.87115],[2.38833,48.87121],[2.38829,48.87124],[2.38827,48.87126],[2.38816,48.87135],[2.3881,48.8714],[2.38807,48.87142],[2.38802,48.87146],[2.38798,48.8715],[2.38795,48.87152],[2.38794,48.87153],[2.3879,48.87156],[2.3879,48.87156],[2.3879,48.87156],[2.38784,48.87161],[2.38798,48.87163],[2.38794,48.87156],[2.38798,48.87153],[2.38804,48.87148],[2.38813,48.8714],[2.3882,48.87134],[2.38823,48.87132],[2.38826,48.8713],[2.38841,48.87117],[2.38846,48.87113],[2.38853,48.87109],[2.38855,48.87108],[2.38855,48.87108],[2.38855,48.87108],[2.38855,48.87108]],"quartier":"Belleville","lengthM":80,"story":"M. Plantin, propriétaire.","image":{"provider":"panoramax","id":"0fd3ea36-84de-4719-92bb-0de21d57e616","lat":48.87164,"lng":2.38791,"sequenceId":"04617823-5811-4837-b047-1bcb2f2b58d8"}},{"kind":"street","id":"v:20:13396","name":"passage Savart","arr":20,"lat":48.85544,"lng":2.4029,"themes":["passages"],"shape":[[2.40355,48.85493],[2.40344,48.85501],[2.40334,48.85508],[2.40323,48.85516],[2.40309,48.85527],[2.403,48.85534],[2.40295,48.85537],[2.40297,48.85538],[2.40292,48.85542],[2.40288,48.85545],[2.40286,48.85546],[2.40272,48.85557],[2.40267,48.8556],[2.40259,48.85567],[2.40248,48.85575],[2.40247,48.85576],[2.40243,48.85578],[2.40243,48.85579],[2.40234,48.85585],[2.40236,48.85586],[2.40245,48.8558],[2.40263,48.85566],[2.40269,48.85562],[2.40274,48.85558],[2.4029,48.85546],[2.40296,48.85542],[2.403,48.85539],[2.403,48.85539],[2.40311,48.8553],[2.4031,48.8553],[2.40322,48.85521],[2.40358,48.85494],[2.40355,48.85493]],"quartier":"Charonne","lengthM":138,"story":"M. Savart, propriétaire."},{"kind":"street","id":"v:20:13515","name":"passage Stendhal","arr":20,"lat":48.86168,"lng":2.40081,"themes":["passages"],"shape":[[2.40094,48.86163],[2.40081,48.86158],[2.40056,48.86148],[2.40055,48.8615],[2.40075,48.86158],[2.40076,48.86163],[2.40066,48.86173],[2.40061,48.86177],[2.4006,48.86179],[2.40065,48.86181],[2.40068,48.86177],[2.40083,48.86161],[2.40136,48.86183],[2.40138,48.86181],[2.40094,48.86163]],"quartier":"Père-Lachaise","lengthM":97,"story":"Voisinage de la rue Stendhal.","image":{"provider":"panoramax","id":"9971050b-d929-4fd1-9383-d2b5f2381c72","lat":48.86169,"lng":2.4003,"sequenceId":"04617823-5811-4837-b047-1bcb2f2b58d8"}},{"kind":"street","id":"v:20:15373","name":"passage Thomas Sankara","arr":20,"lat":48.86412,"lng":2.38792,"themes":["passages"],"shape":[[2.38783,48.86415],[2.38799,48.86417],[2.38803,48.86411],[2.3879,48.86404],[2.38783,48.86415]],"quartier":"Père-Lachaise","lengthM":11,"story":"Thomas Sankara (Yako (Haute-Volta), 1949 - Ouagadougou(Burkina Faso), 1987), chef de l'État de la République de Haute-Volta rebaptisée Burkina Faso, du 4 août 1983 jusqu'à son assassinat le 15 octobre 1987.","image":{"provider":"panoramax","id":"59c85ae8-9adb-4d7b-9358-44c950ce2209","lat":48.86383,"lng":2.38793,"sequenceId":"e41ff87a-4978-4bb8-ae99-b04b00514ca0"}},{"kind":"street","id":"v:20:8918","name":"place Alphonse Allais","arr":20,"lat":48.87066,"lng":2.38203,"themes":["places","pedestrian"],"shape":[[2.38242,48.8706],[2.38186,48.87037],[2.38169,48.87065],[2.38174,48.87067],[2.38184,48.87072],[2.38205,48.8708],[2.38219,48.87086],[2.38242,48.8706]],"quartier":"Belleville","lengthM":45,"story":"Alphonse Allais (Honfleur, 1855-Paris, 1905), écrivain français.","image":{"provider":"panoramax","id":"429f7f9b-295d-4f98-bd70-00d96e36f735","lat":48.87063,"lng":2.38166,"sequenceId":"04617823-5811-4837-b047-1bcb2f2b58d8"}},{"kind":"street","id":"v:20:9116","name":"place Auguste Métivier","arr":20,"lat":48.8632,"lng":2.38816,"themes":["places"],"shape":[[2.38857,48.86326],[2.38858,48.86307],[2.3884,48.86302],[2.38822,48.86297],[2.38795,48.8629],[2.38772,48.86314],[2.38777,48.86314],[2.38787,48.86318],[2.38787,48.86318],[2.38796,48.86322],[2.38802,48.86324],[2.38802,48.86324],[2.38812,48.86328],[2.38811,48.86328],[2.38815,48.8633],[2.38824,48.86333],[2.38839,48.86339],[2.38849,48.86333],[2.38857,48.86326]],"quartier":"Père-Lachaise","lengthM":70,"story":"Auguste Métivier (1827-1893), médecin, conseiller municipal du XXe arrondissement.","image":{"provider":"panoramax","id":"b399c32d-2511-44d1-a743-007353bdf370","lat":48.86315,"lng":2.38804,"sequenceId":"6cc34a60-4282-44f4-9504-f8fd038fb8ca"}},{"kind":"street","id":"v:20:15298","name":"place Bilal Berreni","arr":20,"lat":48.85749,"lng":2.40764,"themes":["places"],"shape":[[2.40743,48.85754],[2.40743,48.85754],[2.40757,48.85765],[2.40758,48.85765],[2.4076,48.85766],[2.40762,48.85766],[2.40764,48.85765],[2.40767,48.85764],[2.4083,48.85725],[2.40825,48.85721],[2.40811,48.85712],[2.40794,48.85722],[2.40782,48.8573],[2.40753,48.85748],[2.40743,48.85754],[2.40743,48.85754],[2.40743,48.85754],[2.40743,48.85754],[2.40743,48.85754],[2.40743,48.85754],[2.40743,48.85754]],"quartier":"Charonne","story":"Bilal Berreni (Paris, 1990 - Détroit (Etats-Unis), 2013), artiste de street-art engagé, plus connu sous le nom de Zoo Project, mort assassiné.","image":{"provider":"panoramax","id":"f6d60798-9cea-4838-97c8-a6506adf0100","lat":48.857,"lng":2.40823,"sequenceId":"930cd874-3067-42d5-a3c5-d50bd24634dd"}},{"kind":"street","id":"v:20:15135","name":"place Carmen","arr":20,"lat":48.86625,"lng":2.38937,"themes":["places"],"shape":[[2.38953,48.86639],[2.38957,48.86619],[2.38951,48.86622],[2.38936,48.86618],[2.38936,48.86618],[2.389,48.86609],[2.38892,48.86621],[2.38952,48.86637],[2.38953,48.86639]],"quartier":"Père-Lachaise","lengthM":45,"story":"\"Carmen \" est considéré comme l'opéra le plus joué au monde. Quant au personnage de Carmen, il incarne une forme d'insoumission et de liberté.","image":{"provider":"panoramax","id":"a3141ae7-0014-45b6-9c2b-dad6397c14c0","lat":48.86624,"lng":2.38933,"sequenceId":"6cc34a60-4282-44f4-9504-f8fd038fb8ca"}},{"kind":"street","id":"v:20:15184","name":"place de Flore","arr":20,"lat":48.8758,"lng":2.40372,"themes":["places"],"shape":[[2.4038,48.87574],[2.40366,48.87572],[2.40362,48.87583],[2.40371,48.87585],[2.40375,48.87589],[2.4038,48.87574]],"quartier":"Saint-Fargeau","story":"nom donné en référence à la déesse romaine de la nature, du printemps et des fleurs. Valorise symboliquement les actions des habitants du quartier pour embellir, végétaliser et fleurir cet espace.","image":{"provider":"panoramax","id":"44bdab63-5330-4157-834c-2a5f167009af","lat":48.87588,"lng":2.40373,"sequenceId":"f1f67b71-3200-4a94-961f-7f67d315f328"}},{"kind":"street","id":"v:20:8800","name":"place de l'Adjudant Vincenot","arr":20,"lat":48.87063,"lng":2.40824,"themes":["places"],"shape":[[2.40854,48.87084],[2.40858,48.87033],[2.40848,48.87039],[2.40801,48.87036],[2.40784,48.87051],[2.40786,48.87051],[2.40803,48.87059],[2.40804,48.8706],[2.40807,48.87061],[2.4081,48.87063],[2.40818,48.87066],[2.40823,48.87069],[2.4083,48.87072],[2.4083,48.87072],[2.40833,48.87074],[2.40837,48.87076],[2.40854,48.87084],[2.40854,48.87084]],"quartier":"Saint-Fargeau","story":"Henri Léon Emile Vincenot (1876-1909), adjudant mécanicien tué à bord du dirigeable \"République\".","image":{"provider":"panoramax","id":"bbc6b660-39d7-4909-9eb9-d46098a14977","lat":48.87104,"lng":2.40779,"sequenceId":"e5fcc4ac-4dd2-4eca-a526-835952a96808"}},{"kind":"street","id":"v:20:12965","name":"place de la Porte de Bagnolet","arr":20,"lat":48.86443,"lng":2.40912,"themes":["places"],"shape":[[2.40901,48.86405],[2.40899,48.86405],[2.40841,48.86419],[2.40811,48.86438],[2.40807,48.86444],[2.40833,48.86461],[2.40842,48.86467],[2.40833,48.86492],[2.40838,48.86494],[2.40901,48.86506],[2.40906,48.86506],[2.40922,48.86501],[2.40934,48.86494],[2.4094,48.8649],[2.40942,48.86489],[2.40945,48.86486],[2.40961,48.86448],[2.40961,48.86446],[2.4096,48.86444],[2.40959,48.8644],[2.40956,48.86433],[2.40953,48.86429],[2.40951,48.86427],[2.40949,48.86424],[2.40946,48.86422],[2.40942,48.86419],[2.40939,48.86417],[2.40937,48.86416],[2.40935,48.86414],[2.40929,48.86412],[2.40925,48.8641],[2.4092,48.86409],[2.40915,48.86407],[2.40907,48.86406],[2.40904,48.86406],[2.40901,48.86405]],"quartier":"Charonne","story":"Située sur l'emplacement de l'ancienne porte de Bagnolet.","image":{"provider":"panoramax","id":"271c2ba0-34ba-460d-b668-0acacc5c78fd","lat":48.86446,"lng":2.40967,"sequenceId":"63f7803b-b38a-4f8d-a5ad-ccdb821a95a3"}},{"kind":"street","id":"v:20:12989","name":"place de la Porte de Montreuil","arr":20,"lat":48.85399,"lng":2.41388,"themes":["places"],"shape":[[2.41373,48.85332],[2.41356,48.85333],[2.41347,48.85335],[2.41337,48.85338],[2.41321,48.85343],[2.41308,48.8535],[2.41295,48.85358],[2.41285,48.85368],[2.41272,48.85394],[2.41269,48.85413],[2.41271,48.8542],[2.41274,48.85429],[2.41284,48.85443],[2.41309,48.85462],[2.41331,48.85473],[2.41347,48.85476],[2.41375,48.85479],[2.41406,48.85478],[2.41426,48.85474],[2.41444,48.85467],[2.41456,48.85461],[2.41469,48.85452],[2.41473,48.85448],[2.4148,48.85441],[2.41491,48.85419],[2.41494,48.85404],[2.41494,48.85398],[2.41491,48.85389],[2.41487,48.8538],[2.41481,48.85371],[2.41474,48.85364],[2.41453,48.85349],[2.41426,48.85338],[2.41404,48.85333],[2.41388,48.85332],[2.41373,48.85332]],"quartier":"Charonne","story":"Voisinage de l'ancienne porte de Montreuil.","image":{"provider":"panoramax","id":"c8cce0a6-a697-4e97-b25a-d8a39bade587","lat":48.85463,"lng":2.41422,"sequenceId":"dace0857-33f4-4c86-b442-98321f0cc50f"}},{"kind":"street","id":"v:20:13213","name":"place de la Réunion","arr":20,"lat":48.85578,"lng":2.40104,"themes":["places"],"shape":[[2.40135,48.85615],[2.40177,48.85618],[2.40192,48.85609],[2.40197,48.85606],[2.40151,48.85576],[2.40148,48.85567],[2.40145,48.85562],[2.40143,48.85559],[2.40142,48.85558],[2.40138,48.85554],[2.40135,48.85552],[2.40118,48.85544],[2.40111,48.85543],[2.40108,48.85543],[2.40104,48.85542],[2.40096,48.85542],[2.40088,48.85543],[2.40079,48.85545],[2.40076,48.85546],[2.40071,48.85549],[2.40066,48.85552],[2.40052,48.85569],[2.40051,48.85573],[2.40051,48.85575],[2.40052,48.85579],[2.40053,48.85582],[2.40055,48.85587],[2.40058,48.85591],[2.4006,48.85593],[2.40066,48.85598],[2.40067,48.85621],[2.40086,48.8563],[2.4011,48.85632],[2.40112,48.85631],[2.40126,48.85621],[2.40135,48.85615]],"quartier":"Charonne","story":"Voisinage de la rue de la Réunion."},{"kind":"street","id":"v:20:12210","name":"place de Ménilmontant","arr":20,"lat":48.86847,"lng":2.38802,"themes":["places"],"shape":[[2.38806,48.86856],[2.38807,48.86856],[2.38807,48.86856],[2.38808,48.86856],[2.38811,48.86849],[2.38815,48.86848],[2.38818,48.86838],[2.38812,48.86836],[2.38807,48.86848],[2.3879,48.86845],[2.38795,48.86832],[2.38791,48.86831],[2.38788,48.86839],[2.38787,48.86842],[2.38786,48.86843],[2.38784,48.86851],[2.38805,48.86857],[2.38806,48.86856],[2.38806,48.86856]],"quartier":"Belleville","story":"Voisinage de la rue de Ménilmontant.","image":{"provider":"panoramax","id":"9049e563-ffb9-495e-ab7a-e906ccd4a19d","lat":48.86827,"lng":2.38794,"sequenceId":"04617823-5811-4837-b047-1bcb2f2b58d8"}},{"kind":"street","id":"v:20:11130","name":"place des Grès","arr":20,"lat":48.859,"lng":2.40594,"themes":["places"],"shape":[[2.40598,48.85911],[2.40609,48.85901],[2.40611,48.85889],[2.40611,48.8588],[2.40589,48.85886],[2.40576,48.85895],[2.40582,48.85902],[2.40586,48.85904],[2.40586,48.85904],[2.40591,48.85906],[2.4059,48.85907],[2.40592,48.85908],[2.40598,48.85911]],"quartier":"Charonne","story":"Ancien dépôt de pavés.","image":{"provider":"panoramax","id":"f98e2ad4-3628-4c03-9b7c-607064609807","lat":48.85898,"lng":2.40579,"sequenceId":"dace0857-33f4-4c86-b442-98321f0cc50f"}},{"kind":"street","id":"v:20:15052","name":"place des Sources du Nord","arr":20,"lat":48.86911,"lng":2.38817,"themes":["places"],"shape":[[2.38803,48.86906],[2.38795,48.8692],[2.38822,48.86927],[2.3884,48.8692],[2.38833,48.86911],[2.38822,48.86897],[2.38818,48.86899],[2.38803,48.86906]],"quartier":"Belleville","lengthM":30,"story":"La dénomination fait référence au nom donné au Moyen-Age à l'ensemble des ouvrages réalisés pour alimenter Paris en eau.","image":{"provider":"panoramax","id":"57aa6ddb-f43e-4f78-96ee-016568949f7f","lat":48.86901,"lng":2.38826,"sequenceId":"04617823-5811-4837-b047-1bcb2f2b58d8"}},{"kind":"street","id":"v:20:11033","name":"place du Général Tessier de Marguerittes","arr":20,"lat":48.85117,"lng":2.4103,"themes":["places"],"shape":[[2.41036,48.85099],[2.41031,48.85099],[2.41031,48.85101],[2.4102,48.85103],[2.41018,48.85107],[2.41027,48.85115],[2.41017,48.8512],[2.41011,48.85123],[2.40998,48.8513],[2.41002,48.85134],[2.41008,48.85139],[2.41019,48.85148],[2.41047,48.85134],[2.41046,48.85133],[2.41037,48.85125],[2.41033,48.85122],[2.41039,48.85118],[2.4105,48.85113],[2.4105,48.85109],[2.41052,48.851],[2.41047,48.851],[2.41036,48.85099]],"quartier":"Charonne","story":"Tessier de Marguerittes dit \"le Colonnel Lizé\" (1882-1958), général spécialiste de l'aéronautique militaire. Il a organisé le soulèvement qui conduisit à la libération de Paris le 25 août 1944.","image":{"provider":"panoramax","id":"8f7c8aab-3f93-41ec-af64-86d816642681","lat":48.85153,"lng":2.41079,"sequenceId":"6048fc94-f6eb-452a-ab1b-d126fa1c5f86"}},{"kind":"street","id":"v:20:11159","name":"place du Guignier","arr":20,"lat":48.87149,"lng":2.39301,"themes":["places"],"shape":[[2.39305,48.87151],[2.3931,48.87149],[2.39311,48.8715],[2.39317,48.87149],[2.39322,48.87148],[2.39327,48.87147],[2.39334,48.87149],[2.39306,48.87121],[2.39255,48.87159],[2.39259,48.87159],[2.39277,48.87156],[2.3929,48.87154],[2.39305,48.87151]],"quartier":"Belleville","story":"Ancienne plantation de cerisiers.","image":{"provider":"panoramax","id":"e5d8fa92-bfbb-4695-be6e-29bcca25b8f0","lat":48.87116,"lng":2.39307,"sequenceId":"04617823-5811-4837-b047-1bcb2f2b58d8"}},{"kind":"street","id":"v:20:10437","name":"place Édith Piaf","arr":20,"lat":48.86473,"lng":2.40529,"themes":["places"],"shape":[[2.40552,48.86467],[2.40517,48.86469],[2.40485,48.8647],[2.40483,48.8647],[2.40482,48.86471],[2.4048,48.86471],[2.40478,48.86473],[2.40478,48.86474],[2.40477,48.86475],[2.40477,48.86476],[2.40478,48.86478],[2.40483,48.86483],[2.40491,48.86493],[2.40495,48.86497],[2.40503,48.86505],[2.40556,48.86473],[2.40557,48.86473],[2.40557,48.86473],[2.40557,48.86472],[2.40557,48.86472],[2.40558,48.86471],[2.40558,48.86471],[2.40558,48.8647],[2.40557,48.8647],[2.40557,48.8647],[2.40557,48.8647],[2.40557,48.86469],[2.40556,48.86469],[2.40556,48.86468],[2.40556,48.86468],[2.40555,48.86468],[2.40554,48.86468],[2.40554,48.86468],[2.40553,48.86467],[2.40553,48.86467],[2.40552,48.86467]],"quartier":"Saint-Fargeau","story":"Edith Giovanna Gassio dite Edith Piaf (Paris, 1915-Paris, 1963), chanteuse française.","image":{"provider":"panoramax","id":"a08e41b9-9f77-4b3e-968c-94bb3d9c3260","lat":48.86456,"lng":2.40566,"sequenceId":"fe1c05ee-5570-430d-b4d8-b4194a8f5ab1"}},{"kind":"street","id":"v:20:10503","name":"place Émile Landrin","arr":20,"lat":48.86404,"lng":2.40023,"themes":["places"],"shape":[[2.40057,48.86394],[2.40045,48.86388],[2.4003,48.86394],[2.4001,48.86401],[2.40004,48.86403],[2.39999,48.86405],[2.39994,48.86407],[2.39988,48.86409],[2.39984,48.86411],[2.39984,48.86411],[2.40058,48.86421],[2.40051,48.86415],[2.40055,48.86399],[2.40057,48.86394]],"quartier":"Père-Lachaise","story":"Emile Landrin (1841-1914), conseiller municipal de l'arrondissement.","image":{"provider":"panoramax","id":"5810f1ce-a217-49a0-aad7-05348659a305","lat":48.86415,"lng":2.4001,"sequenceId":"f20f3a55-a4ea-4f47-b581-a1e0b615fabf"}},{"kind":"street","id":"v:20:15728","name":"place François Béranger","arr":20,"lat":48.87081,"lng":2.4049,"themes":["places"],"shape":[[2.40493,48.87069],[2.4049,48.87068],[2.40484,48.87081],[2.40484,48.87082],[2.40484,48.87082],[2.40484,48.87083],[2.40485,48.87083],[2.40485,48.87084],[2.40486,48.87084],[2.40486,48.87085],[2.40487,48.87085],[2.40488,48.87085],[2.40489,48.87085],[2.4049,48.87085],[2.4049,48.87085],[2.40491,48.87085],[2.40492,48.87084],[2.40492,48.87084],[2.40504,48.87072],[2.40503,48.87072],[2.40493,48.87069]],"quartier":"Saint-Fargeau","story":"François Béranger (Amilly, 1937 – Sauve, 2003), auteur-compositeur-interprète."},{"kind":"street","id":"v:20:14712","name":"place Fréhel","arr":20,"lat":48.87306,"lng":2.38171,"themes":["places"],"shape":[[2.3819,48.87306],[2.38182,48.87305],[2.38164,48.87301],[2.3816,48.873],[2.38159,48.87303],[2.38158,48.87305],[2.38158,48.87306],[2.38156,48.8731],[2.38177,48.87315],[2.38187,48.87311],[2.3819,48.87306]],"quartier":"Belleville","lengthM":24,"story":"Marguerite Boulc'h, dite Fréhel (Paris, 1891-1951), célèbre chanteuse de Music-hall française, qui parut également dans quelques films marquants.","image":{"provider":"panoramax","id":"45cb28d4-af32-426c-a318-de67a8ee99fb","lat":48.87318,"lng":2.38157,"sequenceId":"04617823-5811-4837-b047-1bcb2f2b58d8"}},{"kind":"street","id":"v:20:10884","name":"place Gambetta","arr":20,"lat":48.86481,"lng":2.39858,"themes":["places"],"shape":[[2.39892,48.86516],[2.39905,48.86501],[2.39907,48.86502],[2.3991,48.865],[2.39906,48.86479],[2.39887,48.8646],[2.39864,48.86449],[2.39864,48.86449],[2.39864,48.8645],[2.39863,48.86451],[2.39863,48.86451],[2.39862,48.86451],[2.39862,48.86451],[2.39861,48.86451],[2.3986,48.86451],[2.39859,48.86451],[2.39859,48.86451],[2.39846,48.86452],[2.3983,48.86452],[2.39807,48.86461],[2.39797,48.86473],[2.39787,48.86484],[2.39789,48.86502],[2.39798,48.86511],[2.39808,48.86521],[2.39832,48.8653],[2.39856,48.86529],[2.39865,48.86529],[2.39893,48.8652],[2.39895,48.86517],[2.39892,48.86516]],"quartier":"Père-Lachaise","story":"Voisinage de l'avenue Gambetta.","image":{"provider":"panoramax","id":"15a65ecf-f31c-42f4-8990-553b5d3d7ea3","lat":48.8646,"lng":2.39871,"sequenceId":"751f0c08-6a1d-4dcb-8adb-afa9fa5ad09e"}},{"kind":"street","id":"v:20:14929","name":"place Henri Krasucki","arr":20,"lat":48.87283,"lng":2.38945,"themes":["places"],"shape":[[2.38948,48.87297],[2.38958,48.8729],[2.38958,48.87288],[2.38969,48.87269],[2.38952,48.87268],[2.38946,48.87268],[2.3893,48.87274],[2.38927,48.87276],[2.38929,48.87289],[2.3893,48.87293],[2.38948,48.87297]],"quartier":"Belleville","story":"Henri Krasucki (Wolomin, Pologne, 1924-Paris, 2003); résistant de la première heure à 15 ans, nommé en 1942 à la direction des organisations de jeunes de la section juive de la Main-d'Œuvre Immigrées du Parti Communiste.","image":{"provider":"panoramax","id":"d91186b7-d1d1-4303-b908-1313a53d5161","lat":48.87269,"lng":2.38939,"sequenceId":"04617823-5811-4837-b047-1bcb2f2b58d8"}},{"kind":"street","id":"v:20:15220","name":"place Henri Malberg","arr":20,"lat":48.87359,"lng":2.38993,"themes":["places"],"shape":[[2.39007,48.8735],[2.39002,48.87346],[2.39001,48.87346],[2.39,48.87346],[2.38999,48.87347],[2.3898,48.87362],[2.38961,48.87376],[2.38959,48.87378],[2.38963,48.8738],[2.38999,48.87367],[2.39014,48.87362],[2.39017,48.87357],[2.39007,48.8735]],"quartier":"Belleville","story":"Henri Malberg, né Henri Szwizgold (Paris, 1930 - Paris, 2017), homme politique. Enfant de Belleville et du 20e arrondissement où il a vécu toute sa vie. Président du Groupe communiste au Conseil de Paris","image":{"provider":"panoramax","id":"9e122015-f234-4b2e-a5d9-8109a34f474e","lat":48.87374,"lng":2.38961,"sequenceId":"04617823-5811-4837-b047-1bcb2f2b58d8"}},{"kind":"street","id":"v:20:11259","name":"place Henri Matisse","arr":20,"lat":48.86609,"lng":2.39103,"themes":["places","pedestrian"],"shape":[[2.3912,48.86594],[2.39102,48.86592],[2.39093,48.866],[2.39092,48.86602],[2.39089,48.8661],[2.39087,48.86615],[2.39083,48.86625],[2.39082,48.86629],[2.39081,48.86631],[2.39098,48.86633],[2.39141,48.86606],[2.39129,48.86597],[2.39125,48.86595],[2.3912,48.86594]],"quartier":"Père-Lachaise","lengthM":45,"story":"Henri Matisse (Le Cateau-Cambrésis, 1869-Nice, 1954), peintre, dessinateur et sculpteur français.","image":{"provider":"panoramax","id":"00fb7f41-414f-4f84-9c61-110142bef553","lat":48.86635,"lng":2.3908,"sequenceId":"05a8a27d-c3e1-4e35-b857-3b5c84ce2b7b"}},{"kind":"street","id":"v:20:14957","name":"place Joseph Epstein","arr":20,"lat":48.86492,"lng":2.39103,"themes":["places"],"shape":[[2.39116,48.86504],[2.39125,48.86479],[2.39116,48.86482],[2.39114,48.86482],[2.39098,48.86487],[2.39096,48.86485],[2.39093,48.86483],[2.39083,48.86489],[2.39083,48.86489],[2.39085,48.86491],[2.39107,48.86511],[2.39111,48.86509],[2.39116,48.86504]],"quartier":"Père-Lachaise","story":"Joseph Epstein (Zamosc(Pologne), 1911-Mont Valérien, 1944).Membre du parti communiste dès l'âge de 14 ans; émigré en France en 1931 ou il fait ses études de droits.","image":{"provider":"panoramax","id":"1788e44a-d845-4b74-ad75-181246afa6cf","lat":48.86484,"lng":2.3909,"sequenceId":"05a8a27d-c3e1-4e35-b857-3b5c84ce2b7b"}},{"kind":"street","id":"v:20:14718","name":"place Marc Bloch","arr":20,"lat":48.85435,"lng":2.40185,"themes":["places"],"shape":[[2.40176,48.8542],[2.40172,48.85419],[2.40157,48.85435],[2.4016,48.85436],[2.40165,48.85438],[2.40169,48.8544],[2.40171,48.85441],[2.40174,48.85443],[2.40184,48.85447],[2.40194,48.85451],[2.40195,48.85452],[2.40199,48.85454],[2.40201,48.85455],[2.40216,48.85438],[2.40215,48.85437],[2.40211,48.85436],[2.4021,48.85435],[2.40191,48.85427],[2.40189,48.85426],[2.40183,48.85423],[2.40181,48.85423],[2.40176,48.8542],[2.40176,48.8542]],"quartier":"Charonne","lengthM":41,"story":"Marc Bloch (Lyon, 1886-près de Trévoux, 1944), historien médiéviste français de réputation internationale, mobilisé pendant la guerre de 1914-1918, il sera blessé et la terminera avec le grade de capitaine.","image":{"provider":"panoramax","id":"6a80782d-6162-4c8e-ab0a-bb6ed52f044a","lat":48.8542,"lng":2.40166,"sequenceId":"eeead8c2-f314-47f6-8f15-dc4783d312fd"}},{"kind":"street","id":"v:20:12094","name":"place Marie de Miribel","arr":20,"lat":48.85562,"lng":2.40997,"themes":["places"],"shape":[[2.41002,48.85552],[2.40986,48.85555],[2.40985,48.85555],[2.40984,48.85555],[2.40983,48.85556],[2.40983,48.85556],[2.40982,48.85557],[2.40982,48.85557],[2.40982,48.85558],[2.40982,48.85559],[2.40982,48.85559],[2.40991,48.8557],[2.40992,48.85571],[2.40993,48.85572],[2.40994,48.85573],[2.40996,48.85573],[2.40997,48.85573],[2.40998,48.85573],[2.41,48.85573],[2.41001,48.85573],[2.41003,48.85573],[2.41004,48.85572],[2.41005,48.85571],[2.41006,48.8557],[2.41006,48.85569],[2.41008,48.85556],[2.41009,48.85556],[2.41008,48.85555],[2.41008,48.85554],[2.41007,48.85554],[2.41007,48.85553],[2.41006,48.85553],[2.41005,48.85553],[2.41004,48.85552],[2.41003,48.85552],[2.41002,48.85552]],"quartier":"Charonne","story":"Marie de Miribel (1872-1959), fondatrice des oeuvres sociales et hospitalières de la Croix Saint-Simon à Paris. Elle consacra sa vie au soulagement de la souffrance humaine.","image":{"provider":"panoramax","id":"219df5e6-f8e9-401a-9d6f-f79457fc6370","lat":48.85576,"lng":2.40996,"sequenceId":"930cd874-3067-42d5-a3c5-d50bd24634dd"}},{"kind":"street","id":"v:20:12132","name":"place Martin Nadaud","arr":20,"lat":48.86496,"lng":2.39462,"themes":["places"],"shape":[[2.39555,48.86484],[2.39456,48.86459],[2.39431,48.86475],[2.39417,48.86484],[2.39402,48.86495],[2.39395,48.86499],[2.39421,48.86516],[2.39435,48.86515],[2.3946,48.86514],[2.3949,48.86513],[2.39524,48.86512],[2.39555,48.86484]],"quartier":"Père-Lachaise","story":"Martin Nadaud (1815-1898), homme politique français.","image":{"provider":"panoramax","id":"74a99344-2445-488f-9008-211efdf3b378","lat":48.86504,"lng":2.39428,"sequenceId":"35d362aa-cb92-4196-994d-faf0b75c46ac"}},