{"arr":1,"streets":[{"kind":"street","id":"v:1:8954","name":"allée André Breton","arr":1,"lat":48.86236,"lng":2.34553,"themes":[],"shape":[[2.34553,48.86234],[2.34544,48.86202],[2.34527,48.86194],[2.34533,48.86204],[2.34548,48.86226],[2.34548,48.86226],[2.34548,48.86226],[2.34548,48.86226],[2.34548,48.86226],[2.34548,48.86226],[2.34546,48.86227],[2.34546,48.86228],[2.34545,48.86229],[2.34546,48.8623],[2.34546,48.86231],[2.34547,48.86232],[2.34548,48.86233],[2.34553,48.86234],[2.34559,48.86239],[2.34558,48.86247],[2.34558,48.86247],[2.34558,48.86247],[2.34558,48.86247],[2.34558,48.86247],[2.34558,48.86247],[2.34558,48.86247],[2.34559,48.86247],[2.34559,48.86247],[2.34559,48.86247],[2.34559,48.86247],[2.34559,48.86247],[2.34559,48.86247],[2.34591,48.8629],[2.34569,48.86248],[2.34565,48.86243],[2.34559,48.86239]],"quartier":"Halles","lengthM":106,"story":"André Breton (Tinchebray, (Orne), 1896-Paris, 1966), écrivain, poète et théoricien du surréalisme.","image":{"provider":"panoramax","id":"c36e4504-ea82-47e7-85fe-8c96422874b6","lat":48.86241,"lng":2.34558,"sequenceId":"72f93a45-a1b2-43ad-8a06-2ae89f59a529"}},{"kind":"street","id":"v:1:9348","name":"allée Blaise Cendrars","arr":1,"lat":48.86231,"lng":2.34402,"themes":[],"shape":[[2.34448,48.86222],[2.34445,48.86215],[2.34443,48.86217],[2.34309,48.86249],[2.34327,48.86255],[2.34327,48.86255],[2.34327,48.86253],[2.34328,48.86252],[2.34328,48.86252],[2.3433,48.86251],[2.34331,48.8625],[2.34331,48.86249],[2.34332,48.86248],[2.34332,48.86248],[2.34332,48.86247],[2.34364,48.86239],[2.34433,48.86223],[2.34448,48.86222],[2.34452,48.86217],[2.34459,48.86219],[2.34461,48.86219],[2.3446,48.86217],[2.34531,48.862],[2.34529,48.86197],[2.34472,48.86211],[2.34471,48.86209],[2.34455,48.86212],[2.34452,48.86217]],"quartier":"Halles","lengthM":171,"story":"Frédéric Sauser dit Blaise Cendrars (La Chaux-de-Fonds, 1887-Paris, 1961), écrivain français d'origine suisse.","image":{"provider":"panoramax","id":"bb2f30e3-76ee-46c4-bccf-cf225148e9c4","lat":48.8626,"lng":2.34326,"sequenceId":"0534ac09-ee10-41e4-9dd5-602377dd8777"}},{"kind":"street","id":"v:1:11584","name":"allée Jules Supervielle","arr":1,"lat":48.86218,"lng":2.34452,"themes":[],"shape":[[2.34452,48.86217],[2.34448,48.86222],[2.34453,48.86229],[2.3445,48.8623],[2.34458,48.86244],[2.3446,48.86243],[2.3447,48.86262],[2.34468,48.86262],[2.34469,48.86264],[2.34483,48.86261],[2.34482,48.86259],[2.3448,48.8626],[2.3447,48.86241],[2.34472,48.8624],[2.34465,48.86226],[2.34463,48.86227],[2.34459,48.86219],[2.34452,48.86217],[2.34445,48.86215],[2.34455,48.86212],[2.3445,48.86198],[2.34448,48.86197],[2.34447,48.86193],[2.34446,48.86192],[2.34446,48.86189],[2.34444,48.86188],[2.34442,48.86185],[2.34428,48.86186],[2.34429,48.86188],[2.34431,48.86191],[2.34431,48.86193],[2.34433,48.86195],[2.34433,48.86196],[2.34436,48.86201],[2.34436,48.86202],[2.34445,48.86215]],"quartier":"Halles","lengthM":90,"story":"Jules Supervielle (Montevideo, 1884-Paris, 1960), poète et romancier français.","image":{"provider":"panoramax","id":"5aaf1f83-a673-4c50-a02f-914096aadc50","lat":48.86215,"lng":2.34445,"sequenceId":"6e3ae92a-45f7-46ae-a0ea-3067ec4a4c90"}},{"kind":"street","id":"v:1:11906","name":"allée Louis Aragon","arr":1,"lat":48.8626,"lng":2.34375,"themes":[],"shape":[[2.34307,48.86325],[2.34333,48.86318],[2.34349,48.86305],[2.34382,48.86263],[2.34377,48.86259],[2.34374,48.86255],[2.34375,48.8625],[2.34381,48.86248],[2.34385,48.86245],[2.34391,48.86244],[2.34396,48.86244],[2.34401,48.86246],[2.34405,48.8625],[2.34406,48.86254],[2.34405,48.86257],[2.34408,48.86255],[2.34408,48.8625],[2.34404,48.86246],[2.344,48.86243],[2.34393,48.86242],[2.34385,48.86243],[2.34379,48.86245],[2.34376,48.86244],[2.34374,48.86243],[2.34371,48.86243],[2.34369,48.86243],[2.34367,48.86244],[2.34366,48.86246],[2.34366,48.86248],[2.34367,48.86249],[2.34369,48.8625],[2.3437,48.86253],[2.34372,48.8626],[2.34345,48.86303],[2.34331,48.86315],[2.34307,48.86325]],"quartier":"Halles","lengthM":119,"story":"Louis Aragon (Paris, 1897-Paris, 1982), écrivain et poète français.","image":{"provider":"panoramax","id":"de1c139f-bbaf-4eb1-822f-a790b6639bec","lat":48.86253,"lng":2.34395,"sequenceId":"95084bfa-375f-4298-880a-c65809e0972a"}},{"kind":"street","id":"v:1:12544","name":"avenue de l'Opéra","arr":1,"lat":48.86822,"lng":2.33327,"themes":[],"shape":[[2.33299,48.86848],[2.33361,48.86811],[2.33404,48.86711],[2.33443,48.86621],[2.33478,48.86538],[2.33514,48.86456],[2.33496,48.86398],[2.33449,48.86507],[2.33416,48.86585],[2.33376,48.86677],[2.33337,48.86768],[2.33299,48.86848],[2.33287,48.86922],[2.33274,48.86915],[2.33266,48.86931],[2.33261,48.86945],[2.33254,48.86961],[2.33237,48.86999],[2.33277,48.87006],[2.33301,48.8695],[2.33287,48.86922],[2.33287,48.86922],[2.33308,48.86933],[2.3333,48.86896],[2.33314,48.86871],[2.33282,48.86895],[2.33281,48.86896],[2.3328,48.86895],[2.3328,48.86896],[2.33276,48.86896],[2.33275,48.86896],[2.33274,48.86896],[2.33287,48.86922]],"quartier":"Gaillon","lengthM":698,"story":"Conduit au théâtre national de l'Opéra.","image":{"provider":"panoramax","id":"ae7c954b-c775-4347-9baf-bff0c9b6d205","lat":48.86968,"lng":2.33261,"sequenceId":"f1bde3d0-bf8d-4c42-ada0-883befd298b8"}},{"kind":"street","id":"v:1:10971","name":"avenue du Général Lemonnier","arr":1,"lat":48.86188,"lng":2.33072,"themes":[],"shape":[[2.33178,48.86374],[2.33222,48.8636],[2.33195,48.86322],[2.33169,48.8629],[2.33056,48.86135],[2.33054,48.8613],[2.33028,48.86096],[2.33027,48.86097],[2.33026,48.86097],[2.33024,48.86098],[2.33024,48.86097],[2.33023,48.86097],[2.33024,48.86097],[2.33023,48.86096],[2.33023,48.86096],[2.33023,48.86095],[2.33023,48.86094],[2.33023,48.86093],[2.33002,48.86088],[2.32995,48.86106],[2.32995,48.86106],[2.32996,48.86107],[2.32996,48.86107],[2.33048,48.8618],[2.33049,48.86179],[2.33049,48.86181],[2.33083,48.86227],[2.33085,48.86229],[2.33096,48.86244],[2.33096,48.86246],[2.3313,48.86293],[2.33132,48.86294],[2.33131,48.86294],[2.33172,48.86367],[2.33177,48.86373],[2.33178,48.86374]],"quartier":"Saint-Germain-l'Auxerrois","lengthM":317,"story":"Emile Lemonnier (1893-1945), général de brigade, tué en héros dans la région du Tonkin.","image":{"provider":"panoramax","id":"d5c84191-ddb2-41b0-b845-65f522176cc5","lat":48.86089,"lng":2.33003,"sequenceId":"9fe7f3ab-14e3-4174-8731-b06e31d9577b"}},{"kind":"street","id":"v:1:14042","name":"avenue Victoria","arr":1,"lat":48.85731,"lng":2.34922,"themes":[],"shape":[[2.34912,48.85749],[2.34897,48.85724],[2.348,48.85751],[2.34799,48.85751],[2.34788,48.85754],[2.34683,48.85783],[2.34597,48.85835],[2.34647,48.85822],[2.34702,48.85807],[2.3481,48.85777],[2.34832,48.85771],[2.34912,48.85749],[2.34978,48.85694],[2.34982,48.85717],[2.35011,48.85726],[2.35099,48.85698],[2.35102,48.85699],[2.35086,48.8567],[2.35085,48.85672],[2.35061,48.85679],[2.35041,48.85685],[2.35018,48.85691],[2.34993,48.85697],[2.34978,48.85694],[2.34925,48.85731],[2.34948,48.85746],[2.34953,48.85738],[2.34957,48.85737],[2.34969,48.85733],[2.34982,48.85717],[2.34965,48.85698],[2.34956,48.85708],[2.3494,48.85712],[2.34925,48.85731]],"quartier":"Saint-Germain-l'Auxerrois","lengthM":400,"story":"En souvenir de la réception de la reine d'Angleterre Victoria à l'Hôtel de Ville (23 août 1855).","image":{"provider":"panoramax","id":"39801e23-137e-4430-b024-62669258a6b5","lat":48.85679,"lng":2.35098,"sequenceId":"d4014881-3293-4d29-b642-bbf4b3322066"}},{"kind":"street","id":"v:1:9156","name":"balcon Saint-Eustache","arr":1,"lat":48.86169,"lng":2.34673,"themes":["pedestrian"],"shape":[[2.3466,48.86204],[2.34638,48.86164],[2.34647,48.86163],[2.34646,48.8616],[2.34657,48.86157],[2.34658,48.8616],[2.34661,48.86159],[2.3466,48.86157],[2.34671,48.86154],[2.34673,48.86156],[2.34676,48.86156],[2.34674,48.86153],[2.34686,48.8615],[2.34687,48.86153],[2.3469,48.86152],[2.3469,48.86149],[2.34696,48.86148],[2.34697,48.86149],[2.34714,48.8618],[2.34706,48.86182],[2.34709,48.86189],[2.34715,48.86187],[2.34717,48.86191],[2.34724,48.8619],[2.34701,48.86148],[2.34699,48.86144],[2.3466,48.86153],[2.34639,48.86158],[2.34629,48.8616],[2.34644,48.86187],[2.3464,48.86188],[2.34643,48.86194],[2.34647,48.86193],[2.34653,48.86206],[2.3466,48.86204]],"quartier":"Halles","lengthM":154,"story":"Voie créée lors de l'aménagement du secteur Forum Central des Halles.","image":{"provider":"panoramax","id":"a43577f5-0493-4db9-bd77-c6dde055ceff","lat":48.86122,"lng":2.34694,"sequenceId":"9299455a-53c6-4bde-be4c-677366f3946b"}},{"kind":"street","id":"v:1:11978","name":"boulevard de la Madeleine","arr":1,"lat":48.86966,"lng":2.3263,"themes":[],"shape":[[2.32773,48.8701],[2.3279,48.86974],[2.32759,48.86968],[2.32728,48.86963],[2.3271,48.8696],[2.32688,48.86956],[2.32662,48.86952],[2.32636,48.86947],[2.32627,48.86946],[2.32612,48.86943],[2.32573,48.86937],[2.32557,48.86934],[2.32539,48.86931],[2.32537,48.8693],[2.32513,48.86926],[2.32503,48.86925],[2.32485,48.86922],[2.32526,48.86978],[2.32544,48.86972],[2.32548,48.86973],[2.3255,48.86973],[2.3255,48.86973],[2.32564,48.86975],[2.32577,48.86977],[2.32602,48.86982],[2.32644,48.86989],[2.32665,48.86993],[2.32742,48.87006],[2.32769,48.87011],[2.32772,48.87012],[2.32773,48.8701]],"quartier":"Chaussée-d'Antin","lengthM":220,"story":"Voisinage de l'église de la Madeleine.","image":{"provider":"panoramax","id":"fbbbe2db-4192-41f7-a6bf-20f8d983ce99","lat":48.86938,"lng":2.32503,"sequenceId":"905d4ab0-0ab6-4753-a666-190b8d130dd8"}},{"kind":"street","id":"v:1:13413","name":"boulevard de Sébastopol","arr":1,"lat":48.86356,"lng":2.35103,"themes":[],"shape":[[2.35253,48.86624],[2.35346,48.86831],[2.35335,48.86733],[2.35253,48.86624],[2.35016,48.86199],[2.35047,48.86293],[2.35159,48.86417],[2.35016,48.86199],[2.34908,48.86006],[2.34969,48.86155],[2.34997,48.86126],[2.34908,48.86006],[2.34823,48.85852],[2.34856,48.85952],[2.34877,48.85912],[2.34823,48.85852],[2.35197,48.86526],[2.35222,48.86608],[2.35267,48.86609],[2.35197,48.86526],[2.35156,48.86442],[2.35197,48.86483],[2.3519,48.86472],[2.35156,48.86442],[2.34795,48.85849],[2.34832,48.85831],[2.34766,48.85791],[2.34795,48.85849],[2.34878,48.85953],[2.34882,48.85999],[2.34917,48.85984],[2.34878,48.85953],[2.35404,48.86893],[2.35397,48.8692],[2.35436,48.86912],[2.35404,48.86893],[2.3539,48.86868],[2.35381,48.8689],[2.3542,48.86883],[2.3539,48.86868]],"quartier":"Arts et Metiers","lengthM":1332,"story":"Port de guerre de Crimée pris par l'armée anglo-française, après un long siège, le 8 septembre 1855.","image":{"provider":"panoramax","id":"ba939af5-9795-4403-ae31-78adb7d58ed4","lat":48.86444,"lng":2.35153,"sequenceId":"f842e7c2-53f5-41ea-b221-4c1ee8ad5d9d"}},{"kind":"street","id":"v:1:12600","name":"boulevard du Palais","arr":1,"lat":48.85524,"lng":2.34585,"themes":[],"shape":[[2.34659,48.856],[2.34654,48.85593],[2.34651,48.85589],[2.34649,48.85584],[2.34644,48.85577],[2.34639,48.85568],[2.34637,48.85564],[2.34634,48.8556],[2.34631,48.85555],[2.34602,48.8552],[2.34596,48.85513],[2.34593,48.85511],[2.3459,48.85508],[2.34586,48.85504],[2.34574,48.85488],[2.3457,48.85485],[2.34554,48.85469],[2.3455,48.85466],[2.34538,48.85457],[2.34533,48.85452],[2.34528,48.85448],[2.34525,48.85445],[2.3452,48.8544],[2.34491,48.85435],[2.34482,48.85451],[2.34511,48.85481],[2.34534,48.85502],[2.34538,48.85506],[2.34558,48.85525],[2.34563,48.8553],[2.34587,48.85563],[2.34594,48.85569],[2.34596,48.85573],[2.34627,48.8562],[2.34662,48.85606],[2.34659,48.856]],"quartier":"Notre-Dame","lengthM":220,"story":"Situé devant le Palais de Justice.","image":{"provider":"panoramax","id":"d229ce5a-ff30-4187-a6c4-bb8fcfb639fb","lat":48.8546,"lng":2.34533,"sequenceId":"5f7334e8-507b-4dee-b6c4-4581ff7be511"}},{"kind":"street","id":"v:1:10689","name":"cour des Fermes","arr":1,"lat":48.86358,"lng":2.34166,"themes":[],"shape":[[2.34118,48.86372],[2.34118,48.86372],[2.34119,48.86372],[2.34131,48.86369],[2.34134,48.8637],[2.34147,48.86367],[2.34175,48.86365],[2.34188,48.86357],[2.34188,48.86356],[2.3419,48.86356],[2.3419,48.86357],[2.342,48.86354],[2.34199,48.86354],[2.342,48.86353],[2.34202,48.86353],[2.34202,48.86353],[2.34199,48.86347],[2.34199,48.86347],[2.34199,48.86347],[2.34198,48.86347],[2.34197,48.86348],[2.34196,48.86348],[2.34196,48.86347],[2.34186,48.86349],[2.34186,48.86349],[2.34186,48.8635],[2.34185,48.86349],[2.34167,48.86348],[2.34141,48.86354],[2.3413,48.86362],[2.34129,48.86363],[2.34128,48.86364],[2.3411,48.86367],[2.3411,48.86368],[2.3411,48.86368],[2.34118,48.86372]],"quartier":"Halles","lengthM":72,"story":"Emplacement de la cour de l'ancien Hôtel des Fermes du Royaume.","image":{"provider":"panoramax","id":"83511e9b-c88f-42a6-82e5-db6c314f06f9","lat":48.86345,"lng":2.34204,"sequenceId":"64065a9c-ea2b-42bc-bab8-069543494dda"}},{"kind":"street","id":"v:1:13981","name":"cour Vendôme","arr":1,"lat":48.86711,"lng":2.32803,"themes":[],"shape":[[2.3282,48.86732],[2.3282,48.86731],[2.32834,48.86733],[2.32837,48.86724],[2.32823,48.86722],[2.32823,48.86721],[2.32823,48.86721],[2.32807,48.86704],[2.32803,48.86701],[2.32802,48.86701],[2.32802,48.86701],[2.32801,48.86701],[2.32801,48.86701],[2.328,48.86701],[2.32799,48.86701],[2.32798,48.867],[2.32798,48.867],[2.32798,48.867],[2.32793,48.86695],[2.32784,48.86698],[2.32789,48.86703],[2.32789,48.86704],[2.32789,48.86704],[2.3279,48.86705],[2.3279,48.86705],[2.3279,48.86706],[2.32789,48.86706],[2.32789,48.86706],[2.32789,48.86707],[2.32789,48.86707],[2.32788,48.86707],[2.32791,48.86711],[2.32809,48.86729],[2.32815,48.86734],[2.3282,48.86732],[2.3282,48.86732]],"quartier":"Place Vendôme","lengthM":52,"story":"Voisinage de la place Vendôme.","image":{"provider":"panoramax","id":"3d370564-ad01-49b2-a7ac-8cfae8c8fd6d","lat":48.86692,"lng":2.32792,"sequenceId":"dd8a28ba-5719-4737-a190-ed5267f1379f"}},{"kind":"street","id":"v:1:12562","name":"galerie d'Orléans","arr":1,"lat":48.86392,"lng":2.33733,"themes":["passages"],"shape":[[2.33771,48.86391],[2.33761,48.86373],[2.33676,48.86392],[2.33686,48.86411],[2.33771,48.86391]],"quartier":"Palais-Royal","lengthM":66,"story":"Construite en 1829 par ordre du duc d'Orléans, qui régna sous le nom de Louis-Philippe.","image":{"provider":"panoramax","id":"43f254a5-4e73-4cf9-a0ce-0ad26a062b06","lat":48.86411,"lng":2.33646,"sequenceId":"9fe7f3ab-14e3-4174-8731-b06e31d9577b"}},{"kind":"street","id":"v:1:9226","name":"galerie de Beaujolais","arr":1,"lat":48.86598,"lng":2.3383,"themes":["passages"],"shape":[[2.33788,48.8661],[2.33793,48.86609],[2.33801,48.86607],[2.33804,48.86606],[2.3381,48.86605],[2.33817,48.86603],[2.33821,48.86602],[2.33826,48.86601],[2.33833,48.866],[2.33837,48.86598],[2.33842,48.86597],[2.33848,48.86596],[2.33853,48.86595],[2.33857,48.86594],[2.33862,48.86592],[2.33869,48.86591],[2.33873,48.8659],[2.33877,48.86586],[2.33871,48.86587],[2.33865,48.86588],[2.33861,48.86589],[2.33855,48.86591],[2.33851,48.86592],[2.33844,48.86593],[2.3384,48.86594],[2.33835,48.86595],[2.33828,48.86597],[2.33823,48.86598],[2.33819,48.86599],[2.33812,48.86601],[2.33808,48.86602],[2.33803,48.86603],[2.33796,48.86605],[2.33791,48.86606],[2.33786,48.86607],[2.33788,48.8661]],"quartier":"Palais-Royal","lengthM":70,"story":"Voisinage de la rue de Beaujolais.","image":{"provider":"panoramax","id":"1f38ebe9-f9d8-4b3d-bbd1-26c6191c1ffe","lat":48.86605,"lng":2.33875,"sequenceId":"600d5cee-5328-4dd4-8838-5f27ef85aa59"}},{"kind":"street","id":"v:1:9806","name":"galerie de Chartres","arr":1,"lat":48.8636,"lng":2.33659,"themes":["passages"],"shape":[[2.33686,48.86411],[2.33664,48.86369],[2.33653,48.86346],[2.33658,48.86345],[2.33658,48.86344],[2.33657,48.86343],[2.33657,48.86342],[2.33655,48.86338],[2.33655,48.86338],[2.33654,48.86337],[2.33654,48.86336],[2.33653,48.86335],[2.33653,48.86334],[2.33651,48.86334],[2.33642,48.86336],[2.33643,48.86338],[2.33643,48.86338],[2.33649,48.86348],[2.3365,48.86349],[2.33651,48.86352],[2.33652,48.86354],[2.33653,48.86357],[2.33654,48.86359],[2.33656,48.86361],[2.33657,48.86364],[2.3366,48.86371],[2.33662,48.86375],[2.33664,48.86377],[2.33665,48.86379],[2.33666,48.86382],[2.33667,48.86384],[2.33669,48.86386],[2.3367,48.86389],[2.33671,48.86391],[2.33672,48.86393],[2.33686,48.86411]],"quartier":"Palais-Royal","lengthM":68,"story":"Galerie neuve du Palais Royal, ainsi nommée en l'honneur du duc de Chartres, puis duc d'Orléans, fils du roi Louis-Philippe.","image":{"provider":"panoramax","id":"57f12bd4-0ba8-4037-8471-faf67f13a264","lat":48.86381,"lng":2.33629,"sequenceId":"9fe7f3ab-14e3-4174-8731-b06e31d9577b"}},{"kind":"street","id":"v:1:10067","name":"galerie de la Cour d'Honneur","arr":1,"lat":48.86379,"lng":2.33726,"themes":["passages"],"shape":[[2.33761,48.86373],[2.3376,48.8637],[2.33674,48.86389],[2.33676,48.86392],[2.33761,48.86373]],"quartier":"Palais-Royal","lengthM":67,"story":"Cette galerie longe la cour d'honneur du Palais Royal.","image":{"provider":"panoramax","id":"cf694251-34f7-4cfb-9b44-88dc13c2d9bc","lat":48.86362,"lng":2.33695,"sequenceId":"ab0677c5-01bd-4b8c-bc0f-51093d38885a"}},{"kind":"street","id":"v:1:12357","name":"galerie de Montpensier","arr":1,"lat":48.86523,"lng":2.33723,"themes":["passages"],"shape":[[2.33775,48.86628],[2.33769,48.86605],[2.33763,48.86594],[2.33756,48.86581],[2.3375,48.8657],[2.33744,48.86557],[2.33738,48.86546],[2.33732,48.86534],[2.33725,48.86521],[2.3372,48.8651],[2.33714,48.86499],[2.33707,48.86486],[2.33701,48.86475],[2.33695,48.86463],[2.33689,48.86453],[2.33683,48.8644],[2.33677,48.86428],[2.33664,48.86415],[2.33672,48.86429],[2.33678,48.86441],[2.33684,48.86454],[2.3369,48.86465],[2.33696,48.86476],[2.33702,48.86487],[2.33708,48.865],[2.33714,48.86511],[2.3372,48.86522],[2.33726,48.86533],[2.33732,48.86546],[2.33739,48.86558],[2.33744,48.86569],[2.33751,48.86582],[2.33757,48.86593],[2.33763,48.86606],[2.33769,48.86618],[2.33775,48.86628]],"quartier":"Palais-Royal","lengthM":227,"story":"Voisinage de la rue de Montpensier.","image":{"provider":"panoramax","id":"a6fda2d3-63f4-4cd1-b86c-36fc508366e9","lat":48.86437,"lng":2.3366,"sequenceId":"9fe7f3ab-14e3-4174-8731-b06e31d9577b"}},{"kind":"street","id":"v:1:12451","name":"galerie de Nemours","arr":1,"lat":48.86318,"lng":2.33651,"themes":["passages"],"shape":[[2.33652,48.86333],[2.33653,48.86333],[2.33657,48.86332],[2.33658,48.86332],[2.33661,48.86331],[2.33659,48.86328],[2.33658,48.86326],[2.33657,48.86324],[2.33656,48.86322],[2.33654,48.86319],[2.33654,48.86318],[2.33653,48.86316],[2.33651,48.86313],[2.3365,48.86311],[2.33649,48.86309],[2.33648,48.86306],[2.33648,48.86305],[2.33651,48.86302],[2.3365,48.86301],[2.33648,48.86302],[2.33647,48.86303],[2.33646,48.86304],[2.33644,48.86306],[2.33643,48.86307],[2.33645,48.8631],[2.33646,48.86312],[2.33647,48.86314],[2.33649,48.86316],[2.3365,48.86319],[2.33651,48.8632],[2.33652,48.86322],[2.33653,48.86325],[2.33654,48.86327],[2.33655,48.86329],[2.33642,48.86335],[2.33652,48.86333]],"quartier":"Palais-Royal","lengthM":38,"story":"Le duc de Nemours, fils de Louis-Philippe.","image":{"provider":"panoramax","id":"821115dc-bfff-4e10-bbc7-0b1596396a8f","lat":48.86294,"lng":2.3365,"sequenceId":"6bd4b011-272e-4ca2-ad27-5b3a24367e8b"}},{"kind":"street","id":"v:1:13940","name":"galerie de Valois","arr":1,"lat":48.86493,"lng":2.33846,"themes":["passages"],"shape":[[2.33906,48.86597],[2.33898,48.86584],[2.33892,48.86573],[2.33885,48.8656],[2.33879,48.86548],[2.33872,48.86535],[2.33866,48.86525],[2.3386,48.86513],[2.33854,48.865],[2.33847,48.86489],[2.33841,48.86478],[2.33835,48.86465],[2.33828,48.86454],[2.33823,48.86443],[2.33816,48.8643],[2.33809,48.86419],[2.33804,48.86408],[2.33796,48.86395],[2.33788,48.8639],[2.33794,48.86402],[2.338,48.86412],[2.33807,48.86425],[2.33813,48.86437],[2.3382,48.86449],[2.33826,48.8646],[2.33832,48.86472],[2.33838,48.86483],[2.33845,48.86496],[2.33851,48.86507],[2.33858,48.8652],[2.33864,48.86531],[2.3387,48.86542],[2.33877,48.86555],[2.33883,48.86567],[2.33889,48.86577],[2.33906,48.86597]],"quartier":"Palais-Royal","lengthM":255,"story":"Ainsi nommée en l'honneur du duc de Valois, fils aîné du duc d'Orléans (Louis-Philippe)","image":{"provider":"panoramax","id":"2ac08270-b036-4828-81c3-8256542e3ffb","lat":48.86382,"lng":2.33809,"sequenceId":"916c5369-3293-4425-95f9-8353471fdacd"}},{"kind":"street","id":"v:1:13077","name":"galerie des Proues","arr":1,"lat":48.86364,"lng":2.3376,"themes":["passages"],"shape":[[2.33765,48.86372],[2.33765,48.86371],[2.33765,48.86372],[2.33765,48.86371],[2.33765,48.86371],[2.33765,48.86371],[2.33765,48.86371],[2.33764,48.86369],[2.33764,48.86369],[2.33764,48.86369],[2.33764,48.86368],[2.33763,48.86367],[2.33763,48.86367],[2.33762,48.86366],[2.33763,48.86366],[2.33762,48.86364],[2.33762,48.86364],[2.33761,48.86364],[2.33761,48.86364],[2.3375,48.86343],[2.33749,48.86341],[2.33742,48.86327],[2.33739,48.86327],[2.33739,48.86328],[2.33738,48.86328],[2.3376,48.8637],[2.33761,48.86373],[2.33771,48.86391],[2.33775,48.86391],[2.33774,48.86388],[2.33765,48.86372]],"quartier":"Palais-Royal","lengthM":42,"story":"Galerie de la cour du Palais Royal où l'on voit les proues de navires dont était décoré le palais du cardinal de Richelieu, chef et surintendant général de la navigation.","image":{"provider":"panoramax","id":"5bb974dc-84dc-4cf3-942e-cbde9efbe4c2","lat":48.86349,"lng":2.33791,"sequenceId":"6bd4b011-272e-4ca2-ad27-5b3a24367e8b"}},{"kind":"street","id":"v:1:11411","name":"galerie du Jardin","arr":1,"lat":48.86404,"lng":2.33731,"themes":["passages"],"shape":[[2.33672,48.86418],[2.33675,48.86417],[2.3368,48.86416],[2.33683,48.86415],[2.33686,48.86414],[2.3369,48.86413],[2.33694,48.86412],[2.33698,48.86411],[2.33699,48.86411],[2.33703,48.8641],[2.33708,48.86409],[2.33712,48.86408],[2.33716,48.86407],[2.33719,48.86407],[2.33723,48.86406],[2.33727,48.86405],[2.33731,48.86404],[2.33732,48.86403],[2.33736,48.86402],[2.33741,48.86402],[2.33745,48.86401],[2.33748,48.864],[2.33752,48.86399],[2.33756,48.86398],[2.3376,48.86397],[2.33764,48.86396],[2.33765,48.86396],[2.33769,48.86395],[2.33773,48.86394],[2.33778,48.86393],[2.33781,48.86392],[2.33785,48.86392],[2.33788,48.86391],[2.33787,48.86388],[2.33771,48.86391],[2.33672,48.86418]],"quartier":"Palais-Royal","lengthM":67,"story":"Cette galerie conduit au jardin du Palais Royal.","image":{"provider":"panoramax","id":"200a3dee-8fbc-4429-ba62-45e963950ab1","lat":48.86418,"lng":2.33737,"sequenceId":"efd10d6e-7408-4f8f-a0a5-2cd464622541"}},{"kind":"street","id":"v:1:13779","name":"galerie du Théâtre Français","arr":1,"lat":48.86346,"lng":2.33599,"themes":["passages"],"shape":[[2.33598,48.86378],[2.33587,48.86339],[2.3363,48.86338],[2.3364,48.86332],[2.33636,48.86333],[2.33631,48.86332],[2.3363,48.86329],[2.33628,48.86327],[2.33623,48.86328],[2.3362,48.86329],[2.33614,48.8633],[2.33611,48.86331],[2.33607,48.86331],[2.33603,48.86332],[2.33599,48.86333],[2.33596,48.86334],[2.33589,48.86335],[2.33586,48.86336],[2.33582,48.86337],[2.33582,48.8634],[2.33583,48.86342],[2.33584,48.86344],[2.3358,48.86345],[2.33577,48.86347],[2.33579,48.86351],[2.3358,48.86353],[2.33581,48.86355],[2.33582,48.86358],[2.33584,48.86361],[2.33585,48.86363],[2.33587,48.86367],[2.33588,48.86369],[2.33589,48.86371],[2.33591,48.86374],[2.33592,48.86377],[2.33598,48.86378]],"quartier":"Palais-Royal","lengthM":120,"story":"Galerie contiguë au Théâtre Français.","image":{"provider":"panoramax","id":"6b613f6c-99e9-4aba-a11d-fab7197630be","lat":48.86326,"lng":2.33579,"sequenceId":"6bd4b011-272e-4ca2-ad27-5b3a24367e8b"}},{"kind":"street","id":"v:1:14007","name":"galerie Véro-Dodat","arr":1,"lat":48.86282,"lng":2.34019,"themes":["passages"],"shape":[[2.33974,48.863],[2.33981,48.86298],[2.33998,48.86292],[2.34009,48.86288],[2.34028,48.86282],[2.34038,48.86278],[2.34057,48.86272],[2.34071,48.86267],[2.3407,48.86266],[2.34071,48.86266],[2.34067,48.86264],[2.34067,48.86265],[2.34066,48.86264],[2.34054,48.86268],[2.34049,48.8627],[2.3404,48.86273],[2.34035,48.86275],[2.34025,48.86278],[2.34006,48.86285],[2.33996,48.86288],[2.33978,48.86294],[2.33969,48.86298],[2.3397,48.86298],[2.33969,48.86298],[2.33972,48.863],[2.33973,48.863],[2.33974,48.863]],"quartier":"Halles","lengthM":80,"story":"MM. Véro et Dodat, créateurs du passage.","image":{"provider":"panoramax","id":"a8b866ad-98cf-48f8-b17b-6796a9ef36d3","lat":48.86257,"lng":2.34062,"sequenceId":"885a8d86-bc6e-481d-b17a-b5ae5325f53f"}},{"kind":"street","id":"v:1:11102","name":"Grand Balcon","arr":1,"lat":48.86189,"lng":2.34657,"themes":["pedestrian"],"shape":[[2.34746,48.8622],[2.34706,48.86144],[2.3472,48.86141],[2.34697,48.86136],[2.34699,48.86139],[2.34658,48.86149],[2.34643,48.86153],[2.34637,48.86154],[2.34626,48.86157],[2.34633,48.86167],[2.34635,48.86171],[2.34633,48.86171],[2.34633,48.86174],[2.34632,48.86175],[2.34631,48.86176],[2.34628,48.86177],[2.3463,48.86181],[2.34632,48.86181],[2.34633,48.86181],[2.34635,48.86181],[2.34637,48.86182],[2.34641,48.86182],[2.34657,48.86212],[2.34655,48.86212],[2.34655,48.86214],[2.34655,48.86215],[2.34653,48.86217],[2.34652,48.86222],[2.34654,48.86222],[2.34656,48.86222],[2.34659,48.86223],[2.3466,48.86224],[2.34663,48.86223],[2.34665,48.8623],[2.34669,48.86238],[2.34746,48.8622]],"quartier":"Halles","lengthM":300,"story":"Balcon couvert faisant le tour de la place Basse.","image":{"provider":"panoramax","id":"70e8bb71-b565-4466-8af1-1b69c7021a93","lat":48.86185,"lng":2.34646,"sequenceId":"079f1610-8f9e-411a-9b1d-da279569fd1b"}},{"kind":"street","id":"v:1:9439","name":"impasse des Bourdonnais","arr":1,"lat":48.86049,"lng":2.34518,"themes":["pedestrian"],"shape":[[2.34543,48.86045],[2.3454,48.86041],[2.3454,48.86042],[2.34533,48.86044],[2.34533,48.86044],[2.34532,48.86044],[2.34532,48.86044],[2.34531,48.86044],[2.34513,48.86049],[2.34513,48.86049],[2.34512,48.86049],[2.34498,48.86052],[2.34487,48.86054],[2.34489,48.86057],[2.34493,48.86057],[2.34493,48.86056],[2.34495,48.86056],[2.34505,48.86054],[2.34512,48.86052],[2.34531,48.86049],[2.34543,48.86045]],"quartier":"Halles","lengthM":42,"story":"Voisinage de la rue des Bourdonnais.","image":{"provider":"panoramax","id":"22963d61-067e-4962-b73d-e95a5620b45a","lat":48.86029,"lng":2.34537,"sequenceId":"600d5cee-5328-4dd4-8838-5f27ef85aa59"}},{"kind":"street","id":"v:1:13891","name":"impasse des Trois Visages","arr":1,"lat":48.85919,"lng":2.34452,"themes":[],"shape":[[2.34462,48.85916],[2.34462,48.85914],[2.3446,48.85915],[2.34452,48.85918],[2.34448,48.8592],[2.34443,48.85922],[2.34443,48.85922],[2.34439,48.85923],[2.34443,48.85924],[2.34455,48.85919],[2.34456,48.85918],[2.34462,48.85916]],"quartier":"Saint-Germain-l'Auxerrois","lengthM":18,"story":"On voyait autrefois trois têtes sculptées à son extrémité.","image":{"provider":"panoramax","id":"d808f628-a0b9-420d-8e1b-ba82eb9d2b7e","lat":48.85927,"lng":2.34438,"sequenceId":"600d5cee-5328-4dd4-8838-5f27ef85aa59"}},{"kind":"street","id":"v:1:11079","name":"impasse Gomboust","arr":1,"lat":48.86765,"lng":2.33143,"themes":["pedestrian"],"shape":[[2.33163,48.86765],[2.33157,48.86756],[2.33137,48.86761],[2.33121,48.86764],[2.33122,48.86766],[2.33126,48.86772],[2.33144,48.86769],[2.33151,48.86767],[2.33163,48.86765]],"quartier":"Place Vendôme","lengthM":29,"story":"Voisinage de la rue Gomboust.","image":{"provider":"panoramax","id":"d43b99cf-99e7-45bb-9c34-3c6da0c48a59","lat":48.86799,"lng":2.33129,"sequenceId":"da1fc442-983f-44b4-99ad-1a3679240fa0"}},{"kind":"street","id":"v:1:13585","name":"impasse Saint-Eustache","arr":1,"lat":48.86371,"lng":2.34537,"themes":[],"shape":[[2.34554,48.86382],[2.34557,48.86378],[2.34556,48.86378],[2.34534,48.86367],[2.34534,48.86367],[2.34531,48.86365],[2.34531,48.86365],[2.34525,48.86362],[2.34521,48.86365],[2.34521,48.86365],[2.34525,48.86367],[2.34534,48.86372],[2.34536,48.86373],[2.34538,48.86374],[2.34545,48.86378],[2.34554,48.86382]],"quartier":"Halles","lengthM":36,"story":"Voisinage de l'église Saint-Eustache.","image":{"provider":"panoramax","id":"c5d89d18-802c-4715-8eac-c8ca12ac3b24","lat":48.86365,"lng":2.34522,"sequenceId":"d3606336-6f2a-4175-bf35-bc11a92cb6fa"}},{"kind":"street","id":"v:1:9007","name":"passage Antoine Carême","arr":1,"lat":48.86103,"lng":2.34582,"themes":["passages"],"shape":[[2.346,48.86108],[2.34603,48.86107],[2.34606,48.86106],[2.34609,48.86108],[2.34609,48.86107],[2.34606,48.861],[2.34604,48.86101],[2.34603,48.86103],[2.3459,48.86106],[2.34583,48.86107],[2.34582,48.86107],[2.3458,48.86107],[2.34572,48.86104],[2.34572,48.86104],[2.3457,48.86099],[2.34572,48.86096],[2.34575,48.86091],[2.3457,48.86092],[2.3456,48.86095],[2.3456,48.86095],[2.3456,48.86096],[2.34561,48.86097],[2.34563,48.86101],[2.34565,48.86105],[2.34566,48.86107],[2.34567,48.86107],[2.34569,48.86108],[2.34583,48.86112],[2.34593,48.86109],[2.346,48.86108]],"quartier":"Halles","lengthM":42,"story":"Marie, Antoine Carême (Paris, 1784-Paris, 1833), célèbre cuisinier et gastronome français.","image":{"provider":"panoramax","id":"c0765ac6-bf33-49b9-ae6e-e25d6252f308","lat":48.86083,"lng":2.34573,"sequenceId":"a3a71f66-1fd0-469c-aa1b-81c6b68f62c6"}},{"kind":"street","id":"v:1:9227","name":"passage de Beaujolais","arr":1,"lat":48.86637,"lng":2.33739,"themes":["passages"],"shape":[[2.33732,48.86639],[2.3374,48.86637],[2.3374,48.86638],[2.33744,48.86637],[2.33746,48.86638],[2.33748,48.86637],[2.33749,48.86637],[2.33753,48.86636],[2.33752,48.86634],[2.33744,48.86635],[2.33742,48.86635],[2.33741,48.86633],[2.33738,48.86633],[2.33739,48.86635],[2.33731,48.86637],[2.33731,48.86637],[2.3373,48.86637],[2.33729,48.86637],[2.33731,48.8664],[2.33731,48.8664],[2.33732,48.86639],[2.33732,48.86639]],"quartier":"Palais-Royal","lengthM":17,"story":"Voisinage de la rue de Beaujolais.","image":{"provider":"panoramax","id":"cf118ec4-110b-4b2f-8974-a02611b49632","lat":48.86637,"lng":2.3373,"sequenceId":"dd8a28ba-5719-4737-a190-ed5267f1379f"}},{"kind":"street","id":"v:1:15031","name":"passage de la Canopée","arr":1,"lat":48.86197,"lng":2.34662,"themes":["passages","pedestrian"],"shape":[[2.34713,48.86228],[2.3467,48.86147],[2.34621,48.86158],[2.34618,48.86158],[2.34614,48.86157],[2.34611,48.86156],[2.34608,48.86154],[2.34622,48.8618],[2.34625,48.86179],[2.34625,48.86179],[2.34625,48.86179],[2.34626,48.86179],[2.34635,48.86171],[2.34636,48.8617],[2.34656,48.86166],[2.34682,48.86164],[2.347,48.86165],[2.34701,48.86166],[2.3472,48.86199],[2.3472,48.862],[2.3472,48.86201],[2.34719,48.86202],[2.34706,48.8621],[2.34684,48.86219],[2.34665,48.86224],[2.34664,48.86224],[2.34663,48.86224],[2.34649,48.86221],[2.34647,48.86221],[2.34657,48.86247],[2.34658,48.86247],[2.34659,48.86245],[2.3466,48.86242],[2.34662,48.86241],[2.34665,48.86239],[2.34713,48.86228]],"quartier":"Halles","story":"Appellation donnée pour la mise en valeur du projet majeur de réaménagement du quartier des Halles.","image":{"provider":"panoramax","id":"ef127d98-5029-451e-8d89-589a9a407b6e","lat":48.8617,"lng":2.34749,"sequenceId":"da0b0069-f8c8-454c-b38d-33cd77b167b6"}},{"kind":"street","id":"v:1:10065","name":"passage de la Cour des Fontaines","arr":1,"lat":48.8634,"lng":2.33759,"themes":["passages"],"shape":[[2.3375,48.86343],[2.33751,48.86343],[2.33751,48.86343],[2.33752,48.86343],[2.33752,48.86343],[2.33774,48.86337],[2.33774,48.86337],[2.33776,48.86337],[2.33775,48.86334],[2.33773,48.86335],[2.33773,48.86335],[2.3375,48.8634],[2.3375,48.8634],[2.3375,48.86341],[2.3375,48.86341],[2.33749,48.86341],[2.3375,48.86343]],"quartier":"Palais-Royal","lengthM":35,"story":"Voisinage de l'ancienne cour des Fontaines (actuellement place de Valois).","image":{"provider":"panoramax","id":"528727b9-8eb4-4ffd-838b-0357cae05932","lat":48.86331,"lng":2.33781,"sequenceId":"600d5cee-5328-4dd4-8838-5f27ef85aa59"}},{"kind":"street","id":"v:1:13160","name":"passage de la Réale","arr":1,"lat":48.86208,"lng":2.34701,"themes":["passages","pedestrian"],"shape":[[2.34724,48.8619],[2.34717,48.86191],[2.34714,48.86192],[2.34726,48.86213],[2.34671,48.86226],[2.3466,48.86204],[2.34653,48.86206],[2.34668,48.86234],[2.34716,48.86222],[2.34738,48.86217],[2.34724,48.8619]],"quartier":"Halles","lengthM":105,"story":"Voie créée lors de l'aménagement du secteur Forum Central des Halles.","image":{"provider":"panoramax","id":"6942ebd2-615a-4f71-9fde-d81b79c1b89f","lat":48.86198,"lng":2.34664,"sequenceId":"5a1a60ab-b1c6-4ce6-958f-3dd788665864"}},{"kind":"street","id":"v:1:13179","name":"passage de la Reine de Hongrie","arr":1,"lat":48.86387,"lng":2.34602,"themes":["passages"],"shape":[[2.34642,48.86386],[2.34641,48.86384],[2.34616,48.86385],[2.34616,48.86385],[2.34616,48.86385],[2.3461,48.86385],[2.34605,48.86385],[2.346,48.86386],[2.346,48.86386],[2.34589,48.86386],[2.34586,48.86386],[2.34586,48.86386],[2.34584,48.86386],[2.34574,48.86387],[2.34573,48.86388],[2.34573,48.86388],[2.34584,48.86388],[2.34585,48.86389],[2.34587,48.86389],[2.34588,48.86389],[2.346,48.86388],[2.346,48.86387],[2.3461,48.86387],[2.34613,48.86387],[2.34614,48.8639],[2.34616,48.8639],[2.34616,48.86387],[2.34642,48.86386]],"quartier":"Halles","lengthM":45,"story":"Dans ce passage demeurait Julie Bêcheur, dite Rose de Mai, marchande à la Halle, dont la ressemblance avec Marie-Thérèse, reine de Hongrie, frappa, dit-on, Marie-Antoinette, lors d'une députation que les dames de la Halle envoyèrent à Versailles.","image":{"provider":"panoramax","id":"fe0d1343-222f-4b02-a548-7ee90196d71a","lat":48.86382,"lng":2.34567,"sequenceId":"07d38f37-df8d-4fa7-9a6e-82331a050bd1"}},{"kind":"street","id":"v:1:12358","name":"passage de Montpensier","arr":1,"lat":48.86416,"lng":2.33655,"themes":["passages"],"shape":[[2.33664,48.86415],[2.33663,48.86413],[2.33652,48.86415],[2.33652,48.86415],[2.33652,48.86416],[2.33652,48.86416],[2.33651,48.86416],[2.33652,48.86418],[2.33653,48.86418],[2.33653,48.86418],[2.33664,48.86415]],"quartier":"Palais-Royal","lengthM":9,"story":"Voisinage de la rue de Montpensier.","image":{"provider":"panoramax","id":"7b5478e3-4374-4a20-84be-9e5bd39b0d9d","lat":48.86417,"lng":2.33649,"sequenceId":"9fe7f3ab-14e3-4174-8731-b06e31d9577b"}},{"kind":"street","id":"v:1:13229","name":"passage de Richelieu","arr":1,"lat":48.86467,"lng":2.33653,"themes":["passages"],"shape":[[2.33642,48.86471],[2.33644,48.8647],[2.33645,48.8647],[2.3365,48.86469],[2.3365,48.86469],[2.33651,48.86469],[2.33653,48.86469],[2.33653,48.86468],[2.33653,48.86469],[2.33658,48.86467],[2.33659,48.86467],[2.33661,48.86467],[2.33661,48.86467],[2.33661,48.86467],[2.33664,48.86466],[2.33664,48.86465],[2.33665,48.86464],[2.33664,48.86463],[2.33663,48.86463],[2.3366,48.86464],[2.33659,48.86465],[2.33659,48.86464],[2.33657,48.86465],[2.33657,48.86465],[2.33652,48.86466],[2.33651,48.86466],[2.33651,48.86466],[2.3365,48.86467],[2.33649,48.86467],[2.33643,48.86468],[2.33643,48.86468],[2.33643,48.86468],[2.33641,48.86469],[2.33641,48.86469],[2.33642,48.86471],[2.33642,48.86471]],"quartier":"Palais-Royal","lengthM":16,"story":"Voisinage de la rue de Richelieu.","image":{"provider":"panoramax","id":"397fbe36-641c-4a9f-95d0-dc7d21505be6","lat":48.86461,"lng":2.33671,"sequenceId":"916c5369-3293-4425-95f9-8353471fdacd"}},{"kind":"street","id":"v:1:13941","name":"passage de Valois","arr":1,"lat":48.86383,"lng":2.33798,"themes":["passages"],"shape":[[2.33792,48.86385],[2.33802,48.86383],[2.33802,48.86384],[2.33803,48.86384],[2.33803,48.86383],[2.33803,48.86383],[2.33803,48.86383],[2.33803,48.86383],[2.33802,48.86381],[2.33802,48.86381],[2.33801,48.86381],[2.33801,48.86381],[2.33801,48.8638],[2.33801,48.86381],[2.33801,48.86381],[2.33791,48.86383],[2.33791,48.86384],[2.33791,48.86383],[2.3379,48.86384],[2.33791,48.86385],[2.33791,48.86386],[2.33792,48.86385]],"quartier":"Palais-Royal","lengthM":9,"story":"Ainsi nommée en l'honneur du duc de Valois, fils aîné du duc d'Orléans (Louis-Philippe)","image":{"provider":"panoramax","id":"0c04d105-3fe9-441d-8a5e-db229304d14e","lat":48.86374,"lng":2.33805,"sequenceId":"916c5369-3293-4425-95f9-8353471fdacd"}},{"kind":"street","id":"v:1:10259","name":"passage des Deux Pavillons","arr":1,"lat":48.86613,"lng":2.33907,"themes":["passages"],"shape":[[2.33917,48.86617],[2.3392,48.86616],[2.3392,48.86616],[2.3392,48.86616],[2.33908,48.86612],[2.33908,48.86612],[2.33907,48.86612],[2.33911,48.86611],[2.33909,48.86609],[2.33903,48.8661],[2.33901,48.8661],[2.339,48.86607],[2.33896,48.86608],[2.33898,48.86611],[2.33897,48.86612],[2.3389,48.86613],[2.33891,48.86616],[2.33905,48.86613],[2.33906,48.86613],[2.33905,48.86613],[2.33916,48.86617],[2.33917,48.86617],[2.33917,48.86617]],"quartier":"Palais-Royal","lengthM":33,"story":"A l'entrée se trouvent deux pavillons qui font face à la rue de Beaujolais.","image":{"provider":"panoramax","id":"ebba60b1-6dc3-4403-8ada-a6308991b0a2","lat":48.86602,"lng":2.339,"sequenceId":"9fe7f3ab-14e3-4174-8731-b06e31d9577b"}},{"kind":"street","id":"v:1:14888","name":"passage des Jacobins","arr":1,"lat":48.86705,"lng":2.33182,"themes":["passages"],"shape":[[2.33197,48.86739],[2.33202,48.86738],[2.33207,48.86737],[2.33206,48.86735],[2.33207,48.86735],[2.33205,48.86731],[2.33202,48.86726],[2.33199,48.86721],[2.33196,48.86716],[2.33193,48.86711],[2.3319,48.86706],[2.33187,48.86701],[2.33184,48.86696],[2.33177,48.86686],[2.33174,48.86681],[2.33161,48.86662],[2.3316,48.86662],[2.33159,48.86661],[2.33149,48.86664],[2.3315,48.86665],[2.33149,48.86665],[2.3316,48.86685],[2.33163,48.8669],[2.33169,48.867],[2.33172,48.86704],[2.33182,48.86719],[2.33195,48.86738],[2.33196,48.86738],[2.33197,48.86739]],"quartier":"Place Vendôme","lengthM":90,"story":"Référence à l'ancienne existence sur le site du couvent des Jacobins.","image":{"provider":"panoramax","id":"1cec97d0-21eb-47dc-a90c-3672b6f14a77","lat":48.86651,"lng":2.33163,"sequenceId":"3f83c3f9-b1e8-47e7-abc3-dc6423bf967b"}},{"kind":"street","id":"v:1:11872","name":"passage des Lingères","arr":1,"lat":48.86107,"lng":2.34623,"themes":["passages","pedestrian"],"shape":[[2.34616,48.86081],[2.34588,48.86093],[2.34593,48.86095],[2.34598,48.86098],[2.34604,48.86101],[2.34607,48.861],[2.34613,48.86103],[2.34619,48.86105],[2.34618,48.86109],[2.34619,48.86111],[2.34617,48.86114],[2.34615,48.86116],[2.3462,48.8612],[2.34618,48.86124],[2.34615,48.86127],[2.34614,48.86129],[2.34612,48.86131],[2.34666,48.86122],[2.34661,48.86119],[2.34656,48.86123],[2.34649,48.86122],[2.34646,48.86116],[2.34643,48.86116],[2.34639,48.86114],[2.34636,48.86113],[2.34631,48.86114],[2.3463,48.8611],[2.34628,48.86106],[2.34621,48.86102],[2.34622,48.861],[2.34613,48.86091],[2.34616,48.86089],[2.34617,48.86085],[2.34619,48.86084],[2.34618,48.86083],[2.34616,48.86081]],"quartier":"Halles","lengthM":49,"story":"Souvenir de l'ancienne porte des Lingères.","image":{"provider":"panoramax","id":"70c75ff2-671d-437c-bbe1-5628d175c708","lat":48.86126,"lng":2.34658,"sequenceId":"72f93a45-a1b2-43ad-8a06-2ae89f59a529"}},{"kind":"street","id":"v:1:14011","name":"passage des Verrières","arr":1,"lat":48.86159,"lng":2.3469,"themes":["passages","pedestrian"],"shape":[[2.34709,48.86165],[2.34698,48.86145],[2.3466,48.86154],[2.34665,48.86162],[2.34691,48.86156],[2.34697,48.86167],[2.34709,48.86165]],"quartier":"Halles","lengthM":33,"story":"Voie créée lors de l'aménagement du secteur Forum Central des Halles.","image":{"provider":"panoramax","id":"44914d9f-2c21-4b53-ae01-6c8adaf549db","lat":48.86165,"lng":2.34658,"sequenceId":"ea6c50c9-1741-4ad0-88d1-e28edc8c5b8e"}},{"kind":"street","id":"v:1:12766","name":"passage du Perron","arr":1,"lat":48.866,"lng":2.33852,"themes":["passages"],"shape":[[2.33859,48.86608],[2.33851,48.86595],[2.3385,48.86595],[2.3385,48.86595],[2.33849,48.86595],[2.33849,48.86596],[2.33848,48.86596],[2.33855,48.86609],[2.33859,48.86608]],"quartier":"Palais-Royal","lengthM":30,"story":"Conduit à un escalier servant d'accès au Palais Royal.","image":{"provider":"panoramax","id":"81d32135-b1f8-43ab-ae8c-2e0a60e6be5d","lat":48.86613,"lng":2.33854,"sequenceId":"916c5369-3293-4425-95f9-8353471fdacd"}},{"kind":"street","id":"v:1:11326","name":"passage Hulot","arr":1,"lat":48.86556,"lng":2.33697,"themes":["passages"],"shape":[[2.33697,48.86557],[2.33711,48.86554],[2.3371,48.86552],[2.33706,48.86553],[2.33699,48.86554],[2.33696,48.86555],[2.33696,48.86555],[2.3369,48.86557],[2.3369,48.86556],[2.33687,48.86557],[2.33688,48.86559],[2.33697,48.86557]],"quartier":"Palais-Royal","lengthM":16,"story":"M. Hulot, propriétaire.","image":{"provider":"panoramax","id":"40a78737-d070-4c14-896f-808c2416245a","lat":48.86561,"lng":2.33686,"sequenceId":"3f83c3f9-b1e8-47e7-abc3-dc6423bf967b"}},{"kind":"street","id":"v:1:13026","name":"passage Potier","arr":1,"lat":48.86505,"lng":2.3367,"themes":["passages"],"shape":[[2.33662,48.86509],[2.33664,48.86508],[2.33664,48.86508],[2.33667,48.86508],[2.33666,48.86507],[2.33667,48.86507],[2.33667,48.86507],[2.33671,48.86506],[2.33671,48.86506],[2.33672,48.86506],[2.33672,48.86506],[2.3368,48.86505],[2.33681,48.86504],[2.33681,48.86504],[2.33684,48.86503],[2.33684,48.86502],[2.3368,48.86502],[2.3368,48.86502],[2.33679,48.86502],[2.33679,48.86502],[2.33676,48.86503],[2.33671,48.86504],[2.33671,48.86504],[2.3367,48.86504],[2.3367,48.86504],[2.33666,48.86505],[2.33666,48.86505],[2.33665,48.86505],[2.33665,48.86505],[2.33661,48.86506],[2.33661,48.86506],[2.3366,48.86506],[2.33662,48.86509],[2.33662,48.86508],[2.33662,48.86509]],"quartier":"Palais-Royal","lengthM":16,"story":"M. Potier, propriétaire.","image":{"provider":"panoramax","id":"a4413572-6dc0-4994-ab18-263fd2b11316","lat":48.865,"lng":2.3369,"sequenceId":"916c5369-3293-4425-95f9-8353471fdacd"}},{"kind":"street","id":"v:1:13668","name":"passage Saint-Roch","arr":1,"lat":48.8652,"lng":2.33276,"themes":["passages"],"shape":[[2.33305,48.86549],[2.33318,48.86541],[2.33299,48.86533],[2.33243,48.86481],[2.33231,48.86483],[2.33234,48.86486],[2.33238,48.86487],[2.33239,48.86489],[2.33243,48.86492],[2.33246,48.86493],[2.33249,48.86496],[2.33253,48.865],[2.33257,48.86504],[2.33261,48.86508],[2.33262,48.86509],[2.33268,48.86513],[2.33271,48.86515],[2.33272,48.86516],[2.33273,48.86518],[2.33274,48.8652],[2.33276,48.86521],[2.33277,48.86523],[2.33281,48.86527],[2.33286,48.86532],[2.33288,48.86534],[2.33291,48.86537],[2.33292,48.86539],[2.33296,48.86539],[2.33297,48.86539],[2.33299,48.86539],[2.33301,48.86542],[2.33301,48.86543],[2.333,48.86544],[2.33298,48.86546],[2.33302,48.86547],[2.33305,48.86549]],"quartier":"Palais-Royal","lengthM":90,"story":"Voisinage de l'église Saint-Roch.","image":{"provider":"panoramax","id":"a8ed0781-2ca8-4229-b555-ce33e2f5e7c6","lat":48.86499,"lng":2.33301,"sequenceId":"6ae00fbf-4ae2-4c90-8455-eee6a8f868d1"}},{"kind":"street","id":"v:1:14000","name":"passage Vérité","arr":1,"lat":48.86319,"lng":2.33838,"themes":["passages"],"shape":[[2.3383,48.86323],[2.33841,48.86321],[2.33841,48.8632],[2.33842,48.8632],[2.33842,48.8632],[2.33842,48.8632],[2.33843,48.8632],[2.33843,48.8632],[2.33843,48.8632],[2.33844,48.8632],[2.33844,48.8632],[2.33841,48.86316],[2.33841,48.86316],[2.33841,48.86316],[2.33841,48.86317],[2.33841,48.86317],[2.33841,48.86317],[2.33841,48.86317],[2.3384,48.86317],[2.3384,48.86317],[2.33839,48.86317],[2.33839,48.86317],[2.33834,48.86318],[2.33829,48.86319],[2.33828,48.8632],[2.33828,48.8632],[2.33827,48.86321],[2.33829,48.86323],[2.33829,48.86323],[2.3383,48.86323]],"quartier":"Palais-Royal","lengthM":11,"story":"Un arrêté du Pouvoir exécutif du 19 Ventôse an VII l'avait réputé passage public. L'Etat a pris l'engagement envers la Ville de Paris de le maintenir à perpétuité (délib. mun. du 30 décembre 1895 et dépêche du ministre des Finances du 26 septembre 1896).","image":{"provider":"panoramax","id":"22fb793c-3a20-4a2e-91fd-92919bf03ab0","lat":48.86313,"lng":2.33846,"sequenceId":"9fe7f3ab-14e3-4174-8731-b06e31d9577b"}},{"kind":"street","id":"v:1:14969","name":"passerelle Léopold Sédar Senghor","arr":1,"lat":48.86191,"lng":2.32478,"themes":[],"shape":[[2.32434,48.86121],[2.3242,48.86125],[2.32434,48.86147],[2.32449,48.86168],[2.32464,48.8619],[2.32477,48.86207],[2.32491,48.86224],[2.32504,48.86241],[2.32512,48.86239],[2.32511,48.86237],[2.32518,48.86235],[2.32518,48.86235],[2.32518,48.86234],[2.32507,48.86217],[2.32495,48.86201],[2.32483,48.86184],[2.32467,48.86163],[2.32451,48.86142],[2.32434,48.86121]],"quartier":"Invalides","lengthM":145,"story":"Léopold Sédar Senghor (Joal (Sénégal), 1906-Verson (Basse-Normandie), 2001), chef d' Etat et écrivain. Elu premier Président de la République du Sénégal le 5 septembre 1960, puis reélu en 1963, 1968, 1973 et 1978.","image":{"provider":"panoramax","id":"c1bd380e-aba0-48d7-b1dd-805445352669","lat":48.86231,"lng":2.32508,"sequenceId":"45c3c828-b9f6-4041-8b50-271a4aac5636"}},{"kind":"street","id":"v:1:15134","name":"patio-place Pina Bausch","arr":1,"lat":48.86179,"lng":2.34682,"themes":["pedestrian"],"shape":[[2.34705,48.86167],[2.34699,48.86156],[2.34647,48.86168],[2.34656,48.86186],[2.3466,48.86192],[2.34666,48.86203],[2.34718,48.86191],[2.34705,48.86167]],"quartier":"Halles","lengthM":34,"story":"Pina Bausch (Solingen(Allemagne), 1940-2009) danseuse, chorégraphe et conceptrice du Tanztheatre.","image":{"provider":"panoramax","id":"37bd7b6c-829d-40f5-a8ed-fe88ad923e88","lat":48.86192,"lng":2.34662,"sequenceId":"5a1a60ab-b1c6-4ce6-958f-3dd788665864"}},{"kind":"street","id":"v:1:9228","name":"péristyle de Beaujolais","arr":1,"lat":48.86593,"lng":2.33886,"themes":[],"shape":[[2.33885,48.86602],[2.33892,48.866],[2.33893,48.866],[2.33893,48.866],[2.33896,48.86599],[2.33898,48.86599],[2.33898,48.86599],[2.339,48.86598],[2.33892,48.86582],[2.33891,48.86582],[2.33889,48.86583],[2.33888,48.86583],[2.33888,48.86583],[2.33885,48.86584],[2.33883,48.86584],[2.33884,48.86584],[2.33881,48.86585],[2.33879,48.86585],[2.3388,48.86585],[2.33878,48.86589],[2.33878,48.86589],[2.33878,48.86589],[2.33879,48.86591],[2.3388,48.86592],[2.33879,48.86592],[2.33881,48.86594],[2.33881,48.86594],[2.33881,48.86594],[2.33882,48.86596],[2.33883,48.86597],[2.33882,48.86597],[2.33884,48.86599],[2.33884,48.86599],[2.33884,48.866],[2.33885,48.86602],[2.33885,48.86602]],"quartier":"Palais-Royal","lengthM":18,"story":"Voisinage de la rue de Beaujolais.","image":{"provider":"panoramax","id":"4cb025a9-e9e1-4067-949b-d4107eb90030","lat":48.86603,"lng":2.33885,"sequenceId":"600d5cee-5328-4dd4-8838-5f27ef85aa59"}},{"kind":"street","id":"v:1:9807","name":"péristyle de Chartres","arr":1,"lat":48.86375,"lng":2.33641,"themes":[],"shape":[[2.33634,48.86381],[2.33661,48.86375],[2.33661,48.86374],[2.33662,48.86374],[2.3366,48.86371],[2.33659,48.86367],[2.33657,48.86365],[2.33656,48.86365],[2.33656,48.86365],[2.33628,48.86371],[2.33629,48.86374],[2.3363,48.86374],[2.33631,48.86375],[2.33631,48.86376],[2.33631,48.86376],[2.33631,48.86376],[2.33632,48.86377],[2.33632,48.86378],[2.33632,48.86378],[2.33632,48.86379],[2.33632,48.86379],[2.33633,48.86381],[2.33634,48.86381],[2.33634,48.86381]],"quartier":"Palais-Royal","lengthM":25,"story":"Ainsi appelée en l'honneur du duc de Chartres, fils de Louis-Philippe, né en 1840.","image":{"provider":"panoramax","id":"57f12bd4-0ba8-4037-8471-faf67f13a264","lat":48.86381,"lng":2.33629,"sequenceId":"9fe7f3ab-14e3-4174-8731-b06e31d9577b"}},{"kind":"street","id":"v:1:11520","name":"péristyle de Joinville","arr":1,"lat":48.86616,"lng":2.33785,"themes":[],"shape":[[2.3378,48.86627],[2.33783,48.86626],[2.33784,48.86626],[2.33787,48.86625],[2.33788,48.86625],[2.33788,48.86625],[2.33791,48.86624],[2.33795,48.86623],[2.33795,48.86623],[2.33795,48.86623],[2.33794,48.86621],[2.33794,48.8662],[2.33793,48.86618],[2.33792,48.86618],[2.33791,48.86616],[2.33791,48.86616],[2.33791,48.86615],[2.3379,48.86613],[2.3379,48.86612],[2.33789,48.8661],[2.33788,48.8661],[2.33787,48.86607],[2.33787,48.86607],[2.33786,48.86607],[2.33784,48.86608],[2.33782,48.86608],[2.33782,48.86608],[2.3378,48.86609],[2.33778,48.86609],[2.33776,48.8661],[2.33774,48.8661],[2.33774,48.8661],[2.33772,48.86611],[2.33772,48.86611],[2.33772,48.86611],[2.3378,48.86627]],"quartier":"Palais-Royal","lengthM":37,"story":"François Ferdinand Philippe Louis Marie d'Orléans, prince de Joinville (1818-1900), troisième fils du roi Louis-Philippe.","image":{"provider":"panoramax","id":"822550e4-98ae-4ddc-add6-59d6522f1244","lat":48.86626,"lng":2.33793,"sequenceId":"9fe7f3ab-14e3-4174-8731-b06e31d9577b"}},{"kind":"street","id":"v:1:12359","name":"péristyle de Montpensier","arr":1,"lat":48.86403,"lng":2.33658,"themes":[],"shape":[[2.33682,48.86412],[2.33672,48.86393],[2.33671,48.86394],[2.33671,48.86393],[2.33644,48.864],[2.33644,48.864],[2.33643,48.864],[2.33644,48.86402],[2.33645,48.86402],[2.33645,48.86402],[2.33645,48.86402],[2.33645,48.86402],[2.33656,48.864],[2.33663,48.86413],[2.33664,48.86415],[2.3367,48.86415],[2.33682,48.86412]],"quartier":"Palais-Royal","lengthM":26,"story":"Voisinage de la rue de Montpensier.","image":{"provider":"panoramax","id":"b14717c4-5b5b-4c2d-b573-865672af381e","lat":48.86404,"lng":2.33642,"sequenceId":"9fe7f3ab-14e3-4174-8731-b06e31d9577b"}},{"kind":"street","id":"v:1:13942","name":"péristyle de Valois","arr":1,"lat":48.86377,"lng":2.33786,"themes":[],"shape":[[2.3379,48.86383],[2.33789,48.86381],[2.33789,48.86381],[2.33788,48.86381],[2.33789,48.8638],[2.33788,48.86379],[2.33787,48.86379],[2.33787,48.86378],[2.33787,48.86378],[2.33786,48.86376],[2.33786,48.86376],[2.33785,48.86375],[2.33786,48.86375],[2.33785,48.86373],[2.33784,48.86373],[2.33784,48.86373],[2.33785,48.86373],[2.33783,48.8637],[2.33794,48.86368],[2.33794,48.86367],[2.33795,48.86367],[2.33794,48.86365],[2.33793,48.86365],[2.33793,48.86365],[2.33766,48.86371],[2.33766,48.86371],[2.33765,48.86372],[2.33774,48.86388],[2.33775,48.86391],[2.33787,48.86388],[2.33792,48.86387],[2.33791,48.86386],[2.33791,48.86385],[2.3379,48.86384],[2.3379,48.86383],[2.3379,48.86383]],"quartier":"Palais-Royal","lengthM":24,"story":"Ainsi nommée en l'honneur du duc de Valois, fils aîné du duc d'Orléans (Louis-Philippe)","image":{"provider":"panoramax","id":"6f644aa3-d0ba-47b6-947a-7bbfa641fdf5","lat":48.86367,"lng":2.33801,"sequenceId":"916c5369-3293-4425-95f9-8353471fdacd"}},{"kind":"street","id":"v:1:8985","name":"place André Malraux","arr":1,"lat":48.86382,"lng":2.33513,"themes":["places"],"shape":[[2.33464,48.86372],[2.33476,48.86382],[2.33486,48.8639],[2.33496,48.86398],[2.33536,48.86405],[2.33565,48.86398],[2.33584,48.86394],[2.3355,48.8633],[2.33464,48.86372]],"quartier":"Palais-Royal","story":"André Malraux (Paris, 1901-Créteil, 1976), écrivain et homme politique français.","image":{"provider":"panoramax","id":"7a36cc59-6944-4c05-a25a-b8937b27ced8","lat":48.86396,"lng":2.33535,"sequenceId":"9fe7f3ab-14e3-4174-8731-b06e31d9577b"}},{"kind":"street","id":"v:1:9630","name":"place Carrée","arr":1,"lat":48.86212,"lng":2.34562,"themes":["places"],"shape":[[2.34572,48.86205],[2.3457,48.862],[2.34564,48.86201],[2.3454,48.86194],[2.34524,48.86217],[2.34529,48.86226],[2.34563,48.86236],[2.34574,48.86218],[2.34578,48.86218],[2.34577,48.86214],[2.34574,48.86214],[2.34569,48.86206],[2.34572,48.86205]],"quartier":"Halles","lengthM":35,"story":"Forme donnée à cette place.","image":{"provider":"panoramax","id":"c36e4504-ea82-47e7-85fe-8c96422874b6","lat":48.86241,"lng":2.34558,"sequenceId":"72f93a45-a1b2-43ad-8a06-2ae89f59a529"}},{"kind":"street","id":"v:1:9951","name":"place Colette","arr":1,"lat":48.86329,"lng":2.33618,"themes":["places"],"shape":[[2.33576,48.86346],[2.3358,48.86345],[2.33584,48.86344],[2.33583,48.86342],[2.33582,48.8634],[2.33581,48.86337],[2.33585,48.86336],[2.33588,48.86336],[2.33592,48.86335],[2.33596,48.86334],[2.33599,48.86333],[2.33603,48.86332],[2.33606,48.86332],[2.3361,48.86331],[2.33613,48.8633],[2.33617,48.86329],[2.3362,48.86329],[2.33624,48.86328],[2.33625,48.86328],[2.33629,48.86327],[2.3363,48.8633],[2.33631,48.86332],[2.33636,48.86333],[2.33639,48.86333],[2.33644,48.86332],[2.33654,48.86327],[2.33653,48.86324],[2.33651,48.86322],[2.3365,48.86319],[2.33649,48.86317],[2.33648,48.86315],[2.33646,48.86312],[2.33645,48.8631],[2.33644,48.86306],[2.33644,48.86304],[2.33576,48.86346]],"quartier":"Palais-Royal","lengthM":61,"story":"Gabrielle Colette (1873-1954), romancière française.","image":{"provider":"panoramax","id":"90ea0d3a-d858-4c19-ba77-9bd4968bb0a7","lat":48.86316,"lng":2.33619,"sequenceId":"6bd4b011-272e-4ca2-ad27-5b3a24367e8b"}},{"kind":"street","id":"v:1:10173","name":"place Dauphine","arr":1,"lat":48.85661,"lng":2.34237,"themes":["places"],"shape":[[2.34313,48.85664],[2.34269,48.8561],[2.34258,48.85614],[2.34248,48.85617],[2.34241,48.85623],[2.34234,48.85629],[2.34221,48.85641],[2.34211,48.85649],[2.34202,48.85658],[2.34195,48.85664],[2.34188,48.8567],[2.34181,48.85676],[2.34173,48.85684],[2.34177,48.85691],[2.34195,48.85688],[2.34218,48.85684],[2.34227,48.85682],[2.34237,48.8568],[2.34248,48.85679],[2.34258,48.85677],[2.34269,48.85675],[2.3428,48.85673],[2.3429,48.85671],[2.34291,48.85671],[2.34313,48.85664]],"quartier":"Saint-Germain-l'Auxerrois","lengthM":102,"story":"Ainsi appelée en l'honneur du Dauphin, fils d'Henri IV.","image":{"provider":"panoramax","id":"175da0a0-a872-4e06-9af2-46b6fb351d0a","lat":48.85686,"lng":2.34177,"sequenceId":"c357d9bb-0b14-4f90-8fb6-8f52201a53b2"}},{"kind":"street","id":"v:1:10424","name":"place de l'École","arr":1,"lat":48.85897,"lng":2.34172,"themes":["places"],"shape":[[2.34184,48.85904],[2.34178,48.8589],[2.34183,48.85884],[2.34157,48.85882],[2.34164,48.85895],[2.34164,48.85894],[2.34169,48.85903],[2.34168,48.85903],[2.34171,48.85908],[2.34184,48.85904]],"quartier":"Saint-Germain-l'Auxerrois","lengthM":31,"story":"Anciennes écoles du cloître Saint-Germain l'Auxerrois.","image":{"provider":"panoramax","id":"53ef86b3-fed0-4e10-a599-72e66d5681e5","lat":48.85892,"lng":2.3417,"sequenceId":"600d5cee-5328-4dd4-8838-5f27ef85aa59"}},{"kind":"street","id":"v:1:13320","name":"place de la Rotonde","arr":1,"lat":48.86253,"lng":2.34393,"themes":["places"],"shape":[[2.34426,48.86251],[2.34421,48.86243],[2.3441,48.8624],[2.34399,48.86243],[2.34395,48.86242],[2.34392,48.86242],[2.34388,48.86242],[2.34386,48.86243],[2.34383,48.86243],[2.34377,48.86249],[2.34376,48.8625],[2.34376,48.86252],[2.34375,48.86253],[2.34376,48.86254],[2.34377,48.86256],[2.34378,48.86257],[2.34379,48.86258],[2.34379,48.86259],[2.34384,48.86261],[2.34385,48.8626],[2.34387,48.8626],[2.34388,48.86259],[2.3439,48.86259],[2.3439,48.86258],[2.34393,48.86259],[2.34394,48.86257],[2.34396,48.86258],[2.34396,48.86254],[2.34393,48.86255],[2.34391,48.86251],[2.34404,48.86247],[2.34408,48.86256],[2.34406,48.86256],[2.34409,48.86262],[2.34419,48.8626],[2.34426,48.86251]],"quartier":"Halles","lengthM":34,"story":"Forme générale de cette place.","image":{"provider":"panoramax","id":"de1c139f-bbaf-4eb1-822f-a790b6639bec","lat":48.86253,"lng":2.34395,"sequenceId":"95084bfa-375f-4298-880a-c65809e0972a"}},{"kind":"street","id":"v:1:13943","name":"place de Valois","arr":1,"lat":48.86324,"lng":2.3382,"themes":["places","pedestrian"],"shape":[[2.33841,48.86345],[2.33839,48.86341],[2.33839,48.86341],[2.33838,48.8634],[2.33838,48.8634],[2.33836,48.86337],[2.3383,48.86325],[2.33829,48.86325],[2.33829,48.86324],[2.33829,48.86323],[2.33827,48.86321],[2.33827,48.8632],[2.33826,48.8632],[2.33826,48.86319],[2.33826,48.86319],[2.33817,48.86303],[2.33817,48.86303],[2.33816,48.86302],[2.33816,48.86302],[2.33815,48.86299],[2.33812,48.863],[2.33812,48.863],[2.33811,48.86301],[2.33811,48.863],[2.33804,48.86303],[2.33794,48.86306],[2.33802,48.86322],[2.33783,48.86322],[2.33795,48.86343],[2.33799,48.86337],[2.33809,48.86334],[2.33816,48.86348],[2.33817,48.86351],[2.33817,48.86351],[2.33837,48.86346],[2.33841,48.86345]],"quartier":"Palais-Royal","story":"Ainsi nommée en l'honneur du duc de Valois, fils aîné du duc d'Orléans (Louis-Philippe)","image":{"provider":"panoramax","id":"2cd6e6c6-1d9c-4423-b2d6-1f5a4c988334","lat":48.86316,"lng":2.33809,"sequenceId":"0e50c4d3-a0df-445e-80c8-6bc3bf1fea27"}},{"kind":"street","id":"v:1:10256","name":"place des Deux Écus","arr":1,"lat":48.86284,"lng":2.34154,"themes":["places"],"shape":[[2.34173,48.86296],[2.34156,48.86264],[2.34155,48.86266],[2.34136,48.86281],[2.3413,48.86287],[2.34158,48.86301],[2.34173,48.86296]],"quartier":"Halles","story":"Ancienne enseigne.","image":{"provider":"panoramax","id":"6cceb723-7919-46d9-8ccf-45b7803e3a96","lat":48.86291,"lng":2.34131,"sequenceId":"9fe7f3ab-14e3-4174-8731-b06e31d9577b"}},{"kind":"street","id":"v:1:13093","name":"place des Pyramides","arr":1,"lat":48.86395,"lng":2.33229,"themes":["places"],"shape":[[2.33255,48.86393],[2.33241,48.86374],[2.3319,48.86391],[2.33204,48.86409],[2.33222,48.86404],[2.33236,48.86399],[2.33255,48.86393]],"quartier":"Palais-Royal","lengthM":42,"story":"Voisinage de la rue des Pyramides.","image":{"provider":"panoramax","id":"09e44fd3-3ec4-40ea-92bf-1cee7b134b50","lat":48.86412,"lng":2.33203,"sequenceId":"0e96ca10-40a2-46ec-8825-8723c71b0ec0"}},{"kind":"street","id":"v:1:14029","name":"place des Victoires","arr":1,"lat":48.86573,"lng":2.34112,"themes":["places"],"shape":[[2.34138,48.86611],[2.34168,48.86587],[2.3417,48.86583],[2.34171,48.86578],[2.34171,48.86575],[2.34162,48.86555],[2.34158,48.86552],[2.34153,48.86549],[2.34146,48.86545],[2.34139,48.86543],[2.34132,48.86541],[2.34126,48.8654],[2.34117,48.8654],[2.34111,48.8654],[2.34104,48.86541],[2.34092,48.86544],[2.3409,48.86545],[2.34084,48.86548],[2.3408,48.86551],[2.34077,48.86553],[2.34068,48.86563],[2.34066,48.86568],[2.34065,48.86574],[2.34065,48.86579],[2.34066,48.86583],[2.34072,48.86593],[2.34075,48.86596],[2.3408,48.866],[2.34085,48.86603],[2.34091,48.86606],[2.34099,48.86608],[2.34107,48.8661],[2.34112,48.8661],[2.3412,48.86611],[2.34127,48.8661],[2.34138,48.86611]],"quartier":"Halles","story":"Place créée à l'initiative du maréchal de La Feuillade et de la Ville de Paris et consacrée aux victoires de Louis XIV.","image":{"provider":"panoramax","id":"4dc34862-8cb9-43c4-9b39-a6bea3a1528c","lat":48.8656,"lng":2.34078,"sequenceId":"600d5cee-5328-4dd4-8838-5f27ef85aa59"}},{"kind":"street","id":"v:1:9636","name":"place du Carrousel","arr":1,"lat":48.86143,"lng":2.33418,"themes":["places"],"shape":[[2.335,48.86268],[2.33544,48.86251],[2.3354,48.86243],[2.33535,48.86238],[2.3353,48.86226],[2.33521,48.8621],[2.33513,48.86198],[2.33431,48.86059],[2.33429,48.86051],[2.33419,48.86033],[2.33412,48.86022],[2.33396,48.86026],[2.33381,48.86032],[2.33369,48.86032],[2.33364,48.86022],[2.33321,48.86035],[2.33324,48.86039],[2.33329,48.86051],[2.33336,48.8606],[2.33344,48.8607],[2.3337,48.86117],[2.33362,48.86124],[2.33356,48.86132],[2.33353,48.86142],[2.33354,48.86152],[2.33358,48.86161],[2.33365,48.86168],[2.33371,48.86173],[2.3338,48.86177],[2.33391,48.86181],[2.33406,48.86183],[2.33466,48.86234],[2.33481,48.86251],[2.33487,48.86252],[2.33496,48.86266],[2.335,48.86268]],"quartier":"Saint-Germain-l'Auxerrois","lengthM":256,"story":"En souvenir du carrousel qui y fut donné par Louis XIV les 5 et 6 juin 1662.","image":{"provider":"panoramax","id":"37b48764-4e98-484b-9bc0-1a0e35977380","lat":48.86054,"lng":2.33344,"sequenceId":"9fe7f3ab-14e3-4174-8731-b06e31d9577b"}},{"kind":"street","id":"v:1:9821","name":"place du Châtelet","arr":1,"lat":48.85755,"lng":2.34707,"themes":["places","pedestrian"],"shape":[[2.34689,48.85781],[2.34788,48.85754],[2.34784,48.85747],[2.34785,48.85747],[2.34773,48.85725],[2.34772,48.85725],[2.34769,48.85719],[2.34736,48.85706],[2.34677,48.85722],[2.34669,48.85747],[2.34669,48.85747],[2.34669,48.85747],[2.34673,48.85753],[2.34673,48.85753],[2.34673,48.85754],[2.34673,48.85754],[2.34685,48.85774],[2.34686,48.85774],[2.34686,48.85774],[2.34686,48.85774],[2.3469,48.8578],[2.3469,48.85781],[2.3469,48.85781],[2.34689,48.85781],[2.34689,48.85781]],"quartier":"Saint-Germain-l'Auxerrois","lengthM":79,"story":"Formée sur l'emplacement du Grand Châtelet, démoli en 1802.","image":{"provider":"panoramax","id":"63a99d5e-733c-4ebc-8f2d-9bbcbb1d13d9","lat":48.85755,"lng":2.34677,"sequenceId":"89507a26-14b8-4453-b5c8-f23211910e40"}},{"kind":"street","id":"v:1:14852","name":"place du Lieutenant Henri Karcher","arr":1,"lat":48.86336,"lng":2.33995,"themes":["places"],"shape":[[2.34016,48.86329],[2.33991,48.86317],[2.33988,48.86319],[2.33957,48.86303],[2.33959,48.86308],[2.33976,48.86344],[2.33977,48.86345],[2.33978,48.86346],[2.33979,48.86347],[2.33981,48.86347],[2.33982,48.86348],[2.33984,48.86348],[2.33986,48.86348],[2.33988,48.86348],[2.3399,48.86348],[2.34022,48.86341],[2.34022,48.8634],[2.34023,48.8634],[2.34034,48.86338],[2.34032,48.86338],[2.34016,48.86329],[2.34016,48.86329]],"quartier":"Halles","story":"Henri Karcher (Saint-Dié, 1908-Sarrebourg, 1983). Chirurgien, combattant volontaire de la résistance. A la libération de Paris il s'empara du quartier général du commandant de la place de Paris, puis homme politique.","image":{"provider":"panoramax","id":"b35deeb1-01c2-45e4-933d-fe9d8f6ce67c","lat":48.86351,"lng":2.33983,"sequenceId":"9fe7f3ab-14e3-4174-8731-b06e31d9577b"}},{"kind":"street","id":"v:1:11945","name":"place du Louvre","arr":1,"lat":48.8598,"lng":2.34084,"themes":["places","pedestrian"],"shape":[[2.34092,48.85992],[2.34091,48.85989],[2.34088,48.85985],[2.34089,48.85985],[2.34088,48.85983],[2.34088,48.85983],[2.34086,48.85979],[2.34085,48.85976],[2.34084,48.85977],[2.34074,48.85944],[2.34074,48.85944],[2.34074,48.85943],[2.34074,48.85943],[2.34074,48.85942],[2.34075,48.85942],[2.34076,48.85941],[2.34086,48.8594],[2.34086,48.85938],[2.34086,48.85929],[2.34071,48.85932],[2.34025,48.85953],[2.34025,48.85953],[2.34025,48.85954],[2.34066,48.86032],[2.34067,48.86033],[2.34078,48.86039],[2.34122,48.86029],[2.34125,48.8602],[2.34114,48.86017],[2.34112,48.86017],[2.3411,48.86016],[2.34109,48.86014],[2.34106,48.8601],[2.34104,48.86008],[2.34092,48.85992],[2.34092,48.85992]],"quartier":"Saint-Germain-l'Auxerrois","lengthM":113,"story":"Située devant le palais du Louvre.","image":{"provider":"panoramax","id":"c8776731-4f78-46fa-8339-a8727eed84a4","lat":48.85934,"lng":2.34087,"sequenceId":"600d5cee-5328-4dd4-8838-5f27ef85aa59"}},{"kind":"street","id":"v:1:12064","name":"place du Marché Saint-Honoré","arr":1,"lat":48.86698,"lng":2.33176,"themes":["places"],"shape":[[2.3322,48.86752],[2.33247,48.86746],[2.33262,48.86743],[2.33257,48.86735],[2.33248,48.86721],[2.33239,48.86708],[2.33231,48.86694],[2.3322,48.86677],[2.33214,48.86668],[2.33208,48.86659],[2.33202,48.8665],[2.33197,48.86641],[2.33194,48.86636],[2.3318,48.8664],[2.33167,48.86643],[2.33159,48.86646],[2.33152,48.86648],[2.33139,48.86651],[2.33119,48.86657],[2.33108,48.8666],[2.33097,48.86663],[2.33101,48.8667],[2.33112,48.86687],[2.33115,48.86692],[2.33118,48.86696],[2.33121,48.867],[2.33129,48.86713],[2.3314,48.8673],[2.33148,48.86743],[2.33157,48.86756],[2.33163,48.86765],[2.33181,48.86761],[2.33194,48.86758],[2.33205,48.86755],[2.3322,48.86752]],"quartier":"Place Vendôme","lengthM":125,"story":"Le marché Saint-Honoré est situé sur cette place.","image":{"provider":"panoramax","id":"a4924701-aca3-4431-a8c8-496690dbb237","lat":48.86655,"lng":2.33144,"sequenceId":"dd8a28ba-5719-4737-a190-ed5267f1379f"}},{"kind":"street","id":"v:1:12602","name":"place du Palais Royal","arr":1,"lat":48.86256,"lng":2.33688,"themes":["places"],"shape":[[2.33737,48.8626],[2.33715,48.86221],[2.33615,48.86254],[2.33634,48.86287],[2.33737,48.8626]],"quartier":"Palais-Royal","lengthM":40,"story":"Située devant le Palais Royal.","image":{"provider":"panoramax","id":"ebb4c79b-9ec9-4321-9da9-cf7792623374","lat":48.86255,"lng":2.33618,"sequenceId":"a3a71f66-1fd0-469c-aa1b-81c6b68f62c6"}},{"kind":"street","id":"v:1:15737","name":"place du Pont Neuf - Christo et Jeanne-Claude","arr":1,"lat":48.85705,"lng":2.34129,"themes":["places"],"shape":[[2.34155,48.857],[2.3415,48.85693],[2.34143,48.85685],[2.34133,48.85672],[2.34102,48.85694],[2.34101,48.85694],[2.34101,48.85694],[2.341,48.85694],[2.3407,48.85705],[2.34093,48.85733],[2.34125,48.85722],[2.34126,48.85721],[2.34126,48.85721],[2.34127,48.85721],[2.34173,48.85716],[2.34174,48.85716],[2.34162,48.85708],[2.34155,48.857]],"quartier":"Saint-Germain-l'Auxerrois","story":"Place située sur le terre-plein du pont Neuf. Christo Vladimiroff Javacheff (Gabrovo (Bulgarie), 1935 - New York, 2020) et Jeanne-Claude, née Jeanne-Claude Denat de Guillebon (Casablanca), 1935  -  New-York, 2009), couple d'artistes célèbre pour leurs installations monumentales e…","image":{"provider":"panoramax","id":"5da444bd-bbdc-4772-8ef7-208357347c76","lat":48.85728,"lng":2.34097,"sequenceId":"c357d9bb-0b14-4f90-8fb6-8f52201a53b2"}},{"kind":"street","id":"v:1:14810","name":"place Henri Salvador","arr":1,"lat":48.86995,"lng":2.32804,"themes":["places"],"shape":[[2.32773,48.8701],[2.32785,48.87012],[2.32789,48.87013],[2.3279,48.87013],[2.32815,48.87012],[2.32817,48.87012],[2.32817,48.87011],[2.32841,48.86983],[2.32837,48.86974],[2.32824,48.86967],[2.32813,48.86966],[2.32798,48.86967],[2.3279,48.86974],[2.32773,48.8701]],"quartier":"Chaussée-d'Antin","story":"Henri Gabriel Salvador (Cayenne, 1917-Paris, 2008) auteur, compositeur, interprète.","image":{"provider":"panoramax","id":"c4e864ef-c2b9-49d1-b00b-a563105958b2","lat":48.86993,"lng":2.32839,"sequenceId":"0e96ca10-40a2-46ec-8825-8723c71b0ec0"}},{"kind":"street","id":"v:1:11512","name":"place Joachim du Bellay","arr":1,"lat":48.86077,"lng":2.34742,"themes":["places","pedestrian"],"shape":[[2.34748,48.86101],[2.3485,48.86075],[2.34829,48.8604],[2.34722,48.86052],[2.34725,48.86058],[2.34726,48.86059],[2.34726,48.8606],[2.34727,48.86061],[2.34727,48.86061],[2.34728,48.86064],[2.34729,48.86065],[2.3473,48.86067],[2.34731,48.86068],[2.34732,48.86071],[2.34732,48.8607],[2.34732,48.86071],[2.34734,48.86074],[2.34734,48.86075],[2.34735,48.86077],[2.34736,48.86077],[2.34736,48.86078],[2.34737,48.86081],[2.34738,48.86082],[2.34739,48.86084],[2.3474,48.86085],[2.34739,48.86085],[2.34741,48.86088],[2.34741,48.86089],[2.34743,48.86091],[2.34743,48.86092],[2.34744,48.86094],[2.34745,48.86094],[2.34745,48.86095],[2.34747,48.86098],[2.34747,48.86099],[2.34748,48.86101]],"quartier":"Halles","lengthM":80,"story":"Joachim du Bellay (Liré, 1522-Paris, 1560), poète français.","image":{"provider":"panoramax","id":"182b9440-bf96-47fa-9678-9302db03dbac","lat":48.86076,"lng":2.34741,"sequenceId":"3cdd0a6b-cf11-4efe-92f0-612bedd70949"}},{"kind":"street","id":"v:1:12084","name":"place Marguerite de Navarre","arr":1,"lat":48.86073,"lng":2.34641,"themes":["places","pedestrian"],"shape":[[2.34609,48.86083],[2.34616,48.86081],[2.34616,48.86082],[2.34617,48.86082],[2.34619,48.86082],[2.34619,48.86082],[2.3462,48.86082],[2.3462,48.86082],[2.34631,48.86079],[2.34631,48.86079],[2.34632,48.86079],[2.34632,48.86079],[2.34634,48.86078],[2.34634,48.86079],[2.34635,48.86078],[2.34635,48.86078],[2.34642,48.86076],[2.34644,48.86076],[2.34645,48.86076],[2.34645,48.86076],[2.3465,48.86074],[2.34649,48.86074],[2.34658,48.86072],[2.34658,48.86073],[2.34663,48.86071],[2.34663,48.86072],[2.34664,48.86071],[2.34675,48.86069],[2.34674,48.86067],[2.34673,48.86064],[2.34671,48.86058],[2.34665,48.86053],[2.34653,48.86054],[2.3465,48.86047],[2.34631,48.86041],[2.34609,48.86083]],"quartier":"Halles","story":"Marguerite de Navarre (1492-1549), soeur de François Ier, reine de Navarre ; érudite et écrivain.","image":{"provider":"panoramax","id":"dd50b2bb-8984-4a41-b494-6dea29194afe","lat":48.86058,"lng":2.34664,"sequenceId":"9299455a-53c6-4bde-be4c-677366f3946b"}},{"kind":"street","id":"v:1:12164","name":"place Maurice Barrès","arr":1,"lat":48.86729,"lng":2.32588,"themes":["places"],"shape":[[2.32608,48.86741],[2.32587,48.86716],[2.32586,48.86717],[2.32586,48.86717],[2.32588,48.86719],[2.32586,48.86722],[2.32571,48.86727],[2.32583,48.86744],[2.3258,48.8675],[2.32608,48.86741]],"quartier":"Place Vendôme","lengthM":28,"story":"Maurice Barrès (1862-1923), écrivain et homme politique français. Député de Paris.","image":{"provider":"panoramax","id":"ea7d457a-800b-407e-a932-7e489508c042","lat":48.8672,"lng":2.3259,"sequenceId":"dd8a28ba-5719-4737-a190-ed5267f1379f"}},{"kind":"street","id":"v:1:12177","name":"place Maurice Quentin","arr":1,"lat":48.86138,"lng":2.3451,"themes":["places","pedestrian"],"shape":[[2.34515,48.8613],[2.34515,48.8613],[2.34513,48.8613],[2.3449,48.86134],[2.3448,48.86142],[2.34479,48.86144],[2.34475,48.8615],[2.34475,48.86159],[2.34547,48.86145],[2.34546,48.86143],[2.3454,48.86135],[2.34528,48.86131],[2.34521,48.86131],[2.34515,48.8613]],"quartier":"Halles","story":"Maurice Quentin (1870-1955), conseiller municipal du quartier des Halles de 1900 à 1940.","image":{"provider":"panoramax","id":"13cdfab6-0dcd-485a-bde3-96745356dec1","lat":48.86166,"lng":2.34477,"sequenceId":"600d5cee-5328-4dd4-8838-5f27ef85aa59"}},{"kind":"street","id":"v:1:15020","name":"place Mireille","arr":1,"lat":48.86564,"lng":2.33675,"themes":["places","pedestrian"],"shape":[[2.3368,48.86572],[2.3368,48.86572],[2.3368,48.86572],[2.33681,48.86572],[2.33681,48.86572],[2.33682,48.86572],[2.33682,48.86572],[2.33682,48.86572],[2.33683,48.86571],[2.33683,48.86571],[2.33683,48.86571],[2.33683,48.86571],[2.33679,48.86562],[2.33677,48.86558],[2.33676,48.86558],[2.33676,48.86558],[2.33676,48.86558],[2.33675,48.86557],[2.33675,48.86557],[2.33675,48.86557],[2.33674,48.86557],[2.3367,48.86559],[2.33669,48.8656],[2.33668,48.86561],[2.33668,48.86561],[2.33668,48.86561],[2.33668,48.86561],[2.33668,48.86561],[2.33668,48.86562],[2.33668,48.86562],[2.33668,48.86562],[2.33668,48.86562],[2.33668,48.86562],[2.33668,48.86563],[2.33668,48.86563],[2.3368,48.86572]],"quartier":"Palais-Royal","story":"Mireille Hartuch (Paris, 1906-Paris, 1996), compositrice et interprète, créatrice du célèbre \"Petit Conservatoire\" première institution de formation consacrée à la chanson.","image":{"provider":"panoramax","id":"bcabca18-5a22-47e9-8d9c-10ae0e4d3b38","lat":48.86555,"lng":2.33677,"sequenceId":"dd8a28ba-5719-4737-a190-ed5267f1379f"}},{"kind":"street","id":"v:1:15692","name":"place Paul et Marcelle Vergara","arr":1,"lat":48.86141,"lng":2.34252,"themes":["places"],"shape":[[2.34252,48.86144],[2.34253,48.86144],[2.34254,48.86143],[2.34254,48.86143],[2.34255,48.86143],[2.34256,48.86142],[2.34256,48.86142],[2.34256,48.86141],[2.34256,48.8614],[2.34256,48.8614],[2.34255,48.86139],[2.34255,48.86139],[2.34254,48.86139],[2.34254,48.86139],[2.34253,48.86138],[2.34253,48.86138],[2.34252,48.86138],[2.34251,48.86138],[2.3425,48.86138],[2.3425,48.86139],[2.34249,48.86139],[2.34249,48.86139],[2.34249,48.86139],[2.34248,48.8614],[2.34248,48.8614],[2.34248,48.8614],[2.34248,48.86141],[2.34248,48.86141],[2.34248,48.86142],[2.34248,48.86142],[2.34249,48.86143],[2.34249,48.86143],[2.3425,48.86143],[2.3425,48.86143],[2.34251,48.86144],[2.34252,48.86144]],"quartier":"Halles","story":"Paul (Bouches-du-Rhône), 1883 – Paris, 1965) et Marcelle (Lyon, 1885 – Paris, 1969) Vergara, couple de résistants, Justes parmi les Nations.","image":{"provider":"panoramax","id":"5d8bdca5-5cf4-4701-8a6a-354158cde617","lat":48.86139,"lng":2.3425,"sequenceId":"c3db6f8b-631a-40ab-835d-0a45e5904487"}},{"kind":"street","id":"v:1:13199","name":"place René Cassin","arr":1,"lat":48.86286,"lng":2.34501,"themes":["places","pedestrian"],"shape":[[2.34462,48.86319],[2.34525,48.86305],[2.34527,48.86302],[2.34527,48.86298],[2.34527,48.86293],[2.3453,48.86285],[2.34533,48.86284],[2.34533,48.86283],[2.34533,48.86282],[2.34533,48.86282],[2.34534,48.86281],[2.34535,48.8628],[2.34536,48.86279],[2.34537,48.86279],[2.34538,48.86278],[2.3454,48.86278],[2.34541,48.86278],[2.34542,48.86278],[2.34545,48.86277],[2.34523,48.86269],[2.3452,48.86268],[2.3451,48.86266],[2.34499,48.86265],[2.34484,48.86261],[2.34467,48.86264],[2.3446,48.86273],[2.34454,48.86277],[2.34449,48.86282],[2.34445,48.86287],[2.34443,48.86292],[2.34435,48.86296],[2.34435,48.86302],[2.34445,48.86306],[2.34454,48.86309],[2.34462,48.86311],[2.34462,48.86319]],"quartier":"Halles","story":"René Cassin (Bayonne, 1887-Paris, 1976), juriste français, prit une part importante à la fondation de l'UNESCO et fit adopter la \"Déclaration universelle des droits de l'Homme\" en 1948. Prix Nobel de la Paix en 1968.","image":{"provider":"panoramax","id":"3b49fd80-0ee1-4aa0-bf96-49eff85c8284","lat":48.86305,"lng":2.34547,"sequenceId":"f82bb31a-0ce1-4db5-a066-1bc363846e7d"}},{"kind":"street","id":"v:1:13725","name":"place Sainte-Opportune","arr":1,"lat":48.85961,"lng":2.34728,"themes":["places","pedestrian"],"shape":[[2.34721,48.85973],[2.34731,48.85967],[2.34738,48.85964],[2.34739,48.85964],[2.3474,48.85965],[2.34748,48.85959],[2.34748,48.85959],[2.34746,48.85955],[2.34738,48.85958],[2.34734,48.85953],[2.34729,48.85949],[2.34721,48.8595],[2.34718,48.85942],[2.34693,48.85971],[2.34706,48.85969],[2.34709,48.85971],[2.34721,48.85973]],"quartier":"Halles","story":"Occupe l'emplacement de l'ancien cloître Sainte-Opportune.","image":{"provider":"panoramax","id":"5b468894-d5b9-45c8-9183-20b45c28a8c0","lat":48.85966,"lng":2.34721,"sequenceId":"9299455a-53c6-4bde-be4c-677366f3946b"}},{"kind":"street","id":"v:1:13983","name":"place Vendôme","arr":1,"lat":48.86744,"lng":2.32946,"themes":["places"],"shape":[[2.33024,48.8681],[2.33009,48.86794],[2.3305,48.86776],[2.3305,48.86772],[2.33054,48.86761],[2.33056,48.86757],[2.33023,48.86724],[2.33021,48.86725],[2.33018,48.86722],[2.33005,48.86709],[2.33006,48.86708],[2.32974,48.86675],[2.32968,48.86675],[2.32951,48.86672],[2.32946,48.86672],[2.32905,48.86689],[2.32889,48.86674],[2.32877,48.86661],[2.3285,48.86673],[2.32863,48.86685],[2.32879,48.86701],[2.32837,48.86723],[2.32837,48.86724],[2.32833,48.86734],[2.32838,48.86744],[2.32865,48.8677],[2.32869,48.86773],[2.32879,48.86783],[2.32881,48.86786],[2.32914,48.8682],[2.3292,48.8682],[2.32937,48.86822],[2.32982,48.86805],[2.32983,48.86805],[2.33031,48.86836],[2.33024,48.8681]],"quartier":"Place Vendôme","lengthM":213,"story":"Créée sur l'emplacement de l'hôtel de Vendôme.","image":{"provider":"panoramax","id":"40f851ba-83b3-41e4-b2f6-293d20a1928e","lat":48.86668,"lng":2.32848,"sequenceId":"dd8a28ba-5719-4737-a190-ed5267f1379f"}},{"kind":"street","id":"v:1:9719","name":"pont au Change","arr":1,"lat":48.85671,"lng":2.3468,"themes":[],"shape":[[2.34673,48.85621],[2.34634,48.85631],[2.34649,48.85659],[2.34648,48.8566],[2.34648,48.85661],[2.34648,48.85661],[2.34648,48.85662],[2.34649,48.85662],[2.3465,48.85663],[2.34651,48.85663],[2.34667,48.85689],[2.34666,48.8569],[2.34666,48.85691],[2.34666,48.85691],[2.34667,48.85692],[2.34668,48.85692],[2.34669,48.85692],[2.34679,48.85708],[2.34677,48.85721],[2.34735,48.85705],[2.34723,48.85702],[2.3471,48.85681],[2.34711,48.85681],[2.34711,48.8568],[2.34711,48.85679],[2.3471,48.85679],[2.3471,48.85678],[2.34709,48.85678],[2.34692,48.85652],[2.34693,48.85651],[2.34693,48.8565],[2.34693,48.8565],[2.34693,48.85649],[2.34692,48.85649],[2.34691,48.85648],[2.34673,48.85621]],"quartier":"Notre-Dame","lengthM":103,"story":"Les changeurs s'y étaient établis en 1141, en vertu d'une ordonnance de Louis VII.","image":{"provider":"panoramax","id":"f484bd66-1b71-40a6-8b9f-f410e8fbd99b","lat":48.85718,"lng":2.34683,"sequenceId":"95084bfa-375f-4298-880a-c65809e0972a"}},{"kind":"street","id":"v:1:9076","name":"pont des Arts","arr":1,"lat":48.85844,"lng":2.33755,"themes":["pedestrian"],"shape":[[2.3371,48.85781],[2.33725,48.85801],[2.33726,48.85801],[2.33735,48.85819],[2.33735,48.8582],[2.33745,48.85838],[2.33744,48.85838],[2.33745,48.85839],[2.33754,48.85857],[2.33754,48.85857],[2.33764,48.85875],[2.33764,48.85876],[2.33765,48.85876],[2.33773,48.85895],[2.33774,48.85895],[2.33785,48.85915],[2.33787,48.85916],[2.33798,48.85913],[2.33788,48.85892],[2.33789,48.85891],[2.33788,48.85891],[2.33779,48.85873],[2.33779,48.85872],[2.3377,48.85854],[2.33769,48.85853],[2.3376,48.85836],[2.3376,48.85835],[2.33759,48.85834],[2.3375,48.85816],[2.3375,48.85816],[2.33741,48.85798],[2.33741,48.85797],[2.33731,48.85781],[2.33728,48.85776],[2.33716,48.85778],[2.3371,48.85781]],"quartier":"Monnaie","lengthM":155,"story":"Voisinage du Palais du Louvre qui a porté au début du XIXe siècle, le nom de Palais des Arts.","image":{"provider":"panoramax","id":"a763c573-5b6d-405c-8dbd-7386692563cb","lat":48.85918,"lng":2.33785,"sequenceId":"4c96a549-9a27-494b-827a-075555462718"}},{"kind":"street","id":"v:1:9637","name":"pont du Carrousel","arr":1,"lat":48.85943,"lng":2.33293,"themes":[],"shape":[[2.33278,48.85868],[2.33216,48.85883],[2.33217,48.85885],[2.33219,48.85884],[2.33223,48.85891],[2.33236,48.85888],[2.33237,48.8589],[2.33241,48.85889],[2.33298,48.85992],[2.33294,48.85993],[2.33295,48.85994],[2.33281,48.85998],[2.33284,48.86004],[2.33283,48.86004],[2.33284,48.86006],[2.33284,48.86006],[2.33287,48.86006],[2.33364,48.85987],[2.33367,48.85986],[2.33366,48.85986],[2.33366,48.85985],[2.33363,48.85985],[2.33359,48.85978],[2.33347,48.85981],[2.33346,48.85979],[2.33341,48.8598],[2.33285,48.85879],[2.33289,48.85878],[2.33288,48.85876],[2.33287,48.85874],[2.33282,48.85875],[2.33278,48.85868]],"quartier":"Saint-Germain-des-Prés","lengthM":168,"story":"Voisinage de la place du Carrousel.","image":{"provider":"panoramax","id":"00c6be04-aa3b-437e-830a-11785a4c89b0","lat":48.86001,"lng":2.33284,"sequenceId":"45c3c828-b9f6-4041-8b50-271a4aac5636"}},{"kind":"street","id":"v:1:12454","name":"pont Neuf","arr":1,"lat":48.85715,"lng":2.34136,"themes":[],"shape":[[2.34175,48.85717],[2.34133,48.85737],[2.34147,48.85752],[2.34152,48.85756],[2.34164,48.85773],[2.34177,48.85791],[2.34191,48.85807],[2.34197,48.8581],[2.34208,48.85829],[2.34241,48.85821],[2.34239,48.85816],[2.34228,48.858],[2.34214,48.85784],[2.34209,48.8578],[2.34197,48.85762],[2.34184,48.85746],[2.3417,48.85731],[2.34175,48.85717],[2.34099,48.85693],[2.34118,48.85671],[2.34116,48.85668],[2.34106,48.85657],[2.34104,48.85653],[2.34093,48.85641],[2.34091,48.85638],[2.34081,48.85627],[2.34078,48.85624],[2.34033,48.85636],[2.3405,48.85638],[2.34054,48.85641],[2.34062,48.85653],[2.34066,48.85656],[2.34076,48.85669],[2.3408,48.85672],[2.34088,48.85684],[2.34099,48.85693]],"quartier":"Monnaie","lengthM":233,"story":"Ainsi appelé au moment de sa construction par opposition aux anciens ponts de Paris.","image":{"provider":"panoramax","id":"8bf32b83-4665-4d36-86bf-65bf02b677c3","lat":48.85692,"lng":2.34101,"sequenceId":"77afbfb0-03e2-43c5-8690-d12c6b01d7cd"}},{"kind":"street","id":"v:1:13339","name":"pont Royal","arr":1,"lat":48.86007,"lng":2.32987,"themes":[],"shape":[[2.32975,48.85952],[2.32934,48.85965],[2.32929,48.85967],[2.32929,48.85967],[2.32948,48.85972],[2.32955,48.85981],[2.32951,48.85984],[2.32957,48.85984],[2.32971,48.86003],[2.32968,48.86006],[2.32974,48.86007],[2.32988,48.86026],[2.32985,48.86029],[2.32991,48.86029],[2.33005,48.86048],[2.33002,48.86051],[2.33008,48.86052],[2.33015,48.86061],[2.33008,48.86074],[2.33054,48.86058],[2.33036,48.86054],[2.33029,48.86045],[2.33032,48.86041],[2.33026,48.86042],[2.33012,48.86023],[2.33016,48.86019],[2.3301,48.86019],[2.32995,48.86],[2.32998,48.85997],[2.32992,48.85996],[2.32978,48.85978],[2.32982,48.85974],[2.32976,48.85974],[2.32969,48.85965],[2.32975,48.85952],[2.32975,48.85952]],"quartier":"Saint-Germain-l'Auxerrois","lengthM":133,"story":"Aboutit au Palais des Tuileries.","image":{"provider":"panoramax","id":"1ae9e454-9807-49ad-87f7-717f2ba7ae95","lat":48.86072,"lng":2.33004,"sequenceId":"45c3c828-b9f6-4041-8b50-271a4aac5636"}},{"kind":"street","id":"v:1:13648","name":"pont Saint-Michel","arr":1,"lat":48.85404,"lng":2.34461,"themes":[],"shape":[[2.34462,48.85379],[2.34423,48.85394],[2.34433,48.85404],[2.34432,48.85405],[2.34432,48.85405],[2.34433,48.85406],[2.34433,48.85406],[2.34434,48.85406],[2.34435,48.85406],[2.34448,48.85419],[2.34448,48.85419],[2.34448,48.8542],[2.34448,48.8542],[2.34448,48.85421],[2.34449,48.85421],[2.3445,48.85421],[2.34451,48.85421],[2.34463,48.85434],[2.34504,48.85417],[2.34486,48.85406],[2.34486,48.85405],[2.34486,48.85404],[2.34486,48.85404],[2.34486,48.85403],[2.34485,48.85403],[2.34484,48.85403],[2.34483,48.85403],[2.3447,48.8539],[2.34471,48.8539],[2.34471,48.85389],[2.34471,48.85389],[2.3447,48.85388],[2.3447,48.85388],[2.34469,48.85388],[2.34468,48.85388],[2.34462,48.85379]],"quartier":"Monnaie","lengthM":62,"story":"Voisinage de la chapelle Saint-Michel du Palais.","image":{"provider":"panoramax","id":"a5fa28dd-3052-46da-acb7-198c5359105e","lat":48.85418,"lng":2.34502,"sequenceId":"5917d700-6a98-4124-b43f-6df4f41eeacb"}},{"kind":"street","id":"v:1:13904","name":"port des Tuileries","arr":1,"lat":48.86214,"lng":2.3257,"themes":[],"shape":[[2.33012,48.86066],[2.32996,48.86071],[2.32806,48.86132],[2.32708,48.86164],[2.32513,48.86227],[2.32497,48.86232],[2.32457,48.86245],[2.32456,48.86245],[2.32455,48.86245],[2.32219,48.86322],[2.32151,48.86347],[2.3213,48.86353],[2.32134,48.86359],[2.32136,48.86357],[2.32138,48.86357],[2.32211,48.86333],[2.32261,48.86317],[2.32387,48.86276],[2.32464,48.86251],[2.3248,48.86246],[2.32484,48.86245],[2.32505,48.86238],[2.32507,48.8624],[2.32515,48.86235],[2.32537,48.86228],[2.32536,48.86228],[2.3254,48.86227],[2.32597,48.86208],[2.3285,48.86126],[2.32949,48.86094],[2.32952,48.86091],[2.32973,48.86085],[2.32975,48.86083],[2.32976,48.86084],[2.33009,48.86073],[2.33012,48.86066]],"quartier":"Saint-Germain-l'Auxerrois","lengthM":740,"story":"Voisinage du quai des Tuileries.","image":{"provider":"panoramax","id":"9b73c0c5-3f97-4079-9e19-253fa63ad96a","lat":48.86248,"lng":2.32462,"sequenceId":"45c3c828-b9f6-4041-8b50-271a4aac5636"}},{"kind":"street","id":"v:1:11946","name":"port du Louvre","arr":1,"lat":48.85987,"lng":2.33347,"themes":[],"shape":[[2.33043,48.86056],[2.33086,48.8605],[2.33142,48.86037],[2.33173,48.86029],[2.33191,48.86026],[2.33271,48.86008],[2.33284,48.86004],[2.33388,48.8598],[2.33481,48.85959],[2.3352,48.8595],[2.33586,48.85938],[2.33639,48.85928],[2.33668,48.85923],[2.33706,48.85918],[2.33744,48.85916],[2.33783,48.85911],[2.33761,48.85908],[2.33676,48.85916],[2.33621,48.85923],[2.33558,48.85934],[2.33491,48.85948],[2.33374,48.85975],[2.33343,48.85984],[2.33294,48.85993],[2.33248,48.86004],[2.33225,48.86008],[2.33196,48.86011],[2.33193,48.86011],[2.3319,48.86012],[2.33189,48.86015],[2.3308,48.86042],[2.33078,48.86041],[2.33075,48.86041],[2.33072,48.86042],[2.3307,48.86044],[2.33043,48.86056]],"quartier":"Saint-Germain-l'Auxerrois","lengthM":570,"story":"Longe le quai du Louvre.","image":{"provider":"panoramax","id":"f91b8685-2642-4608-b162-afaeb77fb73a","lat":48.85941,"lng":2.33628,"sequenceId":"4c96a549-9a27-494b-827a-075555462718"}},{"kind":"street","id":"v:1:9290","name":"porte Berger","arr":1,"lat":48.86137,"lng":2.34637,"themes":["pedestrian"],"shape":[[2.3466,48.86153],[2.34653,48.8614],[2.34646,48.86127],[2.34645,48.86125],[2.34634,48.86128],[2.34626,48.86114],[2.34617,48.86116],[2.34619,48.86119],[2.34621,48.86119],[2.34624,48.86125],[2.34626,48.86124],[2.34629,48.86129],[2.34624,48.8613],[2.34631,48.86145],[2.34634,48.8615],[2.34639,48.86158],[2.3464,48.86158],[2.34645,48.86167],[2.34665,48.86162],[2.3466,48.86153]],"quartier":"Halles","lengthM":6,"story":"Donne dans la rue Berger.","image":{"provider":"panoramax","id":"20b9741b-8a62-499b-8fe2-d60658f0f7c3","lat":48.86117,"lng":2.34632,"sequenceId":"a3a71f66-1fd0-469c-aa1b-81c6b68f62c6"}},{"kind":"street","id":"v:1:11551","name":"porte du Jour","arr":1,"lat":48.8631,"lng":2.34387,"themes":[],"shape":[[2.34367,48.86299],[2.34385,48.8628],[2.34386,48.86277],[2.34392,48.86251],[2.34383,48.86252],[2.3438,48.86257],[2.34383,48.8626],[2.34375,48.86281],[2.34365,48.86286],[2.34351,48.86307],[2.34382,48.86317],[2.34382,48.86318],[2.34382,48.86321],[2.34384,48.86323],[2.34386,48.86325],[2.34388,48.86326],[2.34389,48.86326],[2.34389,48.86326],[2.34389,48.86327],[2.34388,48.86327],[2.34388,48.86327],[2.34386,48.86328],[2.34386,48.86328],[2.34385,48.86329],[2.34385,48.86329],[2.34386,48.8633],[2.34386,48.8633],[2.34414,48.86327],[2.34404,48.86324],[2.34404,48.86324],[2.34404,48.86323],[2.34403,48.86321],[2.34401,48.86318],[2.34397,48.86316],[2.34394,48.86316],[2.34367,48.86299]],"quartier":"Halles","lengthM":72,"story":"Voisinage de la rue du jour.","image":{"provider":"panoramax","id":"3e26e5ee-5c83-47e6-9978-a03c121a6a33","lat":48.86333,"lng":2.34388,"sequenceId":"77fccaa7-7f31-496a-ac2c-16b0c7995212"}},{"kind":"street","id":"v:1:11944","name":"porte du Louvre","arr":1,"lat":48.86239,"lng":2.34323,"themes":[],"shape":[[2.34309,48.86249],[2.3435,48.86239],[2.34349,48.86238],[2.34348,48.86237],[2.34347,48.86236],[2.34346,48.86235],[2.34344,48.86235],[2.34343,48.86234],[2.34341,48.86234],[2.3434,48.86234],[2.34338,48.86233],[2.34338,48.86233],[2.34337,48.86232],[2.34336,48.86232],[2.34336,48.86231],[2.34335,48.86231],[2.34334,48.86231],[2.34333,48.86231],[2.34333,48.8623],[2.34332,48.8623],[2.34331,48.8623],[2.34307,48.86234],[2.34303,48.86235],[2.34295,48.86246],[2.34296,48.86246],[2.34297,48.86246],[2.34299,48.86245],[2.343,48.86245],[2.34302,48.86245],[2.34302,48.86246],[2.34304,48.86246],[2.34305,48.86246],[2.34306,48.86247],[2.34307,48.86247],[2.34308,48.86248],[2.34309,48.86249]],"quartier":"Halles","story":"Voisinage de la rue du Louvre.","image":{"provider":"panoramax","id":"9894e818-c523-4ac6-8e27-fa545573a6a9","lat":48.86208,"lng":2.34322,"sequenceId":"a3a71f66-1fd0-469c-aa1b-81c6b68f62c6"}},{"kind":"street","id":"v:1:12953","name":"porte du Pont Neuf","arr":1,"lat":48.86176,"lng":2.34528,"themes":[],"shape":[[2.34537,48.86161],[2.34537,48.8616],[2.34502,48.86168],[2.34502,48.86169],[2.34517,48.86196],[2.34527,48.86194],[2.34543,48.8619],[2.34552,48.86188],[2.34537,48.86161]],"quartier":"Halles","lengthM":24,"story":"Voisinage de la rue du Pont Neuf.","image":{"provider":"panoramax","id":"35cb47cb-804c-412a-ac00-2c0802df816f","lat":48.86191,"lng":2.34536,"sequenceId":"72f93a45-a1b2-43ad-8a06-2ae89f59a529"}},{"kind":"street","id":"v:1:11828","name":"porte Lescot","arr":1,"lat":48.86161,"lng":2.34756,"themes":["pedestrian"],"shape":[[2.34771,48.86167],[2.34775,48.86176],[2.34792,48.86172],[2.34778,48.86144],[2.34762,48.86148],[2.34765,48.86156],[2.34761,48.86157],[2.34759,48.86153],[2.34747,48.86156],[2.34741,48.86143],[2.34736,48.86144],[2.34742,48.86157],[2.3471,48.86164],[2.3472,48.86183],[2.34749,48.86176],[2.34768,48.86171],[2.34767,48.86168],[2.34771,48.86167]],"quartier":"Halles","lengthM":27,"story":"Voisinage de la rue Pierre Lescot.","image":{"provider":"panoramax","id":"fc778d15-e46f-4938-8e8d-2f97d00464cd","lat":48.8617,"lng":2.34749,"sequenceId":"da0b0069-f8c8-454c-b38d-33cd77b167b6"}},{"kind":"street","id":"v:1:13121","name":"porte Rambuteau","arr":1,"lat":48.86237,"lng":2.34691,"themes":["pedestrian"],"shape":[[2.34701,48.8623],[2.347,48.86228],[2.34703,48.86227],[2.34702,48.86226],[2.34699,48.86226],[2.34697,48.86222],[2.34693,48.86214],[2.34672,48.86219],[2.34679,48.86231],[2.34675,48.86232],[2.34676,48.86233],[2.34679,48.86233],[2.34681,48.86235],[2.34681,48.86237],[2.34679,48.86237],[2.34682,48.86241],[2.34684,48.86241],[2.34696,48.86264],[2.34693,48.86264],[2.34698,48.86273],[2.34721,48.86267],[2.34701,48.8623]],"quartier":"Halles","story":"Donne dans la rue Rambuteau.","image":{"provider":"panoramax","id":"9f200d44-6bf8-4176-a105-e24234127fa4","lat":48.86268,"lng":2.34689,"sequenceId":"9299455a-53c6-4bde-be4c-677366f3946b"}},{"kind":"street","id":"v:1:13584","name":"porte Saint-Eustache","arr":1,"lat":48.86295,"lng":2.34559,"themes":[],"shape":[[2.3457,48.86278],[2.34553,48.86286],[2.34543,48.86295],[2.34543,48.86296],[2.34543,48.86297],[2.34543,48.86297],[2.34543,48.86298],[2.34543,48.86299],[2.34544,48.863],[2.34545,48.863],[2.34546,48.86301],[2.3455,48.86302],[2.34553,48.86303],[2.34555,48.86304],[2.34555,48.86304],[2.34555,48.86304],[2.34558,48.86304],[2.34558,48.86304],[2.3456,48.86303],[2.34561,48.86303],[2.34563,48.86302],[2.34563,48.86302],[2.34564,48.86301],[2.34564,48.86301],[2.34565,48.863],[2.34565,48.86299],[2.34574,48.86287],[2.34575,48.86286],[2.34575,48.86285],[2.34575,48.86284],[2.34575,48.86283],[2.34574,48.86282],[2.34574,48.86281],[2.34573,48.8628],[2.34571,48.86279],[2.3457,48.86278]],"quartier":"Halles","lengthM":62,"story":"Voisinage de l'Eglise","image":{"provider":"panoramax","id":"0e3d43ff-1515-42e5-9b83-71ac2c97754e","lat":48.86306,"lng":2.3456,"sequenceId":"9fe7f3ab-14e3-4174-8731-b06e31d9577b"}},{"kind":"street","id":"v:1:14835","name":"quai Aimé Césaire","arr":1,"lat":48.86192,"lng":2.32692,"themes":["quais"],"shape":[[2.32541,48.86254],[2.32547,48.86252],[2.32547,48.86252],[2.32568,48.86246],[2.32635,48.86224],[2.32692,48.86205],[2.32747,48.86187],[2.32814,48.86165],[2.32855,48.86152],[2.32898,48.86137],[2.32955,48.86119],[2.32993,48.86107],[2.32992,48.86106],[2.33002,48.86088],[2.32995,48.86078],[2.32974,48.86085],[2.32975,48.86086],[2.32681,48.86181],[2.32647,48.86193],[2.32623,48.862],[2.32594,48.8621],[2.32565,48.86219],[2.32545,48.86226],[2.32547,48.86228],[2.32536,48.86231],[2.32534,48.86229],[2.32518,48.86235],[2.32518,48.86235],[2.32511,48.86237],[2.32527,48.86259],[2.32542,48.86254],[2.32541,48.86254]],"quartier":"Saint-Germain-l'Auxerrois","lengthM":400,"story":"Aimé Fernand David Césaire (Basse-Pointe,(Martinique), 1913-Fort de France, 2008), essayiste poète chantre de la \"Négritude\", et homme politique.","image":{"provider":"panoramax","id":"82e295ca-f550-4233-9163-2a5023572438","lat":48.86081,"lng":2.32974,"sequenceId":"45c3c828-b9f6-4041-8b50-271a4aac5636"}},{"kind":"street","id":"v:1:11310","name":"quai de l'Horloge","arr":1,"lat":48.85667,"lng":2.34449,"themes":["quais"],"shape":[[2.34175,48.85716],[2.3433,48.85701],[2.34544,48.85661],[2.34634,48.85631],[2.34626,48.85621],[2.34613,48.85625],[2.34573,48.85636],[2.34567,48.85638],[2.34561,48.85643],[2.3456,48.85645],[2.34558,48.85646],[2.34556,48.85648],[2.34536,48.85654],[2.34534,48.85654],[2.34532,48.85653],[2.34494,48.85662],[2.34492,48.85663],[2.3449,48.85665],[2.34485,48.85665],[2.34483,48.85665],[2.3448,48.85664],[2.34464,48.85666],[2.3446,48.85667],[2.3446,48.85668],[2.34446,48.85671],[2.34426,48.85675],[2.34425,48.85675],[2.34411,48.85677],[2.34409,48.85676],[2.34406,48.85677],[2.3433,48.85686],[2.34296,48.8569],[2.34253,48.85696],[2.34223,48.857],[2.34162,48.85708],[2.34175,48.85716]],"quartier":"Saint-Germain-l'Auxerrois","lengthM":352,"story":"Voisinage de l'horloge du Palais de Justice.","image":{"provider":"panoramax","id":"a4cfcd3b-2d0b-45c0-a168-a23520a0e6bc","lat":48.85671,"lng":2.34484,"sequenceId":"6b3c90e6-3cd4-443b-90d5-cd2e4725a620"}},{"kind":"street","id":"v:1:12199","name":"quai de la Mégisserie","arr":1,"lat":48.85786,"lng":2.34479,"themes":["quais"],"shape":[[2.34284,48.8585],[2.34293,48.85848],[2.34337,48.85836],[2.34349,48.85832],[2.34377,48.85825],[2.34393,48.85821],[2.34437,48.85809],[2.34455,48.85805],[2.34474,48.85799],[2.34493,48.85794],[2.3453,48.85784],[2.34539,48.85782],[2.34558,48.85777],[2.34558,48.85777],[2.34662,48.85749],[2.34662,48.85749],[2.34669,48.85747],[2.34677,48.85722],[2.34676,48.85721],[2.34674,48.85722],[2.34653,48.85727],[2.34639,48.85732],[2.34575,48.85749],[2.34569,48.85749],[2.34562,48.8575],[2.34555,48.8575],[2.34541,48.85752],[2.34535,48.85753],[2.34492,48.85765],[2.34453,48.85775],[2.34263,48.85832],[2.34263,48.85832],[2.34263,48.85833],[2.34263,48.85833],[2.34249,48.85849],[2.34284,48.8585]],"quartier":"Saint-Germain-l'Auxerrois","lengthM":315,"story":"Les mégissiers étaient autrefois établis sur ce quai.","image":{"provider":"panoramax","id":"fc0a3288-4d90-420b-a792-3364aa3ea234","lat":48.85728,"lng":2.34679,"sequenceId":"6e3ae92a-45f7-46ae-a0ea-3067ec4a4c90"}},{"kind":"street","id":"v:1:12553","name":"quai des Orfèvres","arr":1,"lat":48.85528,"lng":2.3434,"themes":["quais"],"shape":[[2.34302,48.85545],[2.34318,48.85537],[2.34323,48.85535],[2.34326,48.85533],[2.34331,48.85531],[2.34336,48.85528],[2.3434,48.85526],[2.34342,48.85525],[2.34346,48.85523],[2.34351,48.8552],[2.34354,48.85518],[2.34359,48.85516],[2.34364,48.85514],[2.34368,48.85511],[2.34368,48.85511],[2.34378,48.85506],[2.34385,48.85503],[2.34395,48.855],[2.34399,48.8549],[2.34392,48.85485],[2.344,48.85481],[2.34409,48.85478],[2.34432,48.85467],[2.34461,48.85455],[2.34466,48.85452],[2.34469,48.8545],[2.34484,48.85429],[2.34333,48.85498],[2.34311,48.85516],[2.34169,48.8564],[2.34147,48.85681],[2.34158,48.85671],[2.34183,48.85649],[2.34202,48.85632],[2.3425,48.8559],[2.34302,48.85545]],"quartier":"Saint-Germain-l'Auxerrois","lengthM":366,"story":"Quai habité depuis le XVIIe siècle par des orfèvres et des joailliers.","image":{"provider":"panoramax","id":"50fd07d6-cf4e-4393-8202-085eed108c03","lat":48.85475,"lng":2.34396,"sequenceId":"6b3c90e6-3cd4-443b-90d5-cd2e4725a620"}},{"kind":"street","id":"v:1:13905","name":"quai des Tuileries","arr":1,"lat":48.86338,"lng":2.32269,"themes":["quais"],"shape":[[2.32159,48.86391],[2.3216,48.86391],[2.32161,48.86391],[2.32161,48.8639],[2.32162,48.8639],[2.32163,48.86386],[2.32163,48.86385],[2.32163,48.86385],[2.32163,48.86383],[2.32164,48.86383],[2.32164,48.86382],[2.32165,48.86378],[2.32165,48.86378],[2.32165,48.86377],[2.3217,48.86375],[2.3217,48.86375],[2.32214,48.86361],[2.32268,48.86343],[2.32373,48.86309],[2.32428,48.86291],[2.32462,48.8628],[2.32495,48.86269],[2.32512,48.86264],[2.32527,48.86259],[2.32512,48.86239],[2.32504,48.86241],[2.32492,48.86243],[2.32484,48.86246],[2.32484,48.86245],[2.32481,48.86246],[2.32138,48.86357],[2.32138,48.86357],[2.32136,48.86357],[2.32136,48.86358],[2.32134,48.86359],[2.32159,48.86391]],"quartier":"Saint-Germain-l'Auxerrois","lengthM":895,"story":"Voisinage de l'ancien palais des Tuileries.","image":{"provider":"panoramax","id":"5263f586-7a31-4ea8-a00d-d7e4274ff1ea","lat":48.86306,"lng":2.32373,"sequenceId":"4c96a549-9a27-494b-827a-075555462718"}},{"kind":"street","id":"v:1:11947","name":"quai du Louvre","arr":1,"lat":48.85873,"lng":2.34122,"themes":["quais"],"shape":[[2.34139,48.85885],[2.34157,48.85882],[2.34183,48.85884],[2.34234,48.85871],[2.34244,48.85873],[2.34249,48.85849],[2.3424,48.85838],[2.34213,48.85845],[2.34213,48.85845],[2.34212,48.85845],[2.34212,48.85844],[2.3416,48.85854],[2.3416,48.85853],[2.34159,48.85853],[2.34133,48.85858],[2.34134,48.85858],[2.34134,48.85858],[2.34135,48.85859],[2.34024,48.8588],[2.34023,48.8588],[2.34018,48.85881],[2.34017,48.85881],[2.34009,48.85883],[2.33982,48.85888],[2.33986,48.85897],[2.3401,48.85909],[2.34055,48.859],[2.3407,48.85897],[2.34078,48.85895],[2.34086,48.85893],[2.34103,48.8589],[2.34117,48.85888],[2.34128,48.85886],[2.34139,48.85885]],"quartier":"Saint-Germain-l'Auxerrois","lengthM":80,"story":"Voisinage du Palais du Louvre.","image":{"provider":"panoramax","id":"5bad571c-f389-42d9-9b4b-198e2b0f6ad8","lat":48.85852,"lng":2.3413,"sequenceId":"9802529e-5ec8-433a-95ac-e9d37bf3be7e"}},{"kind":"street","id":"v:1:14828","name":"quai François Mitterrand","arr":1,"lat":48.85966,"lng":2.33581,"themes":["quais"],"shape":[[2.33025,48.86093],[2.3316,48.86065],[2.3317,48.86064],[2.33317,48.8603],[2.33365,48.86019],[2.33456,48.85996],[2.33465,48.85994],[2.33514,48.85983],[2.33522,48.85981],[2.33569,48.85969],[2.33573,48.85971],[2.3358,48.8597],[2.33653,48.85949],[2.33672,48.85943],[2.33778,48.85935],[2.33869,48.85929],[2.33878,48.85933],[2.33896,48.85929],[2.33919,48.85924],[2.33936,48.8592],[2.33982,48.85888],[2.33892,48.85899],[2.33805,48.8591],[2.33798,48.85913],[2.33788,48.85916],[2.33786,48.85916],[2.33784,48.85914],[2.33754,48.85916],[2.33709,48.8592],[2.33658,48.85924],[2.33543,48.85949],[2.33482,48.8596],[2.33287,48.86006],[2.33205,48.86023],[2.33096,48.86048],[2.33025,48.86093]],"quartier":"Saint-Germain-l'Auxerrois","lengthM":710,"story":"François Mitterrand (Jarnac, 1916-Paris, 1996). Président de la République Française de 1981 à 1995.","image":{"provider":"panoramax","id":"ef168391-fb16-4620-8a33-6b78c1af97ad","lat":48.85914,"lng":2.33919,"sequenceId":"33dff3d4-ed6a-4964-8fe9-fddd1aab9844"}},{"kind":"street","id":"v:1:8804","name":"rue Adolphe Jullien","arr":1,"lat":48.863,"lng":2.3421,"themes":[],"shape":[[2.3421,48.86312],[2.34211,48.86312],[2.34211,48.86312],[2.34214,48.86312],[2.34214,48.86311],[2.34215,48.86311],[2.34216,48.86311],[2.34222,48.8631],[2.34222,48.8631],[2.34223,48.8631],[2.34223,48.8631],[2.34223,48.8631],[2.34227,48.86309],[2.34214,48.86285],[2.3421,48.86286],[2.3421,48.86286],[2.3421,48.86286],[2.34209,48.86287],[2.34209,48.86286],[2.34203,48.86288],[2.34203,48.86288],[2.34202,48.86288],[2.34202,48.86288],[2.34199,48.86289],[2.34199,48.86289],[2.34198,48.86289],[2.34198,48.86289],[2.34197,48.86289],[2.3421,48.86313],[2.3421,48.86313],[2.3421,48.86312]],"quartier":"Halles","lengthM":13,"story":"Adolphe Jullien (1803-1873), ingénieur, directeur de la Compagnie des Chemins de Fer de l'Ouest, un des principaux promoteurs des chemins de fer en France.","image":{"provider":"panoramax","id":"b1c18432-6aea-472d-b48d-e49c0e8731ff","lat":48.86295,"lng":2.34194,"sequenceId":"33dff3d4-ed6a-4964-8fe9-fddd1aab9844"}},{"kind":"street","id":"v:1:9150","name":"rue Baillet","arr":1,"lat":48.85978,"lng":2.34272,"themes":["pedestrian"],"shape":[[2.34303,48.85975],[2.34313,48.85973],[2.34314,48.85973],[2.34307,48.85968],[2.34301,48.85969],[2.34294,48.8597],[2.34217,48.85982],[2.34215,48.85988],[2.34215,48.85987],[2.34221,48.85986],[2.34232,48.85985],[2.34254,48.85982],[2.34265,48.8598],[2.34269,48.8598],[2.34275,48.85979],[2.34296,48.85976],[2.34302,48.85975],[2.34303,48.85975]],"quartier":"Saint-Germain-l'Auxerrois","lengthM":73,"story":"Baillet, argentier de Charles V ; demeurait au n° 4.","image":{"provider":"panoramax","id":"08470ec7-b778-4a4a-b88c-7279df5c1943","lat":48.85984,"lng":2.34221,"sequenceId":"600d5cee-5328-4dd4-8838-5f27ef85aa59"}},{"kind":"street","id":"v:1:9151","name":"rue Bailleul","arr":1,"lat":48.86102,"lng":2.34161,"themes":["pedestrian"],"shape":[[2.34126,48.86109],[2.34147,48.86106],[2.34147,48.86105],[2.34162,48.86103],[2.34163,48.86103],[2.34183,48.861],[2.34183,48.86099],[2.34183,48.86099],[2.34192,48.86098],[2.34212,48.86096],[2.34219,48.86096],[2.34241,48.86095],[2.3424,48.8609],[2.34226,48.86091],[2.34208,48.86092],[2.34187,48.86094],[2.34168,48.86098],[2.34167,48.86097],[2.3414,48.86102],[2.34124,48.86104],[2.34106,48.86107],[2.34106,48.86107],[2.34106,48.86107],[2.34105,48.86107],[2.34105,48.86106],[2.34108,48.86116],[2.34128,48.86113],[2.34126,48.86109]],"quartier":"Halles","lengthM":100,"story":"Robert Bailleul, clerc des comptes, y habitait en 1423.","image":{"provider":"panoramax","id":"2d7dde8d-342f-4c43-af28-ebbe86f68f14","lat":48.86095,"lng":2.34208,"sequenceId":"600d5cee-5328-4dd4-8838-5f27ef85aa59"}},{"kind":"street","id":"v:1:9162","name":"rue Baltard","arr":1,"lat":48.86253,"lng":2.34645,"themes":["pedestrian"],"shape":[[2.34654,48.86272],[2.3465,48.86264],[2.34653,48.86263],[2.34655,48.86261],[2.34656,48.86259],[2.34656,48.86257],[2.34655,48.86255],[2.34655,48.86251],[2.34642,48.86226],[2.3464,48.86224],[2.34637,48.86218],[2.34625,48.86186],[2.34621,48.86194],[2.3463,48.86215],[2.34638,48.86227],[2.34642,48.86235],[2.34644,48.86245],[2.34642,48.86249],[2.34641,48.86253],[2.34639,48.86255],[2.34638,48.86256],[2.34638,48.86258],[2.34638,48.8626],[2.34639,48.86262],[2.34641,48.86263],[2.34643,48.86264],[2.34649,48.86273],[2.34649,48.86274],[2.34649,48.86275],[2.34648,48.86276],[2.34647,48.86276],[2.34658,48.86274],[2.34657,48.86273],[2.34656,48.86273],[2.34655,48.86272],[2.34654,48.86272]],"quartier":"Halles","lengthM":111,"story":"Victor Baltard (Paris, 1805-Paris, 1874), architecte, restaurateur et aquarelliste français. Architecte des anciennes Halles Centrales de Paris.","image":{"provider":"panoramax","id":"5aee7b93-3d6d-4250-aa9f-32f25448136e","lat":48.86255,"lng":2.34643,"sequenceId":"bbdd4594-04fb-4431-b93d-6ee295e9e7ee"}},